"Interval"|"ms"|0|0|1,"Utc"|"ms"|0|0|1,"FB_p"|"bar"|0|300|50,"Volant"|"F"|0.0|300.0|50,"xFR"|"mm"|0.0|5.0|50,"xRR"|"mm"|0.0|5.0|50,"xFL"|"mm"|0.0|5.0|50,"xRL"|"mm"|0.0|5.0|50,"AccelX"|"G"|-3.0|3.0|50,"AccelY"|"G"|-3.0|3.0|50,"AccelZ"|"G"|-3.0|3.0|50,"Yaw"|"Deg/Sec"|-120|120|50,"Pitch"|"Deg/Sec"|-120|120|50,"Roll"|"Deg/Sec"|-120|120|50,"Gsum"|"G"|0.0|3.0|50,"RPM"|""|0|14000|50,"TPS"|"%"|0|100|50,"WaterTemp"|"?C"|0|300|50,"AirTemp"|"?C"|-1000|1000|50,"MAP"|"KPa"|0|255|50,"Lambda"|""|0|1024|50,"WheelSpeed"|"MPH"|0.0|150.0|50,"OilPress"|"PSI"|0|150|50,"FuelPress"|"PSI"|0|150|50,"OilTemp"|"F"|0|300|50,"Battery"|"Volts"|0.0|20.0|50,"FuelCon"|"L/h"|-1000|1000|50,"Gear"|""|0|10|50,"Advance"|"Deg"|-360|360|50,"Injection"|"ms"|-1000|1000|50,"FuelCon"|"L/100km"|-1000|1000|50,"LC_But_Pres"|""|-1000|1000|50,"LC_Active"|""|-1000|1000|50,"RD_Speed"|""|-1000|1000|50,"RUD_Speed"|""|-1000|1000|50,"LD_Speed"|""|-1000|1000|50,"LUD_Speed"|""|-1000|1000|50,"Latitude"|"Degrees"|-180.0|180.0|10,"Longitude"|"Degrees"|-180.0|180.0|10,"Speed"|"kph"|0.0|150.0|10,"Altitude"|"m"|0.0|4000.0|10,"LapCount"|""|0|0|10,"LapTime"|"Min"|0.0|0.0|10,"Sector"|""|0|0|10,"SectorTime"|"Min"|0.0|0.0|10,"ElapsedTime"|"Min"|0.0|0.0|10,"CurrentLap"|""|0|0|10,"Distance"|"km"|0.0|0.0|10,"SessionTime"|"Min"|0.0|0.0|10
614363,1560691886185,2,2.35,1.96,3.46,1.73,5.06,1.11,-0.12,0.05,5,-3,4,1.11,7194,5,92,34,23,899,494.0,514,458,60,117.0,77,1,261,154,40,0,0,438,3580,17628,494,,,,,,,,,,,,
614383,1560691886205,1,2.34,1.94,3.46,1.77,5.07,0.99,-0.13,0.04,6,-1,4,1.0,7364,5,92,34,22,897,490.0,515,458,60,118.0,85,1,262,151,42,0,0,440,32033,10432,490,,,,,,,,,,,,
614403,1560691886225,1,2.35,1.94,3.46,1.81,5.04,0.97,-0.1,0.01,6,1,5,0.97,7364,5,92,34,22,895,488.0,523,456,60,118.0,85,1,263,151,42,0,0,448,-17956,-16384,488,,,,,,,,,,,,
614423,1560691886245,2,2.34,1.93,3.46,1.82,5.08,0.89,-0.09,-0.01,7,1,5,0.89,7506,5,92,34,21,892,486.0,523,461,60,118.0,85,1,265,149,42,0,0,460,32033,3571,486,,,,,,,,,,,,
614443,1560691886265,3,2.34,1.91,3.46,1.82,5.07,0.87,-0.14,-0.04,8,2,5,0.88,7681,5,92,34,20,889,479.0,538,465,60,118.0,85,1,265,149,42,0,0,449,8488,26704,479,45.699005,4.910068,51.14,188.5,5,1.8283,0,0.0,1.0817,6,0.76,10.2407
614463,1560691886285,4,2.33,1.91,3.46,1.84,5.03,0.83,-0.23,-0.05,9,3,5,0.86,7744,5,92,34,20,888,474.0,540,465,60,118.0,85,1,266,149,42,0,0,447,-3210,8488,477,,,,,,,,,,,,
614483,1560691886307,1,2.32,1.91,3.46,1.88,5.07,0.93,-0.26,0.02,9,3,5,0.96,7744,5,92,34,20,888,474.0,540,458,60,117.0,90,1,267,146,43,0,0,445,12552,21432,474,,,,,,,,,,,,
614503,1560691886327,1,2.32,1.91,3.46,1.88,5.07,0.99,-0.21,0.12,9,2,6,1.02,7934,5,92,34,20,893,465.0,560,457,60,117.0,90,1,268,146,43,0,0,446,-9160,8488,468,,,,,,,,,,,,
614523,1560691886347,2,2.32,1.92,3.46,1.89,5.04,0.95,-0.15,0.07,9,2,7,0.96,7934,5,92,34,20,893,465.0,560,460,60,118.0,90,1,269,146,43,0,0,444,-26615,26704,465,,,,,,,,,,,,
614543,1560691886367,3,2.3,1.91,3.48,1.88,5.04,0.93,-0.11,0.06,9,2,7,0.93,7971,5,92,34,19,896,462.0,557,457,60,118.0,90,1,269,144,43,0,0,432,-8985,-7939,462,45.698998,4.910059,48.32,188.5,5,1.8283,0,0.0,1.0833,6,0.76,10.2424
614563,1560691886387,2,2.3,1.91,3.47,1.89,5.03,0.97,-0.12,0.18,8,2,6,0.98,8113,5,92,34,19,906,454.0,581,458,60,117.0,96,1,270,144,43,0,0,437,3571,21580,459,,,,,,,,,,,,
614583,1560691886407,3,2.3,1.93,3.45,1.89,5.04,0.89,-0.09,0.11,8,2,7,0.89,8113,5,92,34,19,906,454.0,581,458,60,117.0,96,1,270,145,44,0,0,434,8488,3826,454,,,,,,,,,,,,
614603,1560691886427,-1,2.29,1.92,3.46,1.89,5.06,0.9,-0.1,0.24,8,3,6,0.91,8116,5,92,34,18,920,448.0,588,458,60,117.0,96,1,270,142,44,0,0,430,2131,31796,449,,,,,,,,,,,,
614623,1560691886447,2,2.29,1.92,3.46,1.89,5.05,0.88,-0.01,0.18,8,3,7,0.88,8120,5,92,34,18,920,448.0,588,458,60,117.0,96,1,270,142,44,0,0,433,21432,243,448,,,,,,,,,,,,
614643,1560691886467,-0,2.28,1.95,3.44,1.89,5.04,0.83,-0.04,0.15,8,4,7,0.84,8120,5,92,34,18,925,447.0,581,459,60,118.0,96,1,270,142,44,0,0,434,26704,243,445,45.698986,4.910051,46.64,188.4,5,1.8283,0,0.0,1.085,6,0.76,10.2441
614663,1560691886487,1,2.29,1.95,3.43,1.89,5.08,0.86,-0.04,0.27,7,5,5,0.86,8067,5,92,34,18,930,445.0,583,455,60,117.0,96,1,270,141,44,0,0,432,21580,13180,445,,,,,,,,,,,,
614683,1560691886505,3,2.28,1.96,3.39,1.88,5.06,0.81,0.05,0.13,7,5,6,0.81,7988,5,92,34,18,936,442.0,573,458,60,118.0,97,1,269,141,43,0,0,430,19477,13552,439,,,,,,,,,,,,
614703,1560691886525,4,2.28,1.96,3.38,1.89,5.05,0.78,-0.03,0.15,7,5,6,0.78,7968,5,92,34,18,939,438.0,566,461,60,118.0,97,1,269,141,43,0,0,429,-7939,-4082,438,,,,,,,,,,,,
614723,1560691886545,-1,2.29,1.97,3.39,1.89,5.05,0.8,-0.07,0.27,7,5,5,0.81,7864,5,92,34,18,937,433.0,564,458,60,117.0,97,1,269,141,43,0,0,422,243,-21792,436,,,,,,,,,,,,
614743,1560691886565,2,2.28,1.98,3.39,1.89,5.04,0.81,0.05,0.27,6,5,6,0.81,7855,5,92,34,18,928,430.0,551,458,60,117.0,97,1,268,141,43,0,0,422,-3314,-3414,432,45.698978,4.910042,45.08,188.4,5,1.8283,0,0.0,1.0867,6,0.76,10.2457
614763,1560691886585,2,2.29,1.97,3.39,1.88,5.07,0.73,0.12,0.12,6,5,6,0.74,7855,5,92,34,18,928,430.0,551,458,60,118.0,97,1,268,141,43,0,0,421,3635,-21792,430,,,,,,,,,,,,
614783,1560691886609,3,2.27,1.98,3.39,1.88,5.06,0.71,0.09,0.08,6,5,6,0.71,7789,5,92,34,18,909,427.0,551,456,60,118.0,95,1,267,141,41,0,0,420,31796,-3414,429,,,,,,,,,,,,
614803,1560691886629,-0,2.27,1.98,3.39,1.89,5.03,0.75,-0.03,0.15,5,4,5,0.75,7789,5,92,34,18,909,427.0,551,456,60,118.0,95,1,267,141,41,0,0,417,-4082,-26615,427,,,,,,,,,,,,
614823,1560691886649,-2,2.27,2.01,3.37,1.88,5.07,0.87,-0.07,0.26,4,1,3,0.87,7747,5,92,34,18,900,423.0,554,456,60,117.0,95,1,267,141,41,0,0,414,3826,13040,423,,,,,,,,,,,,
614843,1560691886669,1,2.26,2.01,3.37,1.88,5.06,0.98,-0.04,0.33,3,0,2,0.98,7674,5,92,34,19,884,421.0,555,458,60,117.0,95,1,266,144,41,0,0,416,-3414,13040,420,45.698967,4.910033,43.56,188.4,5,1.8283,0,0.0,1.0883,6,0.76,10.2474
614863,1560691886689,0,2.25,2.01,3.37,1.87,5.06,1.0,0.0,0.33,3,0,2,1.0,7609,5,92,34,18,885,420.0,545,458,60,117.0,95,1,266,144,41,0,0,412,-8165,-26615,419,,,,,,,,,,,,
614883,1560691886707,3,2.23,2.04,3.36,1.87,5.05,0.99,0.07,0.23,2,-0,2,0.99,7609,5,92,34,18,885,420.0,545,458,60,118.0,97,1,266,144,41,0,0,409,-8165,1504,418,,,,,,,,,,,,
614903,1560691886727,1,2.23,2.1,3.35,1.87,5.06,0.94,0.15,0.14,1,-0,3,0.95,7551,5,92,34,19,893,416.0,549,462,60,117.0,97,1,265,144,41,0,0,408,7154,1504,413,,,,,,,,,,,,
614923,1560691886747,2,2.21,2.1,3.34,1.86,5.06,0.96,0.21,0.17,1,-0,2,0.98,7545,5,92,34,19,899,414.0,537,462,60,117.0,97,1,265,144,41,0,0,406,18584,-9211,411,,,,,,,,,,,,
614943,1560691886767,3,2.2,2.1,3.33,1.84,5.06,0.91,0.33,0.08,-0,-1,2,0.97,7545,5,92,34,19,899,414.0,537,459,60,118.0,97,1,265,144,41,0,0,405,2524,6512,409,45.698956,4.910025,42.28,188.4,5,1.8283,0,0.0,1.09,6,0.76,10.2491
614963,1560691886787,2,2.19,2.1,3.31,1.85,5.03,0.87,0.41,0.0,-1,-1,2,0.96,7488,5,92,34,19,904,414.0,533,457,60,118.0,97,1,264,144,41,0,0,403,-9166,-1818,407,,,,,,,,,,,,
614983,1560691886804,3,2.18,2.13,3.3,1.84,5.06,0.79,0.52,-0.01,-2,-0,1,0.94,7419,5,92,34,19,920,412.0,524,460,60,119.0,98,1,264,144,40,0,0,403,-9166,28696,404,,,,,,,,,,,,
615003,1560691886824,0,2.17,2.13,3.25,1.85,5.07,0.85,0.54,0.08,-3,-1,-1,1.0,7419,5,92,34,19,920,412.0,524,456,60,119.0,98,1,264,144,40,0,0,404,13040,1,400,,,,,,,,,,,,
615023,1560691886844,1,2.18,2.12,3.24,1.84,5.04,0.82,0.58,0.09,-4,-1,-2,1.0,7408,5,92,34,19,930,409.0,525,463,60,118.0,98,1,264,144,40,0,0,400,11560,-32702,399,,,,,,,,,,,,
615043,1560691886864,1,2.18,2.15,3.24,1.84,5.06,0.82,0.56,0.12,-5,-2,-4,0.99,7352,5,92,34,19,935,408.0,532,458,60,118.0,98,1,263,144,40,0,0,398,10392,-6524,395,45.698952,4.910018,41.46,188.4,5,1.8283,0,0.0,1.0917,6,0.77,10.2507
615063,1560691886884,0,2.17,2.17,3.24,1.84,5.05,0.91,0.52,0.17,-6,-2,-5,1.05,7295,5,92,35,19,931,404.0,524,459,60,117.0,99,1,263,143,40,0,0,400,-26615,-19019,393,,,,,,,,,,,,
615083,1560691886908,4,2.17,2.15,3.24,1.84,5.03,0.93,0.38,0.26,-6,-1,-6,1.01,7295,5,92,35,19,931,404.0,524,459,60,117.0,99,1,262,143,39,0,0,398,-9211,-1562,391,,,,,,,,,,,,
615103,1560691886928,2,2.17,2.16,3.24,1.84,5.04,0.93,0.34,0.22,-7,0,-6,0.99,7244,5,92,35,19,923,404.0,521,456,60,118.0,99,1,262,143,39,0,0,390,1504,-3866,390,,,,,,,,,,,,
615123,1560691886948,1,2.17,2.16,3.24,1.84,5.07,0.94,0.4,0.15,-7,0,-6,1.02,7175,5,92,35,20,898,400.0,526,459,60,117.0,99,1,262,143,39,0,0,391,11545,8200,388,,,,,,,,,,,,
615143,1560691886968,-1,2.18,2.16,3.23,1.84,5.05,0.89,0.5,0.09,-7,1,-7,1.02,7178,5,92,35,20,881,398.0,526,459,60,118.0,99,1,261,145,39,0,0,393,6512,-18948,386,45.69894,4.91001,40.05,188.4,5,1.8283,0,0.0,1.0933,6,0.77,10.2524
615163,1560691886988,-1,2.19,2.16,3.23,1.83,5.06,0.94,0.43,0.26,-8,2,-9,1.03,7178,5,92,35,20,881,398.0,526,459,60,118.0,99,1,261,145,39,0,0,388,6384,770,384,,,,,,,,,,,,
615183,1560691887004,4,2.19,2.17,3.23,1.85,5.04,0.93,0.29,0.35,-8,1,-11,0.98,7086,5,92,35,20,861,393.0,503,455,60,119.0,102,1,260,145,39,0,0,389,-32702,-6656,381,,,,,,,,,,,,
615203,1560691887024,3,2.21,2.16,3.25,1.84,5.07,0.98,0.26,0.23,-8,1,-10,1.01,7070,5,92,35,20,857,392.0,514,460,60,118.0,102,1,260,145,39,0,0,387,-6656,3,379,,,,,,,,,,,,
615223,1560691887044,-1,2.22,2.17,3.25,1.85,5.08,0.88,0.39,0.06,-7,4,-9,0.96,7006,5,92,35,20,861,388.0,509,460,60,118.0,102,1,260,145,39,0,0,383,1,257,378,,,,,,,,,,,,
615243,1560691887064,4,2.24,2.16,3.25,1.86,5.05,0.97,0.3,0.19,-8,2,-10,1.01,6967,5,92,35,20,861,388.0,509,458,60,117.0,102,1,260,145,39,0,0,380,-31744,-6656,378,45.698936,4.910002,38.95,188.4,5,1.8283,0,0.0,1.095,6,0.77,10.2541
615263,1560691887084,2,2.23,2.16,3.25,1.86,5.07,0.94,0.28,0.18,-7,2,-9,0.98,6967,5,92,35,20,866,387.0,496,457,60,118.0,102,1,259,144,39,0,0,374,240,-6656,378,,,,,,,,,,,,
615283,1560691887106,1,2.24,2.16,3.26,1.85,5.04,0.91,0.32,0.16,-6,3,-10,0.97,6913,5,92,35,21,881,381.0,495,462,60,117.0,100,1,259,144,38,0,0,375,-19019,0,376,,,,,,,,,,,,
615303,1560691887126,3,2.24,2.15,3.27,1.86,5.08,0.94,0.22,0.23,-7,2,-10,0.96,6883,5,92,35,21,880,379.0,492,462,60,117.0,100,1,260,147,38,0,0,374,-18948,0,374,,,,,,,,,,,,
615323,1560691887146,-2,2.25,2.15,3.26,1.86,5.04,0.95,0.31,0.14,-6,2,-9,1.0,6855,5,92,35,21,880,379.0,492,457,60,118.0,100,1,260,147,38,0,0,368,8200,0,372,,,,,,,,,,,,
615343,1560691887166,4,2.25,2.14,3.28,1.86,5.07,0.89,0.24,0.13,-5,4,-9,0.92,6855,5,92,35,21,877,376.0,495,463,60,117.0,100,1,260,147,38,0,0,367,3,-14707,371,45.698925,4.909996,38.03,188.4,5,1.8283,0,0.0,1.0967,6,0.77,10.2557
615363,1560691887186,-1,2.25,2.14,3.28,1.86,5.04,1.0,0.26,0.11,-5,3,-7,1.03,6828,5,92,35,21,868,375.0,496,459,60,118.0,100,1,260,146,38,0,0,366,1,230,371,,,,,,,,,,,,
615383,1560691887204,4,2.24,2.12,3.27,1.88,5.03,0.89,0.21,0.17,-4,2,-8,0.92,6747,5,92,35,21,852,369.0,485,456,60,117.0,100,1,260,146,37,0,0,364,257,2790,368,,,,,,,,,,,,
615403,1560691887224,0,2.25,2.14,3.28,1.89,5.07,0.97,0.16,0.16,-4,0,-8,0.98,6737,5,92,35,21,848,367.0,485,456,60,117.0,100,1,260,146,37,0,0,362,-6656,230,366,,,,,,,,,,,,
615423,1560691887244,4,2.25,2.14,3.31,1.89,5.07,0.92,0.14,0.21,-4,0,-9,0.93,6737,5,92,35,21,848,367.0,485,457,60,119.0,100,1,260,146,37,0,0,359,0,-6640,365,,,,,,,,,,,,
615443,1560691887264,1,2.25,2.13,3.3,1.88,5.05,0.97,0.14,0.24,-4,1,-8,0.98,6713,5,92,35,22,852,366.0,492,460,60,118.0,100,1,260,149,37,0,0,359,230,2060,364,45.698917,4.909989,37.1,188.4,5,1.8283,0,0.0,1.0983,6,0.77,10.2574
615463,1560691887284,3,2.26,2.11,3.31,1.88,5.05,0.97,0.02,0.33,-4,0,-7,0.97,6670,5,92,35,22,859,366.0,480,455,60,118.0,100,1,261,148,37,0,0,360,230,-14707,362,,,,,,,,,,,,
615483,1560691887308,-1,2.27,2.12,3.29,1.9,5.04,0.97,0.08,0.25,-4,1,-5,0.97,6627,5,92,35,22,881,362.0,478,463,60,117.0,102,1,261,148,37,0,0,356,3082,3302,362,,,,,,,,,,,,
615503,1560691887328,2,2.27,2.13,3.29,1.93,5.07,0.98,-0.0,0.28,-3,1,-4,0.98,6609,5,92,35,22,888,358.0,476,463,60,117.0,102,1,261,148,37,0,0,356,2790,3302,360,,,,,,,,,,,,
615523,1560691887348,4,2.29,2.12,3.3,1.93,5.04,0.88,0.05,0.32,-2,4,-4,0.89,6574,5,92,35,22,888,358.0,476,458,60,118.0,102,1,261,148,37,0,0,353,-29978,-30454,357,,,,,,,,,,,,
615543,1560691887368,1,2.29,2.1,3.33,1.92,5.04,1.0,0.0,0.35,-2,2,-4,1.0,6512,5,92,35,23,893,356.0,475,456,60,118.0,102,1,262,151,37,0,0,350,4104,28553,355,45.69891,4.909983,36.11,188.4,5,1.8283,0,0.0,1.1,6,0.77,10.2591
615563,1560691887388,3,2.31,2.08,3.34,1.93,5.04,0.97,-0.1,0.4,-2,0,-3,0.97,6512,5,92,35,23,893,356.0,483,459,60,117.0,102,1,262,151,37,0,0,346,3302,3183,356,,,,,,,,,,,,
615583,1560691887406,2,2.31,2.09,3.34,1.95,5.04,0.87,-0.04,0.4,-1,1,-3,0.87,6441,5,92,35,23,892,353.0,463,455,60,118.0,104,1,263,151,37,0,0,345,3183,28553,356,,,,,,,,,,,,
615603,1560691887426,-1,2.33,2.09,3.34,1.96,5.04,0.94,-0.07,0.39,-2,-1,-3,0.94,6410,5,92,35,23,888,354.0,466,461,60,117.0,104,1,263,151,37,0,0,343,28553,-1246,353,,,,,,,,,,,,
615623,1560691887446,2,2.35,2.05,3.33,1.96,5.04,1.02,-0.18,0.41,-1,-2,-4,1.04,6390,5,92,35,24,886,352.0,463,458,60,119.0,104,1,263,151,37,0,0,345,-1246,2811,353,,,,,,,,,,,,
615643,1560691887466,3,2.35,2.02,3.32,1.95,5.07,1.0,-0.2,0.42,1,-1,-4,1.02,6375,5,92,35,24,885,352.0,464,458,60,119.0,104,1,265,154,37,0,0,343,-30438,8841,352,45.698902,4.909977,35.91,188.5,5,1.8283,0,0.0,1.1017,6,0.77,10.2607
615663,1560691887486,4,2.36,2.01,3.33,1.94,5.07,0.94,-0.15,0.37,2,2,-3,0.96,6375,5,92,35,24,885,352.0,464,460,60,118.0,104,1,265,154,37,0,0,336,-10554,6870,352,,,,,,,,,,,,
615683,1560691887508,-0,2.37,2.02,3.35,1.97,5.05,0.9,-0.16,0.29,2,3,-1,0.91,6360,5,92,35,24,886,350.0,466,461,60,118.0,105,1,265,154,37,0,0,334,6668,-31206,350,,,,,,,,,,,,
615703,1560691887528,1,2.39,2.02,3.38,2.02,5.06,0.89,-0.24,0.34,2,1,2,0.92,6304,5,92,35,24,890,349.0,465,458,60,117.0,105,1,265,158,37,0,0,335,-31222,3327,349,,,,,,,,,,,,
615723,1560691887548,1,2.42,2.01,3.39,2.07,5.04,0.81,-0.26,0.4,4,1,3,0.85,6260,5,92,35,24,897,349.0,452,453,60,119.0,105,1,265,158,37,0,0,333,2560,-31206,349,,,,,,,,,,,,
615743,1560691887568,2,2.44,2.02,3.42,2.13,5.04,0.74,-0.23,0.37,6,2,4,0.77,6204,5,92,35,25,904,348.0,445,459,60,119.0,105,1,266,158,37,0,0,331,-32559,-10554,349,45.698894,4.909971,34.73,188.5,5,1.8283,0,0.0,1.1033,6,0.77,10.2624
615763,1560691887588,4,2.46,2.01,3.47,2.13,5.04,0.71,-0.21,0.3,8,5,6,0.74,6179,5,92,35,25,907,347.0,454,458,60,118.0,106,1,268,158,37,0,0,325,-12032,-122,348,,,,,,,,,,,,
615783,1560691887608,4,2.48,2.0,3.47,2.14,5.04,0.83,-0.25,0.27,9,6,8,0.86,6179,5,92,35,25,907,347.0,454,458,60,118.0,106,1,269,158,37,0,0,324,170,13,347,,,,,,,,,,,,
615803,1560691887628,-1,2.5,1.97,3.47,2.13,5.04,0.94,-0.35,0.27,9,6,10,1.0,6159,5,92,35,25,910,348.0,456,463,60,118.0,106,1,269,158,37,0,0,321,-23296,-122,348,,,,,,,,,,,,
615823,1560691887648,-1,2.52,1.94,3.48,2.14,5.07,1.05,-0.48,0.3,9,5,12,1.15,6141,5,92,35,25,911,347.0,458,460,60,117.0,106,1,269,158,37,0,0,319,155,2560,347,,,,,,,,,,,,
615843,1560691887668,-2,2.55,1.93,3.48,2.13,5.05,1.1,-0.57,0.33,9,3,15,1.24,6091,5,92,35,26,912,346.0,452,460,60,117.0,106,1,272,159,37,0,0,313,150,2560,346,45.698887,4.909965,33.71,188.4,5,1.8283,0,0.0,1.105,6,0.77,10.264
615863,1560691887688,0,2.58,1.92,3.51,2.2,5.07,1.18,-0.65,0.38,10,1,17,1.35,6042,5,92,35,26,908,347.0,447,459,60,117.0,106,1,272,159,37,0,0,311,140,4838,347,,,,,,,,,,,,
615883,1560691887706,-2,2.62,1.91,3.57,2.2,5.05,1.25,-0.74,0.41,10,-2,20,1.46,5973,5,92,35,26,907,347.0,441,458,60,117.0,104,1,272,159,36,0,0,307,-30976,-31222,345,,,,,,,,,,,,
615903,1560691887726,-2,2.64,1.86,3.62,2.19,5.06,1.33,-0.87,0.44,11,-4,22,1.59,5914,5,92,35,27,910,347.0,431,458,60,117.0,104,1,271,159,36,0,0,304,125,-122,347,,,,,,,,,,,,
615923,1560691887746,-2,2.66,1.84,3.66,2.23,5.04,1.4,-0.95,0.5,11,-5,25,1.69,5868,5,92,35,27,915,349.0,425,460,60,117.0,104,1,274,160,36,0,0,300,115,13,347,,,,,,,,,,,,
615943,1560691887766,3,2.66,1.85,3.68,2.3,5.03,1.46,-1.01,0.5,11,-5,28,1.77,5826,5,92,35,27,922,347.0,417,460,60,117.0,104,1,273,160,36,0,0,292,110,-6528,348,45.698879,4.909958,33.16,188.4,5,1.8283,0,0.0,1.1067,6,0.78,10.2657
615963,1560691887786,3,2.68,1.84,3.69,2.31,5.03,1.52,-1.0,0.44,13,-3,29,1.82,5772,5,92,35,28,930,346.0,420,460,60,117.0,104,1,273,160,36,0,0,287,26880,-31222,347,,,,,,,,,,,,
615983,1560691887807,1,2.68,1.84,3.68,2.3,5.07,1.43,-0.99,0.38,16,0,30,1.74,5772,5,92,35,28,930,346.0,420,459,60,118.0,100,1,274,161,35,0,0,283,90,13,346,,,,,,,,,,,,
616003,1560691887827,1,2.69,1.84,3.69,2.3,5.07,1.25,-1.05,0.36,21,1,31,1.63,5733,6,92,35,28,939,345.0,415,461,60,119.0,100,1,274,161,35,0,0,284,23040,-12032,345,,,,,,,,,,,,
616023,1560691887847,-1,2.69,1.85,3.7,2.3,5.04,1.11,-1.08,0.4,24,-0,34,1.55,5712,9,92,35,29,943,342.0,410,456,60,119.0,100,1,276,162,35,0,0,280,80,170,342,,,,,,,,,,,,
616043,1560691887867,0,2.69,1.85,3.7,2.3,5.08,1.15,-1.05,0.45,25,-4,37,1.56,5699,10,92,35,30,945,340.0,415,454,60,118.0,100,1,278,162,35,0,0,274,0,-12032,340,45.698875,4.909952,31.54,188.4,5,1.8283,0,0.0,1.1083,6,0.78,10.2674
616063,1560691887887,3,2.68,1.85,3.7,2.31,5.04,1.23,-1.07,0.44,23,-3,39,1.63,5640,12,92,35,32,944,339.0,420,454,60,117.0,100,1,282,164,35,0,0,269,41,-20736,339,,,,,,,,,,,,
616083,1560691887907,0,2.68,1.84,3.69,2.28,5.07,1.08,-1.09,0.41,26,-1,40,1.54,5578,13,92,35,34,944,338.0,414,457,60,118.0,106,1,287,175,36,0,0,270,10686,175,338,,,,,,,,,,,,
616103,1560691887927,-1,2.69,1.83,3.62,2.27,5.05,1.15,-1.1,0.45,28,-4,41,1.59,5484,15,92,35,36,943,339.0,400,459,60,118.0,106,1,293,185,36,0,0,275,10686,-20736,338,,,,,,,,,,,,
616123,1560691887947,2,2.67,1.83,3.6,2.28,5.04,1.17,-1.04,0.38,27,-3,42,1.57,5450,17,92,35,39,940,334.0,406,461,60,117.0,106,1,304,204,36,0,0,273,250,-24576,334,,,,,,,,,,,,
616143,1560691887967,0,2.66,1.84,3.64,2.26,5.04,0.99,-1.05,0.41,30,-3,41,1.44,5477,18,92,35,42,928,330.0,393,454,60,118.0,106,1,314,207,36,0,0,265,1886,145,330,45.698868,4.909945,30.77,188.4,5,1.8283,0,0.0,1.11,6,0.78,10.269
616163,1560691887987,0,2.64,1.84,3.66,2.26,5.04,1.05,-1.04,0.46,31,-6,42,1.48,5553,20,92,35,44,918,328.0,395,450,60,119.0,106,1,323,212,36,0,0,261,630,-25856,328,,,,,,,,,,,,
616183,1560691888001,2,2.62,1.87,3.66,2.24,5.06,1.15,-0.91,0.46,29,-6,44,1.47,5552,21,92,35,47,908,327.0,407,462,60,117.0,134,1,335,217,44,0,0,266,630,-28416,327,,,,,,,,,,,,
616203,1560691888021,2,2.59,1.93,3.64,2.26,5.04,1.0,-0.92,0.39,29,-1,43,1.36,5587,22,92,35,50,898,325.0,406,466,60,118.0,134,1,341,225,44,0,0,268,630,140,325,,,,,,,,,,,,
616223,1560691888041,-1,2.58,1.97,3.58,2.28,5.07,0.78,-0.88,0.35,32,-1,43,1.18,5608,22,92,35,52,876,323.0,400,453,60,119.0,134,1,346,234,44,0,0,272,630,-30976,323,,,,,,,,,,,,
616243,1560691888061,-0,2.54,1.99,3.53,2.29,5.05,0.86,-0.9,0.4,32,-5,44,1.24,5666,23,92,35,53,850,322.0,376,451,60,118.0,134,1,350,243,44,0,0,274,30208,135,322,45.69886,4.909937,30.08,188.5,5,1.8283,0,0.0,1.1117,6,0.78,10.2707
616263,1560691888081,4,2.51,1.99,3.49,2.29,5.08,0.97,-0.89,0.43,28,-6,45,1.32,5718,23,92,35,56,812,316.0,355,461,60,118.0,134,1,355,249,44,0,0,273,30208,135,318,,,,,,,,,,,,
616283,1560691888105,4,2.45,2.03,3.46,2.25,5.04,1.03,-0.78,0.44,27,-3,44,1.29,5787,23,92,36,56,812,316.0,355,460,60,118.0,166,1,359,250,53,0,0,273,630,130,316,,,,,,,,,,,,
616303,1560691888125,1,2.39,2.06,3.41,2.19,5.04,0.92,-0.61,0.38,27,2,43,1.11,5877,24,92,36,57,796,308.0,386,461,60,119.0,166,1,364,251,53,0,0,276,24064,-32256,310,,,,,,,,,,,,
616323,1560691888145,2,2.36,2.08,3.37,2.19,5.04,0.81,-0.45,0.33,28,4,41,0.92,5971,24,92,36,57,797,306.0,399,457,60,119.0,166,1,372,252,53,0,0,284,250,30720,308,,,,,,,,,,,,
616343,1560691888165,2,2.31,2.08,3.33,2.16,5.07,0.68,-0.31,0.28,27,6,38,0.75,6067,24,92,36,57,807,303.0,410,452,60,119.0,166,1,384,253,53,0,0,284,-16896,100,306,45.698856,4.909929,28.6,188.6,5,1.8283,0,0.0,1.1133,6,0.78,10.2724
616363,1560691888185,4,2.26,2.12,3.26,2.13,5.07,0.55,-0.1,0.21,26,9,35,0.56,6067,24,92,36,57,807,303.0,410,452,60,119.0,166,1,384,253,53,0,0,287,41,105,302,,,,,,,,,,,,
616383,1560691888207,3,2.22,2.19,3.23,2.1,5.04,0.52,0.07,0.13,24,11,32,0.53,6188,24,92,36,56,833,296.0,425,466,60,118.0,192,1,386,256,58,0,0,290,80,24320,299,,,,,,,,,,,,
616403,1560691888227,0,2.17,2.26,3.2,2.09,5.05,0.59,0.17,0.21,21,15,30,0.61,6085,24,92,36,56,840,300.0,431,470,60,118.0,192,1,384,255,58,0,0,298,23040,25600,296,,,,,,,,,,,,
616423,1560691888247,4,2.13,2.36,3.13,2.1,5.07,0.69,0.21,0.29,17,17,27,0.72,6085,24,92,36,56,840,300.0,431,470,60,118.0,192,1,384,255,58,0,0,307,100,32000,295,,,,,,,,,,,,
616443,1560691888267,3,2.09,2.47,3.08,2.12,5.04,0.71,0.25,0.31,14,19,22,0.75,5841,24,92,36,57,843,306.0,426,466,60,117.0,192,1,366,252,58,0,0,313,115,-29696,297,45.698856,4.90992,29.95,188.8,5,1.8283,0,0.0,1.115,6,0.78,10.274
616463,1560691888287,-1,2.04,2.52,3.04,2.11,5.06,0.51,0.33,0.29,14,20,17,0.61,5482,25,92,36,57,855,311.0,409,461,60,118.0,192,1,351,250,58,0,0,316,-32256,30720,298,,,,,,,,,,,,
616483,1560691888307,0,1.99,2.52,2.98,2.08,5.06,0.61,0.46,0.33,11,16,14,0.77,5482,25,92,36,59,876,313.0,408,453,60,118.0,173,1,337,253,52,0,0,312,-30976,125,299,,,,,,,,,,,,
616503,1560691888327,1,1.95,2.5,2.97,2.07,5.08,0.76,0.42,0.35,5,13,10,0.86,5436,25,92,36,61,895,312.0,402,456,60,117.0,173,1,333,258,52,0,0,314,140,105,297,,,,,,,,,,,,
616523,1560691888347,-2,1.92,2.51,2.97,2.06,5.07,0.7,0.52,0.39,3,11,8,0.87,5517,25,92,36,63,944,317.0,404,455,60,118.0,173,1,337,263,52,0,0,316,145,20480,295,,,,,,,,,,,,
616543,1560691888367,-0,1.91,2.51,2.98,2.02,5.04,0.81,0.62,0.43,-0,9,6,1.02,5552,25,92,36,64,987,321.0,393,461,60,118.0,173,1,335,271,52,0,0,316,145,0,293,45.698853,4.909911,29.63,188.8,5,1.8283,0,0.0,1.1167,6,0.78,10.2757
616563,1560691888387,3,1.9,2.51,2.98,1.96,5.05,0.85,0.61,0.35,-5,10,1,1.05,5552,25,92,36,64,987,321.0,393,461,60,118.0,173,1,335,271,52,0,0,320,-25856,0,289,,,,,,,,,,,,
616583,1560691888405,3,1.9,2.51,2.99,1.92,5.06,0.76,0.59,0.42,-7,10,-5,0.96,5620,25,92,36,64,1025,325.0,393,457,60,118.0,200,1,340,277,58,0,0,322,165,0,287,,,,,,,,,,,,
616603,1560691888425,-1,1.91,2.51,2.99,1.89,5.05,0.71,0.68,0.45,-8,9,-9,0.99,5721,25,92,36,63,1050,327.0,394,452,60,119.0,200,1,352,268,58,0,0,322,-22016,-16896,286,,,,,,,,,,,,
616623,1560691888445,-0,1.91,2.51,2.99,1.87,5.04,0.73,0.81,0.52,-10,6,-12,1.09,5821,25,92,36,63,1076,329.0,407,457,60,118.0,200,1,359,266,58,0,0,323,-12032,250,285,,,,,,,,,,,,
616643,1560691888465,1,1.91,2.51,2.99,1.88,5.05,0.74,0.82,0.54,-12,4,-16,1.11,6038,25,92,36,62,1100,331.0,417,462,60,118.0,200,1,371,256,58,0,0,327,-12032,0,285,45.698845,4.909903,29.56,188.8,5,1.8283,0,0.0,1.1183,6,0.78,10.2774
616663,1560691888485,1,1.9,2.54,2.99,1.91,5.08,0.79,0.89,0.62,-14,0,-19,1.19,6038,25,92,36,61,1118,330.0,428,463,60,117.0,200,1,382,247,58,0,0,326,175,250,283,,,,,,,,,,,,
616683,1560691888509,2,1.89,2.53,2.99,1.9,5.08,0.84,1.0,0.64,-16,-2,-21,1.31,6028,25,92,36,60,1117,326.0,427,457,60,119.0,197,1,383,249,56,0,0,325,165,23040,284,,,,,,,,,,,,
616703,1560691888529,1,1.88,2.54,2.99,1.9,5.07,0.85,1.1,0.69,-19,-6,-22,1.39,6000,25,92,36,59,1116,328.0,423,460,60,119.0,197,1,382,249,56,0,0,327,170,-24576,288,,,,,,,,,,,,
616723,1560691888549,0,1.9,2.54,2.95,1.9,5.05,0.86,1.18,0.7,-20,-8,-24,1.46,5937,25,92,36,59,1105,331.0,431,462,60,117.0,197,1,376,250,56,0,0,328,175,-20736,288,,,,,,,,,,,,
616743,1560691888569,0,1.9,2.53,2.94,1.88,5.07,0.9,1.19,0.78,-21,-12,-26,1.49,5944,25,92,36,59,1101,332.0,431,463,60,117.0,197,1,377,250,56,0,0,328,-12032,160,288,45.698841,4.909894,29.41,188.8,5,1.8283,0,0.0,1.12,6,0.78,10.279
616763,1560691888589,-0,1.9,2.52,2.95,1.86,5.05,0.93,1.14,0.83,-23,-13,-28,1.47,5944,25,92,36,59,1101,332.0,431,463,60,117.0,197,1,377,250,56,0,0,326,-32559,105,287,,,,,,,,,,,,
616783,1560691888607,-1,1.92,2.51,2.95,1.87,5.07,0.99,1.11,0.87,-24,-15,-29,1.49,5954,25,92,36,58,1101,333.0,437,467,60,117.0,195,1,379,251,56,0,0,325,-32559,20480,287,,,,,,,,,,,,
616803,1560691888627,-0,1.92,2.51,2.94,1.9,5.03,1.02,1.09,0.91,-26,-16,-30,1.5,5954,25,92,36,58,1101,333.0,437,467,60,117.0,195,1,379,251,56,0,0,328,4838,105,287,,,,,,,,,,,,
616823,1560691888647,-0,1.91,2.51,2.94,1.9,5.04,1.12,1.03,0.92,-27,-17,-31,1.53,5944,25,92,36,58,1104,333.0,433,463,60,118.0,195,1,378,251,56,0,0,334,-6528,28160,289,,,,,,,,,,,,
616843,1560691888667,-1,1.93,2.5,2.95,1.89,5.05,1.19,0.97,0.93,-29,-18,-32,1.54,5912,25,92,36,58,1111,332.0,432,461,60,118.0,195,1,375,251,56,0,0,329,-32559,29440,291,45.698837,4.909886,29.53,189.0,5,1.8283,0,0.0,1.1217,6,0.78,10.2807
616863,1560691888687,0,1.92,2.51,2.96,1.87,5.06,1.24,0.88,0.91,-30,-16,-34,1.52,5875,25,92,36,57,1117,331.0,431,451,60,117.0,195,1,374,252,56,0,0,331,-12032,-29696,292,,,,,,,,,,,,
616883,1560691888705,1,1.93,2.51,2.97,1.88,5.06,1.28,0.84,0.85,-32,-14,-36,1.53,5875,25,92,36,57,1139,336.0,432,457,60,118.0,191,1,372,252,56,0,0,330,13,160,294,,,,,,,,,,,,
616903,1560691888725,-0,1.94,2.5,2.99,1.89,5.04,1.28,0.77,0.84,-33,-12,-36,1.5,6027,25,92,36,57,1160,335.0,432,458,60,117.0,191,1,380,251,56,0,0,333,3346,85,293,,,,,,,,,,,,
616923,1560691888745,-1,1.95,2.5,2.99,1.88,5.08,1.32,0.64,0.81,-34,-10,-37,1.47,5994,24,92,36,57,1190,337.0,431,450,60,117.0,191,1,384,253,56,0,0,332,13,90,294,,,,,,,,,,,,
616943,1560691888765,1,1.95,2.5,2.98,1.87,5.06,1.34,0.5,0.8,-35,-10,-37,1.43,6001,24,92,36,57,1198,337.0,426,448,60,118.0,191,1,380,252,56,0,0,331,2560,30720,295,45.698833,4.909878,29.84,189.1,5,1.8283,0,0.0,1.1233,6,0.78,10.2824
616963,1560691888785,-0,1.96,2.5,2.97,1.87,5.05,1.36,0.41,0.83,-35,-9,-38,1.42,6001,24,92,36,57,1198,337.0,426,448,60,118.0,191,1,380,252,56,0,0,334,2560,32000,294,,,,,,,,,,,,
616983,1560691888806,0,1.97,2.51,2.97,1.89,5.04,1.38,0.35,0.84,-36,-8,-39,1.43,5977,24,92,36,56,1206,338.0,423,454,60,118.0,192,1,381,252,57,0,0,335,-31222,105,295,,,,,,,,,,,,
617003,1560691888826,1,1.98,2.5,2.99,1.87,5.05,1.42,0.27,0.83,-36,-7,-39,1.45,5996,24,92,36,57,1200,337.0,423,458,60,118.0,192,1,381,253,57,0,0,336,-31222,30720,296,,,,,,,,,,,,
617023,1560691888846,-1,2.01,2.49,2.98,1.88,5.06,1.44,0.21,0.84,-36,-7,-40,1.46,5996,24,92,36,57,1200,337.0,423,458,60,118.0,192,1,381,253,57,0,0,335,2560,120,298,,,,,,,,,,,,
617043,1560691888866,-1,2.04,2.48,2.99,1.89,5.05,1.43,0.17,0.83,-36,-5,-39,1.44,5988,24,92,36,56,1187,336.0,426,452,60,117.0,192,1,382,254,57,0,0,334,-122,115,300,45.698826,4.909871,30.1,189.1,5,1.8283,0,0.0,1.125,6,0.78,10.284
617063,1560691888886,1,2.06,2.48,2.99,1.92,5.06,1.42,0.11,0.8,-36,-3,-39,1.42,5992,24,92,36,56,1172,337.0,429,451,60,117.0,192,1,383,254,57,0,0,336,2560,32000,302,,,,,,,,,,,,
617083,1560691888904,1,2.1,2.48,3.02,1.92,5.04,1.4,0.06,0.72,-35,-2,-38,1.4,5992,24,92,36,56,1161,335.0,431,456,60,117.0,187,1,383,254,57,0,0,334,3346,32000,305,,,,,,,,,,,,
617103,1560691888924,-0,2.14,2.47,3.05,1.94,5.08,1.4,0.02,0.64,-34,-1,-37,1.4,6036,24,92,36,56,1152,334.0,431,453,60,117.0,187,1,384,254,57,0,0,335,4838,32000,306,,,,,,,,,,,,
617123,1560691888944,-1,2.18,2.44,3.1,1.97,5.04,1.41,-0.02,0.68,-32,-2,-36,1.41,6089,24,92,36,55,1134,331.0,430,455,60,117.0,187,1,384,254,57,0,0,332,4838,135,308,,,,,,,,,,,,
617143,1560691888964,-1,2.24,2.37,3.11,1.98,5.08,1.4,-0.13,0.68,-30,-3,-34,1.41,6091,24,92,36,55,1130,331.0,439,452,60,118.0,187,1,384,256,57,0,0,331,-12032,-25856,311,45.698818,4.909864,30.77,189.2,5,1.8283,0,0.0,1.1267,6,0.79,10.2857
617163,1560691888984,0,2.27,2.35,3.12,2.01,5.04,1.45,-0.28,0.7,-27,-5,-31,1.48,6101,24,92,36,55,1130,329.0,439,456,60,117.0,185,1,384,256,59,0,0,332,-12032,-25856,314,,,,,,,,,,,,
617183,1560691889002,-1,2.32,2.32,3.15,2.03,5.04,1.5,-0.44,0.79,-25,-9,-28,1.56,6091,24,92,36,55,1129,326.0,439,454,60,119.0,185,1,384,256,59,0,0,330,-22016,-22016,320,,,,,,,,,,,,
617203,1560691889022,2,2.37,2.28,3.18,2.09,5.03,1.46,-0.52,0.89,-21,-13,-24,1.55,6133,24,92,36,54,1127,328.0,437,449,60,119.0,185,1,384,256,59,0,0,327,165,160,323,,,,,,,,,,,,
617223,1560691889042,2,2.42,2.27,3.27,2.15,5.06,1.3,-0.49,0.92,-18,-13,-21,1.39,6145,24,92,36,54,1125,331.0,435,449,60,118.0,185,1,384,256,59,0,0,328,-23296,-32559,328,,,,,,,,,,,,
617243,1560691889062,1,2.48,2.26,3.31,2.21,5.06,1.17,-0.51,0.93,-14,-14,-19,1.28,6145,24,92,36,54,1125,331.0,435,449,60,118.0,185,1,384,256,59,0,0,327,155,-32559,331,45.698814,4.909859,30.93,189.3,5,1.8283,0,0.0,1.1283,6,0.79,10.2874
617263,1560691889082,4,2.51,2.24,3.37,2.27,5.06,1.06,-0.51,0.83,-11,-13,-16,1.17,6151,24,92,36,54,1124,334.0,430,452,60,118.0,185,1,384,256,59,0,0,327,-28416,13,334,,,,,,,,,,,,
617283,1560691889108,5,2.55,2.22,3.44,2.31,5.05,0.96,-0.48,0.74,-7,-11,-14,1.08,6173,24,92,36,54,1121,337.0,432,454,60,118.0,176,1,385,256,59,0,0,324,-27136,3346,337,,,,,,,,,,,,
617303,1560691889128,0,2.59,2.21,3.48,2.36,5.05,0.97,-0.47,0.68,-5,-10,-10,1.08,6231,23,92,36,54,1116,339.0,433,456,60,117.0,176,1,385,256,59,0,0,325,-29696,-31222,339,,,,,,,,,,,,
617323,1560691889148,-1,2.64,2.19,3.49,2.38,5.07,1.0,-0.51,0.69,-2,-11,-6,1.12,6258,23,92,36,53,1111,343.0,435,453,60,117.0,176,1,381,256,59,0,0,330,135,-31206,343,,,,,,,,,,,,
617343,1560691889168,0,2.68,2.2,3.48,2.41,5.04,0.97,-0.6,0.74,1,-11,-3,1.14,6311,22,92,36,52,1103,344.0,443,452,60,118.0,176,1,378,244,59,0,0,325,135,6668,345,45.698803,4.909853,31.53,189.4,5,1.8283,0,0.0,1.13,6,0.79,10.2891
617363,1560691889188,2,2.72,2.17,3.48,2.41,5.07,0.99,-0.67,0.81,4,-11,-1,1.2,6308,22,92,36,52,1099,346.0,445,454,60,118.0,168,1,378,244,59,0,0,328,125,3327,344,,,,,,,,,,,,
617383,1560691889206,4,2.76,2.14,3.5,2.42,5.04,0.94,-0.67,0.76,7,-9,2,1.15,6308,22,92,36,52,1099,346.0,445,454,60,118.0,168,1,378,244,58,0,0,327,-32256,6870,346,,,,,,,,,,,,
617403,1560691889226,-2,2.79,2.11,3.55,2.42,5.06,0.9,-0.68,0.66,10,-6,7,1.13,6300,22,92,36,52,1095,349.0,447,460,60,118.0,168,1,378,244,58,0,0,331,125,2811,348,,,,,,,,,,,,
617423,1560691889246,0,2.82,2.09,3.59,2.42,5.08,0.89,-0.67,0.58,11,-6,12,1.12,6277,22,92,36,51,1093,351.0,447,457,60,117.0,168,1,375,239,58,0,0,341,120,-30438,351,,,,,,,,,,,,
617443,1560691889266,1,2.84,2.07,3.6,2.43,5.06,0.91,-0.69,0.62,14,-6,17,1.14,6311,22,92,36,51,1089,352.0,446,450,60,118.0,168,1,375,239,58,0,0,334,115,28553,352,45.698799,4.909846,32.3,189.6,5,1.8283,0,0.0,1.1317,6,0.79,10.2907
617463,1560691889286,2,2.85,2.07,3.61,2.42,5.06,0.9,-0.79,0.66,17,-5,21,1.2,6375,21,92,36,50,1085,353.0,443,451,60,119.0,168,1,372,233,58,0,0,320,110,-30454,353,,,,,,,,,,,,
617483,1560691889306,1,2.86,2.06,3.62,2.42,5.06,0.91,-0.74,0.61,19,-4,25,1.17,6368,21,92,35,50,1077,354.0,452,456,60,117.0,165,1,372,233,58,0,0,322,110,3183,352,,,,,,,,,,,,
617503,1560691889326,0,2.88,2.05,3.61,2.44,5.05,0.95,-0.87,0.58,21,-5,29,1.29,6360,21,92,35,50,1077,354.0,452,456,60,117.0,165,1,372,233,58,0,0,334,26880,-6644,354,,,,,,,,,,,,
617523,1560691889346,2,2.89,2.02,3.61,2.44,5.04,0.89,-0.91,0.58,23,-4,34,1.27,6373,21,92,35,50,1070,353.0,461,462,60,117.0,165,1,372,233,58,0,0,336,105,28553,353,,,,,,,,,,,,
617543,1560691889366,4,2.9,2.0,3.62,2.44,5.04,0.85,-0.97,0.6,26,-3,36,1.29,6405,21,92,35,50,1060,353.0,455,452,60,119.0,165,1,372,233,58,0,0,336,100,-1246,353,45.698792,4.90984,31.72,189.7,5,1.8283,0,0.0,1.1333,6,0.79,10.2924
617563,1560691889386,1,2.91,1.97,3.63,2.42,5.04,0.78,-0.92,0.51,28,-2,40,1.21,6392,21,92,35,50,1051,354.0,453,453,60,118.0,165,1,373,234,58,0,0,329,95,28553,354,,,,,,,,,,,,
617583,1560691889404,0,2.92,1.97,3.64,2.43,5.07,0.89,-0.96,0.4,28,-3,42,1.3,6392,21,92,35,49,1045,353.0,457,461,60,117.0,158,1,369,228,56,0,0,329,95,3302,353,,,,,,,,,,,,
617603,1560691889424,1,2.92,1.96,3.66,2.42,5.07,0.91,-0.97,0.43,30,-4,44,1.33,6375,21,92,35,49,1035,354.0,453,457,60,118.0,158,1,369,228,56,0,0,329,23040,-6640,354,,,,,,,,,,,,
617623,1560691889444,4,2.93,1.95,3.68,2.43,5.08,0.87,-0.95,0.48,32,-4,44,1.29,6408,21,92,35,49,1024,355.0,447,457,60,118.0,158,1,369,228,56,0,0,329,90,3302,355,,,,,,,,,,,,
617643,1560691889464,-2,2.93,1.94,3.68,2.43,5.06,0.82,-0.87,0.39,33,-2,45,1.2,6510,21,92,35,49,1010,353.0,453,457,60,117.0,158,1,370,228,56,0,0,345,24320,-1246,352,45.698784,4.909832,31.58,189.7,5,1.8283,0,0.0,1.135,6,0.79,10.2941
617663,1560691889484,-0,2.91,1.93,3.69,2.43,5.06,0.88,-0.94,0.35,34,-4,47,1.29,6542,21,92,35,49,1010,353.0,453,457,60,117.0,158,1,371,228,56,0,0,337,21760,-6644,353,,,,,,,,,,,,
617683,1560691889506,4,2.91,1.93,3.68,2.43,5.07,0.89,-0.98,0.4,36,-4,48,1.32,6542,21,92,35,49,1005,353.0,458,454,60,118.0,158,1,371,228,56,0,0,337,21760,8841,353,,,,,,,,,,,,
617703,1560691889526,-2,2.92,1.93,3.66,2.45,5.07,0.83,-0.93,0.32,37,-4,49,1.25,6535,21,92,35,49,1000,354.0,401,462,60,118.0,158,1,371,228,56,0,0,323,21760,3183,353,,,,,,,,,,,,
617723,1560691889546,-0,2.91,1.93,3.66,2.45,5.06,0.8,-0.99,0.23,37,-6,51,1.27,6401,21,92,35,48,994,353.0,303,456,60,118.0,158,1,367,224,56,0,0,343,21760,-30454,353,,,,,,,,,,,,
617743,1560691889566,2,2.89,1.93,3.63,2.46,5.04,0.76,-1.07,0.29,39,-7,50,1.31,6399,21,92,35,48,992,352.0,295,451,60,118.0,158,1,367,224,56,0,0,349,20480,8841,352,45.698776,4.909824,31.81,189.8,5,1.8283,0,0.0,1.1367,6,0.79,10.2957
617763,1560691889586,2,2.86,1.92,3.63,2.45,5.04,0.8,-1.0,0.29,40,-6,51,1.28,6388,21,92,35,48,989,351.0,290,461,60,117.0,154,1,366,223,56,0,0,336,20480,3183,351,,,,,,,,,,,,
617783,1560691889608,1,2.83,1.91,3.61,2.46,5.03,0.84,-1.05,0.22,40,-5,53,1.35,6340,21,92,35,48,989,351.0,290,461,60,117.0,154,1,366,223,54,0,0,327,80,28553,351,,,,,,,,,,,,
617803,1560691889628,-0,2.78,1.91,3.61,2.46,5.04,0.94,-1.15,0.26,41,-5,56,1.48,6281,21,92,35,48,988,353.0,321,456,60,117.0,154,1,366,223,54,0,0,322,80,3183,353,,,,,,,,,,,,
617823,1560691889648,3,2.7,1.91,3.62,2.45,5.07,0.9,-1.11,0.33,41,-4,57,1.43,6247,21,92,35,49,988,354.0,281,457,60,118.0,154,1,365,223,54,0,0,333,90,8841,353,,,,,,,,,,,,
617843,1560691889668,4,2.61,1.93,3.64,2.45,5.03,0.83,-1.1,0.4,41,-3,58,1.38,6294,21,92,35,49,990,352.0,268,454,60,119.0,154,1,368,228,54,0,0,345,23040,-30454,353,45.698776,4.909815,31.64,189.9,5,1.8283,0,0.0,1.1383,6,0.79,10.2974
617863,1560691889688,-1,2.53,2.02,3.63,2.41,5.06,0.76,-0.92,0.34,41,-1,59,1.19,6362,21,92,35,49,990,349.0,278,456,60,118.0,153,1,369,228,54,0,0,352,23040,-1246,352,,,,,,,,,,,,
617883,1560691889708,-0,2.45,2.07,3.56,2.36,5.05,0.74,-0.78,0.28,39,-1,59,1.08,6360,21,92,35,49,989,346.0,312,458,60,118.0,153,1,369,228,54,0,0,309,95,-1246,349,,,,,,,,,,,,
617903,1560691889728,2,2.39,2.18,3.48,2.34,5.04,0.81,-0.8,0.36,36,-2,58,1.14,6319,21,92,35,49,990,343.0,305,457,60,119.0,153,1,369,228,54,0,0,309,29440,8841,345,,,,,,,,,,,,
617923,1560691889748,3,2.34,2.28,3.37,2.34,5.08,0.73,-0.65,0.42,34,-2,54,0.98,6241,21,92,35,49,990,338.0,320,457,60,119.0,153,1,368,228,54,0,0,321,32000,-14714,343,,,,,,,,,,,,
617943,1560691889768,2,2.3,2.34,3.25,2.33,5.05,0.65,-0.52,0.43,31,-3,50,0.83,6241,21,92,35,49,990,338.0,320,457,60,119.0,153,1,368,228,54,0,0,323,-28416,-31206,338,45.698769,4.909805,32.03,189.9,5,1.8283,0,0.0,1.14,6,0.79,10.2991
617963,1560691889788,4,2.25,2.36,3.16,2.32,5.04,0.55,-0.37,0.35,28,-0,46,0.67,6155,21,92,35,49,988,336.0,333,456,60,118.0,153,1,367,227,54,0,0,330,-25856,3327,335,,,,,,,,,,,,
617983,1560691889805,4,2.22,2.36,3.06,2.27,5.04,0.47,-0.18,0.28,25,2,41,0.5,6048,21,92,35,50,983,330.0,361,453,60,118.0,155,1,370,233,52,0,0,332,165,-32559,331,,,,,,,,,,,,
618003,1560691889825,4,2.2,2.35,3.02,2.2,5.06,0.44,-0.04,0.28,22,4,35,0.44,6048,21,92,35,50,979,332.0,375,458,60,117.0,155,1,370,233,52,0,0,332,-22016,-12032,330,,,,,,,,,,,,
618023,1560691889845,-0,2.19,2.34,3.03,2.19,5.04,0.46,0.07,0.28,18,6,31,0.47,6089,21,92,35,50,974,333.0,386,458,60,117.0,155,1,370,233,52,0,0,331,-32559,-12032,329,,,,,,,,,,,,
618043,1560691889865,-0,2.17,2.3,3.02,2.17,5.06,0.49,0.17,0.24,15,8,28,0.52,6194,21,92,35,50,968,334.0,399,456,60,117.0,155,1,370,233,52,0,0,333,-6528,165,328,45.698765,4.909794,31.57,190.0,5,1.8283,0,0.0,1.1417,6,0.79,10.3007
618063,1560691889885,-1,2.17,2.3,3.03,2.17,5.07,0.56,0.14,0.19,13,9,24,0.58,6260,22,92,35,51,963,335.0,414,456,60,117.0,155,1,371,233,52,0,0,337,4838,170,327,,,,,,,,,,,,
618083,1560691889905,-1,2.17,2.3,3.04,2.18,5.06,0.61,0.07,0.21,10,9,20,0.62,6260,22,92,35,51,963,335.0,414,455,60,118.0,171,1,375,239,56,0,0,337,3346,-20736,327,,,,,,,,,,,,
618103,1560691889925,3,2.16,2.3,3.04,2.18,5.04,0.67,0.07,0.31,8,8,17,0.67,6315,23,92,35,51,960,336.0,426,454,60,119.0,171,1,375,239,56,0,0,337,13,170,327,,,,,,,,,,,,
618123,1560691889945,4,2.16,2.3,3.04,2.19,5.04,0.62,0.14,0.37,7,9,14,0.63,6364,26,92,35,53,956,338.0,435,458,60,118.0,171,1,382,244,56,0,0,337,2560,-32559,327,,,,,,,,,,,,
618143,1560691889965,-1,2.16,2.31,3.04,2.2,5.04,0.55,0.18,0.37,5,10,13,0.58,6366,26,92,35,54,957,339.0,442,464,60,117.0,171,1,386,256,56,0,0,340,-31222,3346,329,45.698765,4.909783,32.07,190.0,5,1.8283,0,0.0,1.1433,6,0.79,10.3024
618163,1560691889985,1,2.16,2.3,3.03,2.19,5.07,0.58,0.15,0.35,3,8,12,0.6,6366,26,92,35,54,957,339.0,442,464,60,117.0,171,1,386,256,56,0,0,340,-122,-31222,329,,,,,,,,,,,,
618183,1560691889997,1,2.17,2.29,3.03,2.17,5.06,0.65,0.03,0.48,2,6,9,0.65,6353,27,92,35,55,944,341.0,440,453,60,118.0,185,1,386,256,61,0,0,341,3327,6668,329,,,,,,,,,,,,
618203,1560691890017,5,2.15,2.29,3.04,2.18,5.04,0.64,0.11,0.51,0,6,8,0.65,6328,27,92,35,55,936,342.0,438,456,60,118.0,185,1,386,256,61,0,0,344,6668,-31206,331,,,,,,,,,,,,
618223,1560691890037,0,2.16,2.32,3.04,2.18,5.04,0.62,0.22,0.45,-0,8,7,0.66,6328,27,92,35,55,936,342.0,438,456,60,118.0,185,1,386,256,61,0,0,342,3327,3327,330,,,,,,,,,,,,
618243,1560691890057,2,2.16,2.3,3.04,2.18,5.03,0.67,0.18,0.39,-1,8,7,0.69,6368,27,92,35,56,926,343.0,442,465,60,117.0,185,1,388,258,61,0,0,344,-14714,-122,329,45.698761,4.909772,32.29,190.0,5,1.8283,0,0.0,1.145,6,0.79,10.3041
618263,1560691890077,5,2.17,2.3,3.06,2.15,5.05,0.7,0.18,0.48,-3,8,4,0.73,6401,28,92,35,57,919,344.0,443,455,60,118.0,185,1,391,260,61,0,0,346,-10554,6668,332,,,,,,,,,,,,
618283,1560691890105,3,2.17,2.3,3.08,2.13,5.07,0.62,0.26,0.44,-4,10,1,0.67,6438,30,92,35,57,920,346.0,438,452,60,118.0,190,1,391,260,63,0,0,345,-30438,-31222,333,,,,,,,,,,,,
618303,1560691890125,-0,2.19,2.31,3.11,2.12,5.04,0.62,0.33,0.37,-4,9,-1,0.7,6438,31,92,35,59,932,348.0,452,462,60,117.0,190,1,395,263,63,0,0,346,8841,-14714,333,,,,,,,,,,,,
618323,1560691890145,1,2.2,2.32,3.12,2.11,5.04,0.65,0.23,0.44,-5,5,-3,0.69,6419,32,92,35,60,945,349.0,448,458,60,118.0,190,1,397,264,63,0,0,352,-1246,-31206,334,,,,,,,,,,,,
618343,1560691890165,3,2.2,2.32,3.12,2.1,5.06,0.65,0.19,0.56,-5,3,-5,0.68,6421,33,92,35,61,970,350.0,438,455,60,118.0,190,1,399,267,63,0,0,350,2811,6668,335,45.698757,4.909761,32.62,190.0,5,1.8283,0,0.0,1.1467,6,0.8,10.3057
618363,1560691890185,1,2.21,2.33,3.13,2.08,5.05,0.67,0.23,0.59,-6,2,-6,0.7,6421,33,92,35,61,970,350.0,438,455,60,118.0,190,1,399,267,63,0,0,347,-30454,6668,337,,,,,,,,,,,,
618383,1560691890203,0,2.23,2.33,3.16,2.09,5.08,0.68,0.18,0.57,-6,2,-6,0.7,6454,35,92,35,63,1007,350.0,450,452,60,119.0,194,1,395,272,66,0,0,346,-30454,-31206,337,,,,,,,,,,,,
618403,1560691890223,3,2.23,2.33,3.18,2.09,5.06,0.74,0.15,0.58,-6,3,-5,0.75,6425,35,92,35,64,1025,348.0,447,454,60,119.0,194,1,388,286,66,0,0,349,-30454,-14714,339,,,,,,,,,,,,
618423,1560691890243,1,2.24,2.34,3.19,2.09,5.04,0.72,0.17,0.61,-5,6,-6,0.74,6467,37,92,35,65,1056,348.0,445,462,60,118.0,194,1,385,294,66,0,0,347,-1246,-31206,339,,,,,,,,,,,,
618443,1560691890263,-2,2.27,2.32,3.19,2.08,5.06,0.72,0.2,0.54,-6,6,-5,0.75,6467,37,92,35,65,1056,348.0,445,462,60,118.0,194,1,385,294,66,0,0,348,-1246,-10554,340,45.698757,4.90975,32.66,190.0,5,1.8283,0,0.0,1.1483,6,0.8,10.3074
618463,1560691890283,3,2.27,2.31,3.19,2.08,5.04,0.74,0.07,0.59,-6,4,-4,0.74,6430,37,92,35,66,1086,348.0,457,450,60,118.0,194,1,380,299,66,0,0,349,-1246,6870,342,,,,,,,,,,,,
618483,1560691890305,5,2.28,2.31,3.19,2.07,5.07,0.73,0.07,0.61,-5,5,-3,0.74,6461,38,92,35,67,1120,346.0,448,453,60,118.0,209,1,377,307,72,0,0,347,-1246,-1246,343,,,,,,,,,,,,
618503,1560691890325,-0,2.29,2.31,3.19,2.08,5.08,0.79,0.01,0.59,-4,5,-3,0.79,6524,39,92,35,69,1157,344.0,462,466,60,117.0,209,1,374,329,72,0,0,348,-30438,-14714,344,,,,,,,,,,,,
618523,1560691890345,1,2.3,2.3,3.2,2.06,5.05,0.77,-0.04,0.59,-4,3,-2,0.77,6524,39,92,35,69,1157,344.0,462,466,60,117.0,209,1,374,329,72,0,0,347,-10554,6668,343,,,,,,,,,,,,
618543,1560691890365,5,2.3,2.3,3.24,2.07,5.04,0.71,0.1,0.56,-3,5,-4,0.72,6530,40,92,35,69,1193,347.0,451,452,60,119.0,209,1,375,329,72,0,0,345,6870,-1246,344,45.69875,4.90974,33.13,190.0,5,1.8283,0,0.0,1.15,6,0.8,10.309
618563,1560691890385,0,2.33,2.3,3.26,2.09,5.08,0.78,0.04,0.61,-3,3,-5,0.78,6592,41,92,35,70,1215,346.0,460,452,60,118.0,209,1,375,346,72,0,0,346,6870,2811,346,,,,,,,,,,,,
618583,1560691890405,4,2.33,2.31,3.26,2.1,5.06,0.72,0.0,0.63,-2,0,-7,0.72,6599,42,92,35,71,1273,347.0,456,458,60,119.0,247,1,374,361,86,0,0,349,6870,28553,347,,,,,,,,,,,,
618603,1560691890425,0,2.36,2.3,3.27,2.12,5.05,0.73,-0.01,0.59,-1,-1,-7,0.73,6651,42,92,35,72,1310,349.0,461,453,60,117.0,247,1,375,377,86,0,0,350,-10554,28553,347,,,,,,,,,,,,
618623,1560691890445,3,2.37,2.3,3.27,2.1,5.04,0.81,-0.09,0.71,-0,-2,-7,0.81,6651,42,92,35,72,1310,349.0,461,453,60,117.0,247,1,375,377,86,0,0,350,6870,3183,349,,,,,,,,,,,,
618643,1560691890465,-1,2.39,2.3,3.27,2.11,5.08,0.73,-0.03,0.65,1,-1,-6,0.73,6701,42,92,35,72,1327,353.0,455,456,60,118.0,247,1,376,378,86,0,0,352,6870,3302,353,45.698746,4.909729,33.34,190.0,5,1.8283,0,0.0,1.1517,6,0.8,10.3107
618663,1560691890485,3,2.4,2.28,3.28,2.13,5.04,0.79,-0.19,0.74,2,-2,-3,0.81,6761,42,92,35,72,1343,355.0,463,458,60,117.0,247,1,378,379,86,0,0,354,-10554,-6458,355,,,,,,,,,,,,
618683,1560691890507,1,2.4,2.28,3.27,2.18,5.05,0.7,-0.2,0.72,3,0,-1,0.73,6993,42,92,34,72,1364,361.0,477,458,60,117.0,278,1,386,385,99,0,0,361,8841,230,359,,,,,,,,,,,,
618703,1560691890527,13,2.41,2.28,3.27,2.19,5.04,0.65,-0.15,0.69,3,0,1,0.66,7035,42,92,34,72,1369,363.0,477,456,60,117.0,278,1,386,385,99,0,0,361,-1246,0,361,,,,,,,,,,,,
618723,1560691890547,2,2.44,2.26,3.26,2.19,5.07,0.74,-0.21,0.82,5,1,3,0.77,7030,42,92,34,71,1365,368.0,483,458,60,118.0,278,1,388,386,99,0,0,369,28553,486,364,,,,,,,,,,,,
618743,1560691890567,1,2.44,2.26,3.24,2.26,5.04,0.54,-0.19,0.74,6,5,6,0.57,7070,43,92,34,71,1365,368.0,483,458,60,118.0,278,1,389,372,99,0,0,374,-6644,3,370,45.698742,4.909718,33.55,190.0,5,1.8283,0,0.0,1.1533,6,0.8,10.3124
618763,1560691890587,0,2.46,2.27,3.24,2.32,5.08,0.56,-0.18,0.7,6,4,6,0.58,7070,43,92,34,71,1341,373.0,484,455,60,117.0,278,1,392,373,99,0,0,377,3302,19125,373,,,,,,,,,,,,
618783,1560691890605,4,2.46,2.28,3.23,2.35,5.05,0.68,-0.32,0.82,7,2,6,0.75,7054,43,92,34,71,1299,376.0,485,458,60,116.0,267,1,391,373,100,0,0,379,-29978,-18948,376,,,,,,,,,,,,
618803,1560691890625,4,2.48,2.28,3.22,2.37,5.04,0.71,-0.42,0.86,9,2,7,0.82,7145,43,92,34,71,1246,382.0,487,457,60,118.0,267,1,396,375,100,0,0,376,-29302,-31744,378,,,,,,,,,,,,
618823,1560691890645,2,2.47,2.26,3.27,2.35,5.04,0.62,-0.39,0.72,10,4,8,0.74,7217,43,92,34,71,1197,387.0,495,455,60,117.0,267,1,400,377,100,0,0,386,-6458,-6475,382,,,,,,,,,,,,
618843,1560691890665,0,2.47,2.23,3.32,2.36,5.06,0.56,-0.34,0.63,10,1,10,0.65,7370,43,92,34,71,1132,390.0,498,458,60,117.0,267,1,409,366,100,0,0,389,-1268,1,387,45.698738,4.909707,34.52,190.0,5,1.8283,0,0.0,1.155,6,0.8,10.314
618863,1560691890685,-1,2.47,2.21,3.31,2.35,5.05,0.65,-0.37,0.68,10,1,10,0.75,7479,43,92,34,70,1079,393.0,506,456,60,117.0,264,1,409,366,100,0,0,403,-6405,-1818,390,,,,,,,,,,,,
618883,1560691890707,1,2.47,2.25,3.29,2.36,5.04,0.78,-0.42,0.73,10,0,10,0.89,7479,43,92,34,70,1079,393.0,506,456,60,117.0,264,1,417,370,103,0,0,395,0,-32702,393,,,,,,,,,,,,
618903,1560691890727,1,2.48,2.26,3.27,2.39,5.04,0.87,-0.43,0.77,10,2,11,0.97,7609,43,92,34,69,1033,394.0,510,458,60,118.0,264,1,426,363,103,0,0,387,0,-3968,394,,,,,,,,,,,,
618923,1560691890747,2,2.48,2.25,3.31,2.37,5.08,0.9,-0.37,0.73,10,-1,13,0.98,7678,43,92,34,68,971,400.0,515,459,60,117.0,264,1,431,354,103,0,0,413,257,11545,394,,,,,,,,,,,,
618943,1560691890767,4,2.48,2.24,3.33,2.36,5.03,0.81,-0.4,0.69,12,-1,13,0.9,7690,43,92,34,67,944,403.0,524,457,60,118.0,264,1,431,354,103,0,0,419,3,11560,400,45.698738,4.909695,35.92,190.1,5,1.8283,0,0.0,1.1567,6,0.8,10.3157
618963,1560691890787,2,2.48,2.24,3.34,2.35,5.07,0.76,-0.36,0.65,13,-2,15,0.84,7783,43,92,34,67,944,403.0,524,457,60,118.0,264,1,434,346,103,0,0,423,-18948,-26615,403,,,,,,,,,,,,
618983,1560691890805,5,2.47,2.24,3.34,2.35,5.05,0.76,-0.41,0.74,13,-1,16,0.86,7783,43,92,34,66,945,409.0,525,455,60,118.0,250,1,439,342,102,0,0,407,19125,18584,409,,,,,,,,,,,,
619003,1560691890825,0,2.49,2.23,3.33,2.36,5.04,0.75,-0.46,0.83,14,-0,18,0.88,7848,44,92,34,66,923,415.0,530,458,60,117.0,250,1,443,337,102,0,0,410,-6475,-3414,416,,,,,,,,,,,,
619023,1560691890845,1,2.49,2.23,3.33,2.36,5.05,0.83,-0.49,0.93,14,-1,18,0.97,7918,44,92,34,65,907,419.0,538,459,60,118.0,250,1,446,338,102,0,0,420,240,7154,415,,,,,,,,,,,,
619043,1560691890865,3,2.49,2.25,3.32,2.39,5.05,0.83,-0.39,0.87,14,-3,20,0.92,7955,44,92,34,65,907,419.0,538,459,60,118.0,250,1,446,338,102,0,0,429,505,13552,419,45.698734,4.909682,37.13,190.0,5,1.8283,0,0.0,1.1583,6,0.8,10.3174
619063,1560691890885,1,2.48,2.27,3.33,2.39,5.05,0.81,-0.41,0.9,14,-2,19,0.91,7955,44,92,34,64,891,420.0,543,457,60,118.0,250,1,448,331,102,0,0,432,1,1779,420,,,,,,,,,,,,
619083,1560691890906,3,2.48,2.27,3.33,2.38,5.05,0.77,-0.44,0.9,15,-1,20,0.89,8155,44,92,34,62,845,428.0,546,460,60,118.0,239,1,450,327,101,0,0,429,17144,-3322,424,,,,,,,,,,,,
619103,1560691890926,-1,2.48,2.27,3.31,2.4,5.04,0.81,-0.44,0.88,16,-0,20,0.93,8184,44,92,34,61,820,430.0,552,457,60,117.0,239,1,449,323,101,0,0,426,11545,19477,428,,,,,,,,,,,,
619123,1560691890946,2,2.48,2.26,3.3,2.41,5.04,0.76,-0.38,0.8,16,0,20,0.85,8184,44,92,34,61,820,430.0,552,457,60,117.0,239,1,449,318,101,0,0,434,-8151,19477,430,,,,,,,,,,,,
619143,1560691890966,3,2.48,2.26,3.31,2.41,5.07,0.7,-0.32,0.73,15,1,21,0.77,8267,44,92,34,59,798,436.0,552,452,60,118.0,239,1,431,308,101,0,0,441,-8151,20625,434,45.69873,4.909669,38.12,190.1,5,1.8283,0,0.0,1.16,6,0.8,10.319
619163,1560691890986,4,2.47,2.24,3.33,2.38,5.06,0.67,-0.37,0.79,16,1,21,0.77,8267,44,92,34,59,798,436.0,552,452,60,118.0,239,1,431,308,101,0,0,451,-26615,20625,436,,,,,,,,,,,,
619183,1560691891002,-0,2.47,2.23,3.34,2.39,5.07,0.71,-0.36,0.84,17,1,22,0.8,8381,44,92,34,59,781,441.0,561,457,60,117.0,224,1,431,311,98,0,0,451,13040,8488,437,,,,,,,,,,,,
619203,1560691891022,4,2.48,2.22,3.37,2.4,5.07,0.66,-0.44,0.87,18,1,22,0.79,8381,44,92,34,59,781,441.0,561,457,60,117.0,224,1,430,305,98,0,0,450,18584,2524,443,,,,,,,,,,,,
619223,1560691891042,2,2.47,2.24,3.33,2.42,5.05,0.68,-0.41,0.98,18,0,22,0.8,8472,44,92,34,57,785,447.0,573,460,60,118.0,224,1,414,301,98,0,0,457,18584,14488,447,,,,,,,,,,,,
619243,1560691891062,-2,2.48,2.25,3.32,2.43,5.06,0.7,-0.39,0.96,18,-0,22,0.8,8593,44,92,34,56,798,451.0,576,451,60,118.0,224,1,405,296,98,0,0,448,-3414,-23623,450,45.698727,4.909655,40.1,190.1,5,1.8283,0,0.0,1.1617,6,0.8,10.3207
619263,1560691891082,3,2.48,2.26,3.33,2.43,5.07,0.63,-0.38,0.86,18,0,23,0.73,8624,45,92,34,56,798,451.0,576,451,60,118.0,224,1,405,296,98,0,0,458,-21792,-18108,451,,,,,,,,,,,,
619283,1560691891104,3,2.47,2.27,3.38,2.44,5.04,0.65,-0.36,0.95,18,1,24,0.75,8672,45,92,34,56,818,454.0,586,458,60,117.0,213,1,403,291,96,0,0,466,3826,30272,452,,,,,,,,,,,,
619303,1560691891124,2,2.48,2.27,3.39,2.44,5.08,0.68,-0.46,0.96,18,0,23,0.82,8757,45,92,34,56,818,454.0,586,458,60,117.0,213,1,403,291,96,0,0,482,13552,-18108,454,,,,,,,,,,,,
619323,1560691891144,1,2.48,2.27,3.38,2.43,5.08,0.73,-0.46,0.9,19,1,23,0.86,8757,45,92,34,55,832,456.0,587,453,60,118.0,213,1,398,294,96,0,0,453,-3314,16408,458,,,,,,,,,,,,
619343,1560691891164,0,2.46,2.25,3.42,2.41,5.05,0.66,-0.52,0.81,20,3,23,0.84,8753,45,92,34,54,866,463.0,593,468,60,118.0,213,1,395,287,96,0,0,459,-768,32033,459,45.698727,4.90964,41.73,190.1,5,1.8283,0,0.0,1.1633,6,0.81,10.3224
619363,1560691891184,2,2.47,2.22,3.43,2.43,5.06,0.51,-0.48,0.74,20,3,24,0.7,8786,45,92,34,54,879,467.0,588,468,60,118.0,213,1,395,287,96,0,0,479,5600,-1923,464,,,,,,,,,,,,
619383,1560691891208,5,2.45,2.23,3.42,2.42,5.05,0.41,-0.48,0.78,20,3,26,0.64,8861,45,92,34,54,890,469.0,595,458,60,118.0,206,1,397,291,96,0,0,484,-28332,-17956,467,,,,,,,,,,,,
619403,1560691891228,4,2.45,2.23,3.42,2.42,5.04,0.35,-0.45,0.78,21,2,25,0.57,8915,45,92,34,53,919,472.0,591,461,60,118.0,206,1,397,291,96,0,0,461,26704,10305,469,,,,,,,,,,,,
619423,1560691891248,3,2.45,2.21,3.42,2.4,5.04,0.34,-0.41,0.76,21,2,26,0.54,8954,45,92,34,53,919,472.0,591,461,60,118.0,206,1,394,293,96,0,0,467,21432,-23367,473,,,,,,,,,,,,
619443,1560691891268,3,2.46,2.22,3.42,2.44,5.04,0.31,-0.43,0.8,22,3,25,0.53,8954,45,92,34,53,957,476.0,595,461,60,118.0,206,1,394,295,96,0,0,477,10305,-899,476,45.698727,4.909625,43.47,190.1,5,1.8283,0,0.0,1.165,6,0.81,10.324
619463,1560691891288,5,2.46,2.27,3.4,2.51,5.04,0.28,-0.5,0.83,22,3,24,0.58,8979,45,92,33,53,976,478.0,609,463,60,117.0,206,1,394,286,96,0,0,494,10305,-10483,478,,,,,,,,,,,,
619483,1560691891304,3,2.47,2.28,3.4,2.52,5.05,0.23,-0.48,0.81,21,2,22,0.53,9071,45,92,33,53,994,476.0,612,461,60,118.0,205,1,395,288,98,0,0,483,2131,3580,477,,,,,,,,,,,,
619503,1560691891324,5,2.46,2.22,3.45,2.5,5.04,0.24,-0.56,0.89,20,-2,23,0.61,9093,45,92,33,53,1045,483.0,621,455,60,118.0,205,1,395,290,98,0,0,484,16648,32033,477,,,,,,,,,,,,
619523,1560691891344,-1,2.45,2.18,3.43,2.43,5.07,0.12,-0.5,0.83,20,-0,25,0.52,9093,45,92,33,53,1045,483.0,621,455,60,118.0,205,1,395,290,98,0,0,497,-26615,-6656,483,,,,,,,,,,,,
619543,1560691891364,1,2.44,2.18,3.37,2.39,5.07,0.07,-0.41,0.79,21,2,26,0.41,9150,45,92,33,52,1071,489.0,619,465,60,118.0,205,1,392,293,98,0,0,482,17628,-32768,487,45.698723,4.909609,44.42,190.1,5,1.8283,0,0.0,1.1667,6,0.81,10.3257
619563,1560691891384,2,2.43,2.18,3.35,2.38,5.05,0.08,-0.41,0.78,22,3,26,0.42,9186,45,91,33,52,1071,489.0,619,465,60,118.0,205,1,392,293,98,0,0,473,-23623,-6528,490,,,,,,,,,,,,
619583,1560691891404,3,2.43,2.18,3.43,2.4,5.04,0.14,-0.41,0.75,22,4,25,0.43,9245,45,92,33,52,1089,487.0,611,455,60,117.0,198,1,392,283,97,0,0,502,2211,771,487,,,,,,,,,,,,
619603,1560691891424,5,2.43,2.18,3.49,2.39,5.08,0.33,-0.45,0.75,22,5,24,0.55,9356,45,92,33,52,1113,492.0,611,448,60,117.0,198,1,393,289,97,0,0,523,16408,771,493,,,,,,,,,,,,
619623,1560691891444,4,2.43,2.18,3.5,2.38,5.05,0.45,-0.56,0.86,20,5,24,0.72,9422,45,92,33,52,1113,492.0,611,448,60,117.0,198,1,393,289,97,0,0,492,16408,998,492,,,,,,,,,,,,
619643,1560691891464,-1,2.44,2.27,3.46,2.39,5.05,0.29,-0.53,0.87,20,7,23,0.6,9455,45,92,33,51,1122,495.0,611,457,60,117.0,198,1,391,281,97,0,0,495,243,10408,496,45.698723,4.909593,45.67,190.1,5,1.8283,0,0.0,1.1683,6,0.81,10.3274
619663,1560691891484,2,2.44,2.41,3.37,2.41,5.07,0.24,-0.4,0.82,20,6,22,0.47,9455,45,92,33,51,1122,495.0,611,457,60,117.0,198,1,391,281,97,0,0,484,32033,2109,495,,,,,,,,,,,,
619683,1560691891506,3,2.44,2.38,3.34,2.45,5.04,0.42,-0.5,0.84,20,2,23,0.66,9360,37,92,33,51,1125,493.0,613,457,60,118.0,203,1,390,203,100,0,0,499,32033,15661,493,,,,,,,,,,,,
619703,1560691891526,4,2.44,2.37,3.35,2.45,5.04,0.46,-0.62,0.84,20,1,22,0.77,9360,37,92,33,49,1122,495.0,619,457,60,118.0,203,1,383,257,100,0,0,510,-1923,10994,495,,,,,,,,,,,,
619723,1560691891546,-0,2.44,2.36,3.4,2.45,5.08,0.33,-0.56,0.82,20,1,22,0.65,9295,19,92,33,40,1111,500.0,625,463,60,117.0,203,1,362,230,100,0,0,512,-17956,-32248,499,,,,,,,,,,,,
619743,1560691891566,1,2.44,2.32,3.45,2.43,5.07,0.29,-0.45,0.69,20,1,21,0.53,9295,19,92,33,40,1111,500.0,625,460,60,118.0,203,1,327,216,100,0,0,510,-17956,6274,500,45.698727,4.909576,46.7,190.1,5,1.8283,0,0.0,1.17,6,0.81,10.3291
619763,1560691891586,2,2.44,2.21,3.51,2.42,5.07,0.33,-0.52,0.63,20,-1,22,0.62,9071,13,91,33,30,1087,504.0,620,454,60,117.0,132,1,305,198,100,0,0,498,2212,-28648,502,,,,,,,,,,,,
619783,1560691891604,1,2.43,2.05,3.62,2.37,5.03,0.42,-0.55,0.61,20,-0,22,0.69,9071,13,91,33,30,1087,504.0,620,454,60,117.0,132,1,291,188,66,0,0,503,-899,15661,504,,,,,,,,,,,,
619803,1560691891624,-0,2.43,2.07,3.61,2.39,5.05,0.41,-0.55,0.56,20,1,24,0.69,8644,12,91,33,27,1063,507.0,610,451,60,117.0,132,1,282,188,66,0,0,497,16648,11560,509,,,,,,,,,,,,
619823,1560691891644,4,2.43,2.11,3.56,2.42,5.04,0.36,-0.56,0.52,20,0,24,0.66,8644,12,91,33,27,1063,507.0,610,451,60,117.0,132,1,278,188,66,0,0,475,8488,-21872,507,,,,,,,,,,,,
619843,1560691891664,-1,2.46,2.09,3.52,2.41,5.05,0.45,-0.63,0.52,21,-1,24,0.77,8177,11,91,33,25,1018,509.0,581,458,60,117.0,132,1,270,173,66,0,0,475,-23367,10994,506,45.698727,4.909559,47.92,190.2,5,1.8283,0,0.0,1.1717,6,0.81,10.3307
619863,1560691891684,3,2.44,2.04,3.5,2.4,5.06,0.46,-0.56,0.43,23,-1,25,0.72,8050,11,91,33,25,1003,512.0,567,456,60,118.0,98,1,270,173,66,0,0,478,2212,-28648,509,,,,,,,,,,,,
619883,1560691891706,3,2.44,1.95,3.55,2.39,5.08,0.61,-0.6,0.4,23,-1,25,0.86,8050,11,91,33,25,1003,512.0,567,456,60,118.0,98,1,270,162,50,0,0,473,-23367,15661,512,,,,,,,,,,,,
619903,1560691891726,-1,2.44,1.89,3.57,2.32,5.06,0.66,-0.7,0.45,22,-0,27,0.96,8026,11,91,33,24,954,500.0,567,458,60,118.0,98,1,270,156,50,0,0,441,3576,-1818,506,,,,,,,,,,,,
619923,1560691891746,3,2.43,1.87,3.62,2.26,5.04,0.66,-0.67,0.33,23,-0,28,0.94,8026,11,91,33,24,954,500.0,567,458,60,118.0,98,1,270,157,50,0,0,455,8488,-6441,500,,,,,,,,,,,,
619943,1560691891766,0,2.42,1.88,3.69,2.24,5.05,0.72,-0.72,0.32,23,-1,28,1.02,8088,11,91,33,24,923,496.0,565,458,60,118.0,98,1,270,160,50,0,0,440,243,-16384,496,45.69873,4.909542,48.59,190.2,5,1.8283,0,0.0,1.1733,6,0.81,10.3324
619963,1560691891786,2,2.41,1.91,3.71,2.22,5.08,0.68,-0.72,0.3,22,1,27,0.99,8085,10,91,33,24,898,490.0,578,460,60,118.0,99,1,270,161,50,0,0,413,-3210,10305,491,,,,,,,,,,,,
619983,1560691891807,4,2.39,1.94,3.7,2.21,5.04,0.67,-0.78,0.22,22,2,26,1.03,8085,10,91,33,24,898,490.0,578,460,60,118.0,99,1,270,160,49,0,0,396,16408,10432,490,,,,,,,,,,,,
620003,1560691891827,1,2.39,1.97,3.67,2.21,5.05,0.81,-0.8,0.37,21,2,25,1.13,8116,10,91,33,24,890,479.0,568,459,60,117.0,99,1,270,161,49,0,0,413,2211,2211,487,,,,,,,,,,,,
620023,1560691891847,3,2.38,1.99,3.6,2.18,5.07,0.8,-0.74,0.33,21,2,24,1.09,8081,10,91,33,24,890,479.0,568,459,60,117.0,99,1,270,161,49,0,0,426,-18108,6193,479,,,,,,,,,,,,
620043,1560691891867,1,2.37,1.99,3.6,2.16,5.04,0.92,-0.72,0.33,21,1,23,1.17,8081,10,91,33,24,905,476.0,567,458,60,118.0,99,1,270,160,49,0,0,440,-8985,-8985,476,45.69873,4.909525,47.87,190.2,5,1.8283,0,0.0,1.175,6,0.81,10.3341
620063,1560691891887,3,2.37,1.98,3.61,2.14,5.04,0.97,-0.67,0.39,19,0,23,1.18,8148,10,91,33,24,941,466.0,565,458,60,118.0,104,1,270,163,49,0,0,435,-8985,-26615,469,,,,,,,,,,,,
620083,1560691891905,3,2.37,1.99,3.64,2.12,5.04,0.97,-0.63,0.35,18,0,22,1.16,8148,10,91,33,24,941,466.0,565,458,60,118.0,104,1,270,163,49,0,0,425,-3267,16648,464,,,,,,,,,,,,
620103,1560691891925,2,2.35,2.03,3.65,2.1,5.05,1.07,-0.63,0.45,17,-2,20,1.24,8054,10,91,33,24,982,460.0,556,461,60,117.0,104,1,270,159,49,0,0,418,15649,20625,463,,,,,,,,,,,,
620123,1560691891945,3,2.34,2.06,3.65,2.09,5.06,0.98,-0.52,0.37,16,-2,19,1.11,8054,10,91,33,23,996,456.0,554,461,60,117.0,104,1,270,159,49,0,0,430,2131,23400,458,,,,,,,,,,,,
620143,1560691891965,1,2.36,2.05,3.64,2.06,5.05,1.01,-0.49,0.32,15,-2,18,1.13,8054,10,91,33,23,996,456.0,554,460,60,118.0,104,1,270,156,49,0,0,427,21432,-7939,456,45.698734,4.909509,46.24,190.2,5,1.8283,0,0.0,1.1767,6,0.82,10.3357
620163,1560691891985,2,2.35,2.04,3.61,2.04,5.07,1.12,-0.49,0.43,14,-4,16,1.22,7961,10,91,33,24,1040,449.0,555,458,60,117.0,103,1,269,156,47,0,0,425,-18341,31796,453,,,,,,,,,,,,
620183,1560691892001,3,2.34,2.06,3.59,2.03,5.06,1.06,-0.43,0.37,14,-3,16,1.14,7978,10,91,33,24,1040,449.0,555,458,60,117.0,103,1,269,156,47,0,0,424,26704,13180,449,,,,,,,,,,,,
620203,1560691892021,4,2.35,2.01,3.55,2.01,5.04,1.06,-0.46,0.31,14,-2,16,1.15,7978,10,91,33,23,1051,446.0,551,458,60,118.0,103,1,269,154,47,0,0,427,21580,3635,446,,,,,,,,,,,,
620223,1560691892041,-0,2.34,1.98,3.51,2.0,5.07,1.13,-0.51,0.4,13,-1,16,1.24,7924,10,91,33,23,1066,444.0,564,459,60,117.0,103,1,269,154,47,0,0,428,-768,31796,443,,,,,,,,,,,,
620243,1560691892061,2,2.35,2.01,3.49,2.01,5.04,1.14,-0.44,0.44,12,-2,16,1.23,7934,10,91,33,23,1066,444.0,564,459,60,117.0,103,1,269,154,47,0,0,421,243,13552,444,45.698738,4.909493,44.76,190.2,5,1.8283,0,0.0,1.1783,6,0.82,10.3374
620263,1560691892081,3,2.35,2.0,3.47,2.0,5.04,1.08,-0.36,0.34,12,-1,15,1.14,7934,10,91,33,23,1074,441.0,557,458,60,118.0,103,1,269,154,47,0,0,420,31796,-3414,441,,,,,,,,,,,,
620283,1560691892107,1,2.34,2.0,3.45,2.0,5.07,1.1,-0.41,0.3,11,-1,14,1.17,7868,10,91,33,23,1078,434.0,553,454,60,118.0,105,1,268,154,46,0,0,422,3635,13552,436,,,,,,,,,,,,
620303,1560691892127,0,2.33,2.01,3.45,2.0,5.07,1.16,-0.41,0.42,11,-1,14,1.23,7868,10,91,33,23,1078,434.0,553,460,60,117.0,105,1,268,151,46,0,0,416,3826,-26615,434,,,,,,,,,,,,
620323,1560691892147,1,2.33,2.01,3.45,2.01,5.08,1.19,-0.37,0.38,10,-2,12,1.25,7825,10,91,33,22,1081,431.0,550,459,60,118.0,105,1,268,151,46,0,0,417,-3414,-26615,431,,,,,,,,,,,,
620343,1560691892167,2,2.33,2.01,3.42,2.01,5.04,1.18,-0.35,0.33,9,-2,12,1.23,7760,10,91,33,22,1085,426.0,544,457,60,118.0,105,1,267,151,46,0,0,418,-8165,-3414,429,45.698742,4.909479,43.06,190.2,5,1.8283,0,0.0,1.18,6,0.82,10.3391
620363,1560691892187,1,2.33,2.02,3.42,1.98,5.04,1.07,-0.29,0.23,9,0,14,1.1,7700,10,91,33,22,1085,426.0,544,457,60,118.0,105,1,267,151,46,0,0,416,-21944,7154,425,,,,,,,,,,,,
620383,1560691892205,3,2.32,2.03,3.43,1.98,5.07,0.94,-0.29,0.22,10,1,13,0.99,7678,10,91,33,22,1061,422.0,541,461,60,118.0,103,1,266,151,44,0,0,410,-21944,10392,423,,,,,,,,,,,,
620403,1560691892225,4,2.31,2.01,3.43,1.97,5.04,1.0,-0.37,0.3,10,1,12,1.06,7594,10,91,33,22,1026,418.0,542,458,60,117.0,103,1,266,151,44,0,0,409,18584,10392,422,,,,,,,,,,,,
620423,1560691892245,22,2.29,2.04,3.43,1.95,5.05,1.0,-0.4,0.36,9,1,11,1.08,7557,10,91,33,22,1026,418.0,542,458,60,117.0,103,1,265,151,44,0,0,410,2524,11560,418,,,,,,,,,,,,
620443,1560691892265,1,2.27,2.1,3.42,1.96,5.07,1.02,-0.44,0.42,8,2,10,1.11,7557,10,91,33,22,981,418.0,542,459,60,117.0,103,1,265,151,44,0,0,405,-9166,-9211,417,45.698746,4.909465,41.51,190.3,5,1.8283,0,0.0,1.1817,6,0.82,10.3407
620463,1560691892285,-0,2.25,2.15,3.41,1.95,5.04,1.06,-0.47,0.48,8,1,9,1.16,7530,10,91,33,22,943,412.0,539,458,60,117.0,103,1,265,151,44,0,0,404,9517,28696,412,,,,,,,,,,,,
620483,1560691892307,4,2.23,2.2,3.41,1.94,5.08,1.12,-0.53,0.48,7,0,7,1.24,7467,10,91,33,22,897,411.0,539,453,60,117.0,104,1,264,151,43,0,0,401,11560,6384,411,,,,,,,,,,,,
620503,1560691892327,6,2.2,2.29,3.39,1.93,5.06,1.13,-0.49,0.45,6,-0,6,1.23,7467,10,91,33,22,850,408.0,534,457,60,117.0,104,1,264,151,43,0,0,403,10392,-3968,408,,,,,,,,,,,,
620523,1560691892347,4,2.18,2.34,3.38,1.92,5.04,1.18,-0.45,0.52,4,-1,4,1.27,7416,10,91,33,23,825,408.0,535,455,60,118.0,104,1,264,151,43,0,0,399,11560,-3968,403,,,,,,,,,,,,
620543,1560691892367,3,2.17,2.34,3.39,1.89,5.08,1.18,-0.45,0.54,2,-1,2,1.27,7399,10,91,33,23,822,410.0,528,457,60,118.0,104,1,263,154,43,0,0,398,10392,-6656,398,45.69875,4.909452,40.64,190.3,5,1.8283,0,0.0,1.1833,6,0.82,10.3424
620563,1560691892387,1,2.17,2.34,3.35,1.86,5.05,1.2,-0.41,0.49,1,-2,0,1.27,7335,10,91,33,23,825,411.0,525,455,60,118.0,107,1,263,154,43,0,0,401,9517,-6524,396,,,,,,,,,,,,
620583,1560691892405,1,2.17,2.37,3.34,1.84,5.06,1.09,-0.3,0.4,-0,-1,-2,1.13,7335,10,91,33,23,825,411.0,525,455,60,118.0,107,1,263,154,42,0,0,402,9517,240,392,,,,,,,,,,,,
620603,1560691892425,2,2.15,2.39,3.32,1.83,5.05,0.98,-0.15,0.27,-1,0,-4,0.99,7267,11,91,33,23,845,406.0,523,459,60,118.0,107,1,262,154,42,0,0,396,10392,-19019,388,,,,,,,,,,,,
620623,1560691892445,1,2.16,2.37,3.28,1.82,5.04,0.96,0.05,0.2,-1,1,-4,0.97,7278,11,91,33,24,856,404.0,516,458,60,118.0,107,1,262,154,42,0,0,399,2524,-31744,386,,,,,,,,,,,,
620643,1560691892465,-1,2.16,2.35,3.27,1.79,5.05,0.98,0.15,0.26,-3,1,-4,1.0,7211,11,91,33,24,856,404.0,516,458,60,118.0,107,1,262,156,42,0,0,393,1504,-18948,387,45.698757,4.909438,39.57,190.4,5,1.8283,0,0.0,1.185,6,0.82,10.3441
620663,1560691892485,4,2.15,2.36,3.28,1.79,5.08,0.98,0.1,0.33,-4,1,-7,0.98,7211,11,91,33,24,871,405.0,519,457,60,117.0,107,1,262,156,42,0,0,395,-9211,3,386,,,,,,,,,,,,
620683,1560691892503,2,2.14,2.38,3.27,1.82,5.07,1.01,0.1,0.37,-4,1,-10,1.01,7189,12,91,33,25,876,400.0,512,458,60,117.0,109,1,262,156,42,0,0,394,10541,2278,385,,,,,,,,,,,,
620703,1560691892523,1,2.13,2.39,3.27,1.84,5.05,0.96,0.17,0.33,-5,1,-11,0.98,7134,13,91,33,25,876,400.0,512,459,60,118.0,109,1,261,159,42,0,0,392,6512,770,381,,,,,,,,,,,,
620723,1560691892543,-0,2.12,2.41,3.26,1.82,5.07,0.91,0.31,0.28,-6,2,-12,0.96,7134,13,91,33,25,876,398.0,519,457,60,119.0,109,1,261,159,42,0,0,390,6384,-6656,378,,,,,,,,,,,,
