"Interval"|"ms"|0|0|1,"Utc"|"ms"|0|0|1,"FB_p"|"bar"|0|300|50,"Volant"|"F"|0.0|300.0|50,"xFR"|"mm"|0.0|5.0|50,"xRR"|"mm"|0.0|5.0|50,"xFL"|"mm"|0.0|5.0|50,"xRL"|"mm"|0.0|5.0|50,"AccelX"|"G"|-3.0|3.0|50,"AccelY"|"G"|-3.0|3.0|50,"AccelZ"|"G"|-3.0|3.0|50,"Yaw"|"Deg/Sec"|-120|120|50,"Pitch"|"Deg/Sec"|-120|120|50,"Roll"|"Deg/Sec"|-120|120|50,"Gsum"|"G"|0.0|3.0|50,"RPM"|""|0|14000|50,"TPS"|"%"|0|100|50,"WaterTemp"|"?C"|0|300|50,"AirTemp"|"?C"|-1000|1000|50,"MAP"|"KPa"|0|255|50,"Lambda"|""|0|1024|50,"WheelSpeed"|"MPH"|0.0|150.0|50,"OilPress"|"PSI"|0|150|50,"FuelPress"|"PSI"|0|150|50,"OilTemp"|"F"|0|300|50,"Battery"|"Volts"|0.0|20.0|50,"FuelCon"|"L/h"|-1000|1000|50,"Gear"|""|0|10|50,"Advance"|"Deg"|-360|360|50,"Injection"|"ms"|-1000|1000|50,"FuelCon"|"L/100km"|-1000|1000|50,"LC_But_Pres"|""|-1000|1000|50,"LC_Active"|""|-1000|1000|50,"RD_Speed"|""|-1000|1000|50,"RUD_Speed"|""|-1000|1000|50,"LD_Speed"|""|-1000|1000|50,"LUD_Speed"|""|-1000|1000|50,"Latitude"|"Degrees"|-180.0|180.0|10,"Longitude"|"Degrees"|-180.0|180.0|10,"Speed"|"kph"|0.0|150.0|10,"Altitude"|"m"|0.0|4000.0|10,"LapCount"|""|0|0|10,"LapTime"|"Min"|0.0|0.0|10,"Sector"|""|0|0|10,"SectorTime"|"Min"|0.0|0.0|10,"ElapsedTime"|"Min"|0.0|0.0|10,"CurrentLap"|""|0|0|10,"Distance"|"km"|0.0|0.0|10,"SessionTime"|"Min"|0.0|0.0|10
32563,1560695108702,10,2.27,1.85,3.43,1.69,5.08,0.61,-0.01,-0.13,6,4,0,0.61,7295,5,88,34,20,500,548.0,603,461,60,121.0,72,1,262,146,41,0,0,535,-8962,-28648,547,,,,,,,,,,,,
32583,1560695108722,11,2.27,1.84,3.44,1.68,5.08,0.75,-0.06,-0.09,4,1,-1,0.75,7222,5,88,34,20,500,545.0,604,463,60,121.0,72,1,262,146,41,0,0,534,1779,14504,543,,,,,,,,,,,,
32603,1560695108742,10,2.26,1.85,3.41,1.68,5.06,0.88,-0.08,0.0,2,1,1,0.88,7194,5,88,34,20,500,541.0,595,465,60,119.0,73,1,261,146,40,0,0,526,-2336,-32248,541,,,,,,,,,,,,
32623,1560695108762,12,2.27,1.84,3.41,1.69,5.05,0.92,-0.18,0.06,2,-0,3,0.94,7145,5,88,34,20,500,539.0,594,462,60,120.0,73,1,261,146,40,0,0,519,-32248,-9212,539,,,,,,,,,,,,
32643,1560695108782,12,2.26,1.85,3.41,1.68,5.05,0.89,-0.15,0.1,2,-1,4,0.91,7064,5,88,34,20,501,532.0,583,458,60,121.0,73,1,260,146,40,0,0,525,2524,6274,532,45.70079,4.909634,55.19,196.7,0,0.0,0,0.0,0.0383,1,0.05,0.544
32663,1560695108804,9,2.27,1.84,3.41,1.71,5.04,0.84,-0.03,0.01,2,1,3,0.84,7038,5,88,34,21,500,527.0,585,465,60,121.0,73,1,260,149,40,0,0,519,2088,17136,527,,,,,,,,,,,,
32683,1560695108824,12,2.26,1.85,3.4,1.7,5.03,0.93,-0.06,0.03,2,-2,3,0.93,6936,5,88,34,21,501,525.0,589,460,60,120.0,73,1,260,148,40,0,0,513,10408,-28648,525,,,,,,,,,,,,
32703,1560695108844,7,2.28,1.85,3.4,1.7,5.05,0.81,-0.06,-0.06,2,1,1,0.81,6883,5,88,34,21,501,524.0,581,464,60,121.0,74,1,260,148,39,0,0,509,2524,-3856,524,,,,,,,,,,,,
32723,1560695108864,3,2.28,1.85,3.39,1.7,5.07,0.88,-0.05,-0.04,2,-1,0,0.89,6860,5,88,34,21,501,521.0,570,462,60,120.0,74,1,260,148,39,0,0,503,15679,2109,521,,,,,,,,,,,,
32743,1560695108884,7,2.27,1.85,3.39,1.7,5.04,0.9,-0.17,-0.06,2,-1,1,0.92,6843,5,88,34,21,501,516.0,567,461,60,121.0,74,1,260,147,39,0,0,506,26178,-32248,516,45.700802,4.909642,53.25,196.7,0,0.0,0,0.0,0.04,1,0.05,0.5457
32763,1560695108904,2,2.28,1.85,3.39,1.71,5.05,0.89,-0.07,-0.09,2,1,2,0.9,6830,5,88,34,22,501,514.0,573,464,60,119.0,74,1,260,150,39,0,0,502,10994,2524,514,,,,,,,,,,,,
32783,1560695108924,6,2.28,1.85,3.39,1.72,5.07,0.97,-0.18,0.01,1,0,3,0.99,6820,5,88,34,22,501,512.0,565,460,60,121.0,74,1,260,147,39,0,0,501,-4054,15661,512,,,,,,,,,,,,
32803,1560695108944,0,2.27,1.87,3.37,1.76,5.07,0.89,-0.08,-0.07,1,3,4,0.89,6808,5,88,34,22,501,509.0,566,462,60,121.0,74,1,260,150,38,0,0,499,-21872,-9216,509,,,,,,,,,,,,
32823,1560695108964,4,2.28,1.9,3.34,1.8,5.05,1.0,-0.13,0.12,1,-0,4,1.0,6783,5,88,34,22,501,506.0,572,459,60,120.0,74,1,260,150,38,0,0,500,6274,15661,505,,,,,,,,,,,,
32843,1560695108984,-0,2.28,1.92,3.33,1.8,5.06,0.89,-0.08,0.07,1,1,4,0.89,6751,5,88,34,22,501,504.0,575,466,60,120.0,74,1,260,150,38,0,0,493,15661,-9216,504,45.700813,4.90965,51.04,196.6,0,0.0,0,0.0,0.0417,1,0.05,0.5474
32863,1560695108998,4,2.28,1.93,3.33,1.8,5.07,0.99,-0.11,0.17,0,-1,5,1.0,6725,5,88,34,22,501,503.0,565,462,60,121.0,74,1,260,150,38,0,0,496,-22519,771,503,,,,,,,,,,,,
32883,1560695109018,1,2.26,1.97,3.34,1.81,5.04,0.93,-0.05,0.14,1,0,5,0.93,6696,5,88,34,22,501,500.0,563,461,60,121.0,74,1,261,150,38,0,0,488,3,-32768,499,,,,,,,,,,,,
32903,1560695109038,4,2.26,1.98,3.35,1.79,5.05,0.93,-0.11,0.21,1,-0,3,0.94,6660,5,88,34,22,501,497.0,557,463,60,120.0,74,1,261,149,37,0,0,488,-9216,-6656,497,,,,,,,,,,,,
32923,1560695109058,2,2.26,1.98,3.39,1.78,5.04,0.9,-0.01,0.23,1,-0,1,0.9,6597,5,88,34,22,501,497.0,560,461,60,120.0,74,1,261,152,37,0,0,484,771,-1818,493,,,,,,,,,,,,
32943,1560695109078,3,2.27,1.98,3.39,1.77,5.04,0.91,-0.09,0.24,1,-3,-0,0.91,6562,5,88,34,22,501,496.0,553,455,60,121.0,74,1,261,152,37,0,0,488,3,505,491,45.700825,4.909658,49.63,196.6,0,0.0,0,0.0,0.0433,1,0.05,0.549
32963,1560695109104,7,2.27,1.98,3.38,1.75,5.07,0.9,-0.08,0.22,0,-1,-1,0.91,6544,5,88,34,23,501,493.0,550,467,60,121.0,74,1,262,152,37,0,0,479,-6528,16648,490,,,,,,,,,,,,
32983,1560695109124,3,2.26,1.97,3.39,1.75,5.03,0.88,0.05,0.17,1,-0,-1,0.88,6544,4,88,35,23,501,489.0,552,461,60,121.0,74,1,262,151,37,0,0,479,-6656,16648,489,,,,,,,,,,,,
33003,1560695109144,5,2.27,1.97,3.38,1.77,5.04,0.95,-0.07,0.23,1,-2,0,0.95,6524,4,88,35,23,501,487.0,552,457,60,121.0,75,1,262,151,37,0,0,481,-10483,-23367,486,,,,,,,,,,,,
33023,1560695109164,8,2.27,2.0,3.36,1.79,5.04,0.92,-0.02,0.25,1,-1,1,0.92,6472,4,88,35,23,501,484.0,553,463,60,120.0,75,1,263,151,37,0,0,478,-10483,3576,484,,,,,,,,,,,,
33043,1560695109184,1,2.27,2.03,3.35,1.81,5.06,0.9,0.06,0.19,1,0,2,0.9,6441,4,88,35,23,501,482.0,552,466,60,119.0,75,1,263,151,37,0,0,477,-899,10305,480,45.700836,4.909665,48.44,196.6,0,0.0,0,0.0,0.045,1,0.06,0.5507
33063,1560695109204,3,2.27,2.04,3.34,1.8,5.07,0.92,0.0,0.22,1,0,-0,0.92,6414,4,88,35,23,501,479.0,548,462,60,122.0,75,1,263,151,37,0,0,474,16648,-9203,479,,,,,,,,,,,,
33083,1560695109224,7,2.27,2.03,3.32,1.8,5.05,1.02,-0.03,0.29,1,-2,-2,1.02,6394,4,88,35,24,501,477.0,541,461,60,120.0,75,1,265,154,37,0,0,467,-17956,-1923,477,,,,,,,,,,,,
33103,1560695109244,6,2.27,2.0,3.34,1.79,5.05,0.98,-0.02,0.24,1,-2,-1,0.99,6379,4,88,35,24,501,474.0,539,462,60,120.0,77,1,265,154,37,0,0,464,-9203,-16384,473,,,,,,,,,,,,
33123,1560695109264,2,2.28,1.98,3.34,1.77,5.07,0.93,-0.03,0.12,1,0,-1,0.93,6323,4,88,35,24,501,472.0,536,461,60,121.0,77,1,265,154,37,0,0,466,-1923,243,474,,,,,,,,,,,,
33143,1560695109284,3,2.28,1.98,3.35,1.76,5.07,0.97,-0.12,0.18,1,-1,-1,0.98,6262,4,88,35,24,501,471.0,533,462,60,121.0,77,1,266,154,37,0,0,463,8488,2211,469,45.700844,4.909672,47.46,196.5,0,0.0,0,0.0,0.0467,1,0.06,0.5524
33163,1560695109304,3,2.29,1.98,3.35,1.77,5.06,0.97,-0.1,0.24,0,-3,-3,0.97,6243,4,88,35,24,502,468.0,523,462,60,122.0,77,1,266,154,37,0,0,462,243,14488,468,,,,,,,,,,,,
33183,1560695109324,5,2.29,1.98,3.34,1.79,5.05,0.96,0.04,0.23,0,-3,-2,0.96,6241,4,88,35,24,502,467.0,524,462,60,121.0,77,1,266,154,37,0,0,459,30272,-9160,467,,,,,,,,,,,,
33203,1560695109344,7,2.28,1.99,3.34,1.82,5.04,0.9,0.18,0.24,1,-2,-2,0.92,6218,4,88,35,25,502,465.0,528,460,60,120.0,79,1,269,158,37,0,0,457,6193,6193,465,,,,,,,,,,,,
33223,1560695109364,7,2.28,1.98,3.34,1.84,5.04,0.88,0.18,0.2,2,1,-2,0.9,6169,4,88,35,25,501,463.0,529,460,60,120.0,79,1,269,158,37,0,0,453,17628,-26615,464,,,,,,,,,,,,
33243,1560695109384,1,2.29,1.98,3.34,1.85,5.06,0.91,0.08,0.14,2,1,-3,0.91,6147,4,88,35,25,501,459.0,531,455,60,120.0,79,1,269,158,37,0,0,454,14488,-6387,459,45.700855,4.90968,46.29,196.5,0,0.0,0,0.0,0.0483,1,0.06,0.5541
33263,1560695109404,3,2.28,1.99,3.34,1.89,5.05,0.99,-0.09,0.12,1,1,-1,1.0,6115,4,88,35,25,501,456.0,523,457,60,121.0,79,1,269,158,37,0,0,452,-8985,15649,456,,,,,,,,,,,,
33283,1560695109424,4,2.28,1.98,3.34,1.87,5.04,1.09,-0.21,0.19,1,1,1,1.11,6073,4,88,35,25,500,453.0,521,457,60,121.0,79,1,270,158,37,0,0,447,-8985,15649,453,,,,,,,,,,,,
33303,1560695109444,4,2.29,1.97,3.35,1.86,5.08,1.14,-0.29,0.26,-1,-1,1,1.18,6011,4,88,35,25,500,452.0,519,459,60,122.0,79,1,270,158,36,0,0,442,-3267,16648,452,,,,,,,,,,,,
33323,1560695109464,3,2.29,1.97,3.34,1.84,5.04,1.23,-0.36,0.34,-3,-3,-0,1.28,5975,4,88,35,25,500,450.0,521,462,60,122.0,79,1,269,159,36,0,0,443,15649,10305,450,,,,,,,,,,,,
33343,1560695109484,4,2.28,1.97,3.33,1.83,5.04,1.31,-0.36,0.33,-5,-6,-1,1.36,5961,4,88,35,26,500,448.0,512,462,60,121.0,79,1,271,159,36,0,0,438,16648,23400,447,45.700867,4.909687,45.27,196.4,0,0.0,0,0.0,0.05,1,0.06,0.5557
33363,1560695109504,4,2.29,1.97,3.33,1.82,5.05,1.38,-0.4,0.37,-6,-6,-1,1.44,5961,4,88,35,26,500,443.0,509,462,60,121.0,79,1,271,159,36,0,0,436,-18341,-3322,442,,,,,,,,,,,,
33383,1560695109524,4,2.29,1.98,3.37,1.85,5.04,1.45,-0.45,0.37,-8,-6,-0,1.51,5903,4,88,35,27,500,441.0,507,461,60,121.0,79,1,274,160,36,0,0,433,-28332,1779,441,,,,,,,,,,,,
33403,1560695109544,5,2.28,1.98,3.42,1.84,5.08,1.5,-0.52,0.41,-9,-5,1,1.59,5824,4,88,35,28,500,438.0,504,461,60,121.0,79,1,275,161,35,0,0,431,21580,-768,437,,,,,,,,,,,,
33423,1560695109564,10,2.26,1.98,3.37,1.86,5.04,1.56,-0.57,0.43,-9,-5,0,1.66,5756,4,88,35,28,500,435.0,498,458,60,119.0,79,1,274,161,35,0,0,428,243,31796,435,,,,,,,,,,,,
33443,1560695109584,9,2.28,1.98,3.38,1.85,5.05,1.46,-0.59,0.37,-8,-2,0,1.57,5749,4,88,35,28,500,433.0,493,459,60,120.0,79,1,274,161,35,0,0,422,3635,3635,432,45.700878,4.909694,43.97,196.4,0,0.0,0,0.0,0.0517,1,0.06,0.5574
33463,1560695109604,6,2.28,1.97,3.36,1.82,5.05,1.29,-0.54,0.35,-4,-0,1,1.4,5732,4,88,35,28,500,430.0,486,462,60,121.0,79,1,274,161,35,0,0,423,13180,31796,430,,,,,,,,,,,,
33483,1560695109624,6,2.28,1.96,3.34,1.79,5.07,1.15,-0.39,0.32,-1,-2,0,1.21,5730,4,88,35,29,501,427.0,484,463,60,122.0,79,1,276,162,35,0,0,419,-3856,18584,427,,,,,,,,,,,,
33503,1560695109644,6,2.27,1.94,3.34,1.78,5.06,1.18,-0.34,0.34,-2,-4,-1,1.23,5735,4,88,35,29,501,422.0,485,464,60,121.0,81,1,276,162,35,0,0,415,-8165,-26615,423,,,,,,,,,,,,
33523,1560695109664,12,2.27,1.94,3.35,1.77,5.05,1.26,-0.39,0.33,-4,-4,-1,1.32,5671,4,88,35,29,501,421.0,480,468,60,120.0,81,1,275,161,35,0,0,413,-21944,2524,421,,,,,,,,,,,,
33543,1560695109684,11,2.27,1.95,3.36,1.78,5.06,1.21,-0.41,0.34,-4,-0,-2,1.28,5597,4,88,35,30,502,416.0,475,465,60,121.0,81,1,276,161,35,0,0,414,18584,9517,416,45.700886,4.909701,43.04,196.4,0,0.0,0,0.0,0.0533,1,0.06,0.559
33563,1560695109703,6,2.28,1.95,3.37,1.79,5.06,1.08,-0.33,0.33,-1,-1,-3,1.13,5511,4,88,35,30,502,412.0,473,453,60,122.0,81,1,275,161,35,0,0,408,13040,10392,412,,,,,,,,,,,,
33583,1560695109723,10,2.28,1.95,3.38,1.79,5.06,1.18,-0.26,0.25,-2,-2,-3,1.2,5456,4,88,35,31,502,410.0,467,465,60,119.0,81,1,276,161,35,0,0,405,9517,1504,410,,,,,,,,,,,,
33603,1560695109743,8,2.27,1.96,3.35,1.77,5.06,1.12,-0.27,0.25,-3,-0,-4,1.15,5458,4,88,35,32,501,408.0,460,471,60,121.0,80,1,279,161,33,0,0,403,10392,-8151,406,,,,,,,,,,,,
33623,1560695109763,9,2.28,1.96,3.35,1.77,5.05,0.96,-0.2,0.26,0,-2,-3,0.98,5430,4,88,35,32,502,404.0,463,456,60,122.0,80,1,278,162,33,0,0,400,1504,-1818,404,,,,,,,,,,,,
33643,1560695109783,12,2.27,1.95,3.35,1.77,5.04,1.06,-0.2,0.26,-2,-2,-2,1.08,5372,4,88,35,33,502,400.0,460,461,60,120.0,80,1,280,167,33,0,0,394,6512,-32702,400,45.700897,4.909708,41.29,196.3,0,0.0,0,0.0,0.055,1,0.06,0.5607
33663,1560695109803,9,2.26,1.95,3.36,1.78,5.06,0.87,-0.22,0.26,-0,1,-2,0.89,5308,4,88,35,33,502,398.0,453,461,60,122.0,80,1,279,167,33,0,0,390,-3968,1,397,,,,,,,,,,,,
33683,1560695109823,12,2.27,1.94,3.36,1.79,5.08,0.98,-0.16,0.24,-1,-2,-0,1.0,5256,4,88,35,34,502,394.0,455,466,60,120.0,80,1,282,172,33,0,0,390,-6656,240,394,,,,,,,,,,,,
33703,1560695109843,8,2.26,1.94,3.36,1.79,5.03,0.87,-0.26,0.23,-1,1,-0,0.91,5225,4,88,35,35,502,392.0,448,460,60,122.0,88,1,286,178,35,0,0,387,505,-19019,392,,,,,,,,,,,,
33723,1560695109863,8,2.28,1.94,3.35,1.78,5.05,0.99,-0.18,0.27,-1,-2,0,1.0,5178,3,88,35,36,502,390.0,439,461,60,120.0,88,1,289,183,35,0,0,382,-31744,-992,387,,,,,,,,,,,,
33743,1560695109883,6,2.27,1.95,3.35,1.78,5.08,0.8,-0.23,0.24,0,1,-0,0.83,5129,3,88,35,37,502,385.0,442,461,60,122.0,88,1,292,183,35,0,0,380,-19019,-992,385,45.700901,4.909714,40.01,196.3,0,0.0,0,0.0,0.0567,1,0.06,0.5624
33763,1560695109903,7,2.27,1.95,3.35,1.78,5.05,0.92,-0.08,0.22,-1,-1,-1,0.93,5122,3,88,35,37,502,383.0,442,466,60,120.0,88,1,292,189,35,0,0,378,-18948,8200,381,,,,,,,,,,,,
33783,1560695109923,3,2.28,1.95,3.34,1.78,5.05,0.74,-0.07,0.24,2,-2,1,0.74,5114,3,88,35,37,502,380.0,436,458,60,120.0,88,1,292,195,35,0,0,372,8200,-6656,381,,,,,,,,,,,,
33803,1560695109943,5,2.27,1.95,3.35,1.79,5.05,0.87,-0.1,0.34,-1,2,-0,0.88,5084,3,88,35,38,502,377.0,427,461,60,122.0,97,1,295,195,37,0,0,373,3,-6656,377,,,,,,,,,,,,
33823,1560695109963,5,2.26,1.95,3.37,1.78,5.05,0.96,0.0,0.32,1,-2,1,0.96,5041,3,88,35,38,502,376.0,430,460,60,120.0,97,1,295,202,37,0,0,368,3,486,376,,,,,,,,,,,,
33843,1560695109983,5,2.26,1.95,3.38,1.79,5.07,0.74,-0.08,0.34,1,0,1,0.75,5004,3,88,35,39,502,375.0,418,460,60,121.0,97,1,300,202,37,0,0,369,770,486,373,45.700912,4.909721,38.44,196.3,0,0.0,0,0.0,0.0583,1,0.06,0.564
33863,1560695109997,3,2.26,2.01,3.34,1.8,5.07,0.87,-0.1,0.41,-1,-0,-0,0.88,4956,3,88,35,40,502,371.0,413,467,60,121.0,97,1,297,202,37,0,0,365,257,0,370,,,,,,,,,,,,
33883,1560695110017,6,2.25,2.02,3.33,1.79,5.05,0.96,-0.01,0.31,1,-2,1,0.96,4934,3,88,35,40,502,368.0,420,458,60,119.0,97,1,297,201,37,0,0,363,0,-6458,367,,,,,,,,,,,,
33903,1560695110037,6,2.24,2.02,3.33,1.77,5.05,0.75,-0.06,0.33,2,-1,1,0.76,4926,3,87,35,40,502,367.0,412,463,60,121.0,100,1,296,201,37,0,0,360,0,2790,363,,,,,,,,,,,,
33923,1560695110057,5,2.24,2.02,3.33,1.76,5.04,0.81,-0.08,0.35,-1,2,-1,0.81,4885,3,87,35,41,503,365.0,410,463,60,122.0,100,1,296,201,37,0,0,361,-6405,-6458,362,,,,,,,,,,,,
33943,1560695110077,5,2.24,2.02,3.33,1.77,5.04,0.93,0.05,0.31,-1,-1,0,0.93,4861,3,87,35,41,502,363.0,407,465,60,122.0,100,1,295,201,37,0,0,358,3082,3302,360,45.700924,4.909727,36.8,196.2,0,0.0,0,0.0,0.06,1,0.07,0.5657
33963,1560695110103,8,2.24,2.01,3.34,1.77,5.06,0.97,0.09,0.34,-0,-3,1,0.98,4834,3,87,35,41,502,360.0,403,462,60,119.0,100,1,293,199,37,0,0,351,-14707,-6644,357,,,,,,,,,,,,
33983,1560695110123,8,2.24,2.01,3.33,1.78,5.07,0.86,0.08,0.34,1,1,-0,0.87,4777,3,87,35,41,503,357.0,409,456,60,121.0,100,1,291,198,37,0,0,353,-6640,2811,354,,,,,,,,,,,,
34003,1560695110143,6,2.23,2.02,3.33,1.77,5.05,0.77,0.1,0.27,-1,1,-2,0.78,4745,3,87,35,42,503,354.0,403,460,60,122.0,101,1,292,199,36,0,0,350,3302,2811,350,,,,,,,,,,,,
34023,1560695110163,5,2.24,2.03,3.34,1.76,5.06,0.84,0.02,0.27,-2,0,-2,0.84,4708,3,87,35,42,503,352.0,397,461,60,122.0,101,1,290,198,36,0,0,347,3183,-10554,348,,,,,,,,,,,,
34043,1560695110183,4,2.24,2.03,3.32,1.76,5.05,0.94,0.12,0.33,-3,1,-1,0.95,4685,3,87,35,42,503,349.0,394,462,60,122.0,101,1,290,197,36,0,0,345,2811,-31206,343,45.700928,4.909733,35.73,196.2,0,0.0,0,0.0,0.0617,1,0.07,0.5674
34063,1560695110203,4,2.23,2.04,3.33,1.77,5.06,1.0,0.21,0.33,-3,-1,-1,1.02,4630,3,87,35,42,503,348.0,392,463,60,121.0,101,1,287,196,36,0,0,343,8841,-31222,342,,,,,,,,,,,,
34083,1560695110223,5,2.22,2.03,3.33,1.78,5.04,1.07,0.33,0.28,-3,-1,-3,1.12,4576,3,87,35,42,503,345.0,389,467,60,121.0,101,1,285,194,36,0,0,341,6870,13,340,,,,,,,,,,,,
34103,1560695110243,6,2.21,2.04,3.33,1.77,5.04,1.14,0.41,0.27,-2,-4,-2,1.21,4564,3,87,35,42,503,343.0,383,465,60,121.0,97,1,285,194,33,0,0,337,-14714,13,338,,,,,,,,,,,,
34123,1560695110263,8,2.21,2.02,3.32,1.75,5.07,1.2,0.45,0.29,-2,-5,-1,1.28,4544,3,87,35,42,503,340.0,382,458,60,120.0,97,1,284,193,33,0,0,332,-122,-12032,336,,,,,,,,,,,,
34143,1560695110283,5,2.2,2.03,3.32,1.75,5.05,1.21,0.45,0.33,-1,-6,-1,1.29,4508,3,87,35,43,503,337.0,382,465,60,121.0,97,1,286,195,33,0,0,333,2560,-20736,332,45.700935,4.909739,34.76,196.2,0,0.0,0,0.0,0.0633,1,0.07,0.569
34163,1560695110299,4,2.19,2.03,3.32,1.75,5.04,1.21,0.49,0.28,-1,-7,-1,1.31,4464,3,87,35,42,503,335.0,380,458,60,120.0,97,1,280,191,33,0,0,331,3346,-22016,327,,,,,,,,,,,,
34183,1560695110319,3,2.19,2.03,3.3,1.75,5.05,1.25,0.53,0.26,-1,-8,-1,1.36,4404,3,87,35,43,503,335.0,371,462,60,120.0,97,1,283,193,33,0,0,331,3346,160,325,,,,,,,,,,,,
34203,1560695110339,5,2.17,2.03,3.3,1.75,5.06,1.28,0.59,0.24,-1,-8,-1,1.41,4397,3,87,35,43,503,332.0,371,459,60,121.0,98,1,282,192,32,0,0,327,-32559,145,323,,,,,,,,,,,,
34223,1560695110359,3,2.18,2.03,3.3,1.74,5.05,1.3,0.63,0.28,-2,-9,-1,1.44,4389,3,87,35,43,503,330.0,365,464,60,121.0,98,1,282,192,32,0,0,325,175,145,319,,,,,,,,,,,,
34243,1560695110379,4,2.16,2.04,3.3,1.76,5.04,1.32,0.6,0.31,-3,-8,-4,1.45,4353,3,87,35,43,503,327.0,365,466,60,122.0,98,1,281,191,32,0,0,324,-22016,135,318,45.700943,4.909744,33.23,196.1,0,0.0,0,0.0,0.065,1,0.07,0.5707
34263,1560695110405,4,2.16,2.04,3.3,1.77,5.08,1.28,0.55,0.31,-4,-7,-6,1.39,4296,3,87,35,42,503,327.0,356,463,60,122.0,98,1,275,186,32,0,0,322,165,125,315,,,,,,,,,,,,
34283,1560695110425,7,2.15,2.06,3.28,1.76,5.05,1.23,0.49,0.29,-5,-4,-7,1.32,4284,3,87,35,42,503,326.0,359,462,60,122.0,98,1,275,185,32,0,0,321,165,32000,313,,,,,,,,,,,,
34303,1560695110445,5,2.15,2.06,3.26,1.75,5.07,1.16,0.45,0.29,-5,-2,-8,1.24,4248,3,87,35,42,503,324.0,358,460,60,120.0,95,1,274,184,30,0,0,321,-24576,125,311,,,,,,,,,,,,
34323,1560695110465,2,2.14,2.06,3.26,1.74,5.06,1.11,0.43,0.26,-5,-1,-9,1.19,4247,3,87,35,42,503,322.0,353,462,60,120.0,95,1,274,184,30,0,0,320,155,28160,308,,,,,,,,,,,,
34343,1560695110485,1,2.14,2.09,3.25,1.75,5.07,1.15,0.42,0.27,-6,-2,-9,1.23,4239,3,87,35,42,503,322.0,352,462,60,121.0,95,1,273,184,30,0,0,316,-25856,105,307,45.700951,4.90975,32.05,196.1,0,0.0,0,0.0,0.0667,1,0.07,0.5724
34363,1560695110503,-0,2.14,2.1,3.25,1.76,5.05,1.23,0.41,0.33,-6,-4,-10,1.29,4217,3,87,35,43,503,321.0,346,464,60,122.0,95,1,277,184,30,0,0,317,-25856,26880,304,,,,,,,,,,,,
34383,1560695110523,1,2.15,2.09,3.24,1.77,5.07,1.26,0.33,0.38,-7,-3,-11,1.31,4202,3,87,36,42,503,319.0,350,463,60,122.0,95,1,272,184,30,0,0,317,-27136,28160,303,,,,,,,,,,,,
34403,1560695110543,3,2.14,2.11,3.22,1.77,5.04,1.17,0.29,0.36,-8,-0,-12,1.2,4176,3,87,36,42,503,317.0,346,464,60,121.0,92,1,271,183,28,0,0,314,-28416,100,302,,,,,,,,,,,,
34423,1560695110563,-0,2.14,2.11,3.22,1.78,5.04,1.11,0.28,0.33,-8,0,-12,1.14,4164,3,87,36,42,503,316.0,349,463,60,119.0,92,1,271,182,28,0,0,314,140,95,302,,,,,,,,,,,,
34443,1560695110583,-2,2.15,2.11,3.21,1.78,5.05,1.09,0.31,0.34,-8,-1,-11,1.13,4129,3,87,36,42,503,316.0,343,461,60,121.0,92,1,269,181,28,0,0,313,140,90,300,45.700958,4.909754,30.8,196.1,0,0.0,0,0.0,0.0683,1,0.07,0.574
34463,1560695110602,-1,2.15,2.11,3.22,1.78,5.08,1.1,0.32,0.37,-8,-2,-12,1.15,4100,3,87,36,42,504,315.0,342,460,60,122.0,92,1,268,180,28,0,0,311,-29696,24320,300,,,,,,,,,,,,
34483,1560695110622,3,2.15,2.11,3.2,1.79,5.04,1.05,0.3,0.36,-9,0,-12,1.09,4118,3,87,36,42,503,313.0,341,462,60,120.0,92,1,268,181,28,0,0,312,-30976,21760,299,,,,,,,,,,,,
34503,1560695110642,-0,2.16,2.11,3.21,1.78,5.08,0.97,0.32,0.37,-9,1,-12,1.02,4139,3,87,36,42,503,312.0,346,465,60,121.0,93,1,270,181,28,0,0,308,130,90,297,,,,,,,,,,,,
34523,1560695110662,-2,2.18,2.11,3.21,1.79,5.07,0.99,0.32,0.39,-9,-1,-11,1.04,4134,3,87,36,42,503,311.0,338,461,60,122.0,93,1,269,181,28,0,0,308,-32256,85,296,,,,,,,,,,,,
34543,1560695110682,0,2.19,2.1,3.21,1.8,5.04,1.01,0.29,0.45,-9,-1,-12,1.05,4116,3,87,36,42,504,308.0,344,463,60,122.0,93,1,268,181,28,0,0,309,120,21760,297,45.700962,4.909759,30.08,196.0,0,0.0,0,0.0,0.07,1,0.07,0.5757
34563,1560695110702,3,2.2,2.11,3.21,1.8,5.05,0.96,0.24,0.45,-9,1,-12,0.99,4090,3,87,36,42,503,309.0,344,462,60,121.0,93,1,268,180,28,0,0,306,32000,23040,297,,,,,,,,,,,,
34583,1560695110722,0,2.23,2.11,3.21,1.85,5.04,0.93,0.21,0.41,-9,2,-11,0.95,4051,3,87,36,42,503,308.0,338,464,60,120.0,93,1,266,179,28,0,0,305,29440,90,296,,,,,,,,,,,,
34603,1560695110742,-2,2.26,2.11,3.21,1.88,5.06,0.95,0.2,0.4,-8,-1,-9,0.97,4041,3,87,36,43,503,305.0,338,459,60,122.0,91,1,271,178,27,0,0,301,29440,85,296,,,,,,,,,,,,
34623,1560695110762,4,2.28,2.1,3.23,1.88,5.05,0.89,0.12,0.43,-7,0,-9,0.9,4040,4,87,36,43,503,301.0,334,460,60,122.0,91,1,271,178,27,0,0,299,26880,24320,296,,,,,,,,,,,,
34643,1560695110782,0,2.3,2.09,3.25,1.89,5.07,0.87,0.09,0.42,-6,1,-8,0.88,4047,5,87,36,43,503,299.0,335,465,60,120.0,91,1,271,182,27,0,0,298,25600,23040,297,45.70097,4.909762,29.46,196.0,0,0.0,0,0.0,0.0717,1,0.07,0.5774
34663,1560695110802,-2,2.34,2.06,3.27,1.89,5.05,0.91,0.06,0.45,-5,-1,-6,0.91,4052,7,87,36,43,503,298.0,333,462,60,122.0,91,1,271,183,27,0,0,293,24320,23040,298,,,,,,,,,,,,
34683,1560695110822,5,2.36,2.04,3.28,1.92,5.04,0.88,0.04,0.47,-4,-1,-6,0.88,4054,11,87,36,44,503,299.0,336,461,60,122.0,91,1,276,186,27,0,0,296,85,25600,300,,,,,,,,,,,,
34703,1560695110842,1,2.38,2.03,3.31,1.94,5.04,0.85,-0.02,0.47,-3,-0,-6,0.85,4014,13,87,36,45,503,300.0,331,462,60,119.0,93,1,280,189,28,0,0,288,21760,26880,300,,,,,,,,,,,,
34723,1560695110862,-0,2.41,2.02,3.32,1.96,5.06,0.87,-0.08,0.49,-1,-1,-4,0.88,4010,15,87,36,47,504,300.0,333,457,60,122.0,93,1,291,197,28,0,0,288,0,25600,300,,,,,,,,,,,,
34743,1560695110882,-1,2.45,2.01,3.33,2.02,5.06,0.91,-0.14,0.51,-0,-2,-1,0.92,4050,17,87,36,49,504,302.0,327,463,60,122.0,93,1,293,206,28,0,0,288,41,26880,301,45.700977,4.909766,28.72,196.0,0,0.0,0,0.0,0.0733,1,0.07,0.579
34763,1560695110902,3,2.47,2.01,3.37,2.02,5.05,0.85,-0.17,0.5,2,-0,-0,0.87,4034,18,87,36,51,504,303.0,332,463,60,120.0,93,1,295,214,28,0,0,286,10686,26880,303,,,,,,,,,,,,
34783,1560695110922,1,2.48,2.01,3.43,2.05,5.06,0.84,-0.22,0.51,4,-1,2,0.87,4056,18,87,36,53,504,303.0,330,463,60,121.0,93,1,297,222,28,0,0,283,-16896,25600,303,,,,,,,,,,,,
34803,1560695110942,-1,2.5,1.99,3.46,2.07,5.04,0.9,-0.28,0.51,5,-4,5,0.94,4138,19,87,36,55,504,304.0,331,467,60,122.0,112,1,297,231,34,0,0,280,1886,28160,304,,,,,,,,,,,,
34823,1560695110962,5,2.51,1.98,3.48,2.09,5.07,0.87,-0.33,0.52,7,-2,6,0.93,4127,19,87,36,56,504,305.0,334,461,60,121.0,112,1,296,236,34,0,0,279,250,29440,305,,,,,,,,,,,,
34843,1560695110982,1,2.54,1.98,3.49,2.12,5.04,0.82,-0.37,0.53,8,0,7,0.9,4179,20,87,36,58,504,307.0,341,460,60,120.0,112,1,294,246,34,0,0,279,-1534,110,307,45.700981,4.909769,28.68,196.0,0,0.0,0,0.0,0.075,1,0.07,0.5807
34863,1560695110996,-1,2.55,1.98,3.49,2.12,5.03,0.79,-0.42,0.51,10,-1,10,0.9,4226,20,87,36,60,503,307.0,339,458,60,120.0,112,1,293,257,34,0,0,277,630,28160,307,,,,,,,,,,,,
34883,1560695111016,-1,2.56,1.97,3.49,2.11,5.08,0.81,-0.44,0.51,12,-2,13,0.92,4219,20,87,36,61,503,308.0,340,465,60,122.0,112,1,292,262,34,0,0,277,30208,115,308,,,,,,,,,,,,
34903,1560695111036,0,2.57,1.96,3.49,2.12,5.08,0.85,-0.49,0.53,13,-4,15,0.98,4292,20,87,36,62,504,308.0,346,466,60,122.0,133,1,292,267,41,0,0,273,-1527,30720,308,,,,,,,,,,,,
34923,1560695111056,0,2.57,1.96,3.5,2.11,5.08,0.86,-0.51,0.55,14,-4,17,1.0,4325,20,87,36,63,504,308.0,347,466,60,121.0,133,1,292,273,41,0,0,271,2414,110,308,,,,,,,,,,,,
34943,1560695111076,25,2.57,1.97,3.5,2.12,5.05,0.85,-0.54,0.57,15,-2,17,1.01,4349,21,87,36,64,503,307.0,352,463,60,122.0,133,1,292,278,41,0,0,278,2414,110,307,45.700993,4.909772,28.6,196.0,0,0.0,0,0.0,0.0767,1,0.07,0.5824
34963,1560695111104,4,2.57,1.97,3.49,2.14,5.04,0.85,-0.56,0.59,16,-1,17,1.01,4204,22,87,36,65,503,309.0,349,455,60,122.0,133,1,294,282,41,0,0,294,630,125,310,,,,,,,,,,,,
34983,1560695111124,-1,2.58,1.99,3.45,2.17,5.04,0.82,-0.52,0.53,17,-1,19,0.97,4045,22,87,36,66,503,312.0,343,460,60,120.0,133,1,294,285,41,0,0,302,630,32000,312,,,,,,,,,,,,
35003,1560695111144,-2,2.58,2.0,3.42,2.2,5.06,0.88,-0.57,0.58,18,-2,22,1.05,3960,23,87,36,67,503,310.0,330,462,60,122.0,137,1,292,287,43,0,0,295,-1534,32000,310,,,,,,,,,,,,
35023,1560695111164,4,2.57,2.01,3.4,2.2,5.05,0.84,-0.56,0.6,18,-2,23,1.01,3966,23,87,36,68,503,311.0,330,457,60,122.0,137,1,294,292,43,0,0,281,250,30720,312,,,,,,,,,,,,
35043,1560695111184,1,2.57,2.0,3.41,2.17,5.05,0.81,-0.53,0.59,19,-1,23,0.97,3936,23,87,36,69,503,312.0,326,461,60,121.0,137,1,290,293,43,0,0,277,250,30720,312,45.701,4.909776,28.44,195.9,0,0.0,0,0.0,0.0783,1,0.08,0.584
35063,1560695111204,-0,2.58,2.0,3.41,2.19,5.07,0.85,-0.56,0.56,20,-3,25,1.02,3984,25,87,36,70,503,314.0,323,465,60,122.0,137,1,296,299,43,0,0,278,-1534,125,314,,,,,,,,,,,,
35083,1560695111224,3,2.57,2.0,3.41,2.2,5.06,0.86,-0.55,0.57,21,-2,27,1.02,4078,28,87,36,71,503,314.0,327,455,60,121.0,137,1,297,304,43,0,0,280,630,120,314,,,,,,,,,,,,
35103,1560695111244,-1,2.58,2.0,3.42,2.19,5.05,0.79,-0.52,0.57,22,-2,28,0.95,4091,29,87,36,73,503,316.0,331,459,60,120.0,149,1,298,309,47,0,0,281,630,32000,316,,,,,,,,,,,,
35123,1560695111264,-2,2.6,1.99,3.44,2.2,5.05,0.83,-0.56,0.61,22,-5,29,1.0,4002,30,87,36,74,503,314.0,328,467,60,122.0,149,1,298,310,47,0,0,282,-1534,-32256,314,,,,,,,,,,,,
35143,1560695111284,4,2.6,1.96,3.45,2.2,5.04,0.84,-0.59,0.64,23,-4,29,1.03,4048,30,87,36,75,503,316.0,330,456,60,122.0,149,1,298,313,47,0,0,284,250,-32256,316,45.701004,4.909781,28.24,195.9,0,0.0,0,0.0,0.08,1,0.08,0.5857
35163,1560695111304,-0,2.6,1.96,3.44,2.22,5.05,0.85,-0.63,0.61,23,-3,30,1.06,4042,31,87,36,76,503,317.0,332,456,60,119.0,149,1,298,317,47,0,0,285,-1534,135,318,,,,,,,,,,,,
35183,1560695111324,-2,2.62,1.95,3.44,2.21,5.04,0.85,-0.64,0.61,24,-4,32,1.06,3965,31,87,36,77,503,318.0,324,467,60,122.0,149,1,293,323,47,0,0,282,250,135,318,,,,,,,,,,,,
35203,1560695111344,3,2.62,1.95,3.44,2.21,5.06,0.85,-0.63,0.6,24,-5,32,1.06,4012,31,87,36,77,503,317.0,325,462,60,122.0,150,1,298,325,48,0,0,278,-1534,-32256,318,,,,,,,,,,,,
35223,1560695111364,-1,2.63,1.95,3.45,2.21,5.07,0.86,-0.65,0.55,25,-5,33,1.08,4051,31,87,36,78,503,318.0,328,456,60,119.0,150,1,298,339,48,0,0,277,30208,-32256,318,,,,,,,,,,,,
35243,1560695111384,-1,2.63,1.96,3.45,2.23,5.04,0.87,-0.69,0.54,25,-5,36,1.11,4048,31,87,36,79,503,319.0,322,471,60,122.0,150,1,298,349,48,0,0,278,630,-32256,319,45.701008,4.909786,28.94,195.9,0,0.0,0,0.0,0.0817,1,0.08,0.5874
35263,1560695111404,0,2.62,1.96,3.52,2.21,5.06,0.84,-0.72,0.6,26,-6,36,1.1,4063,31,87,36,79,503,320.0,327,467,60,121.0,150,1,297,350,48,0,0,284,630,-29696,320,,,,,,,,,,,,
35283,1560695111424,2,2.62,1.96,3.56,2.23,5.06,0.82,-0.7,0.56,27,-4,35,1.08,4056,31,87,36,79,503,319.0,332,455,60,120.0,150,1,298,350,48,0,0,283,250,145,319,,,,,,,,,,,,
35303,1560695111444,-1,2.63,1.95,3.56,2.23,5.08,0.79,-0.69,0.55,27,-4,35,1.05,4119,31,87,36,80,503,322.0,329,456,60,120.0,171,1,296,365,55,0,0,286,-1534,135,322,,,,,,,,,,,,
35323,1560695111464,0,2.62,1.95,3.53,2.22,5.07,0.78,-0.69,0.59,28,-4,36,1.04,4130,31,87,36,80,503,321.0,335,467,60,122.0,171,1,296,365,55,0,0,284,250,140,321,,,,,,,,,,,,
35343,1560695111484,6,2.61,1.95,3.51,2.23,5.04,0.75,-0.7,0.64,28,-4,36,1.02,4105,31,87,36,80,503,320.0,333,468,60,122.0,171,1,296,364,55,0,0,284,250,-27136,320,45.701016,4.909792,29.11,195.9,0,0.0,0,0.0,0.0833,1,0.08,0.589
35363,1560695111504,3,2.61,1.96,3.5,2.22,5.04,0.81,-0.72,0.63,28,-4,36,1.08,4125,32,87,36,80,503,320.0,334,448,60,119.0,171,1,296,365,55,0,0,286,1886,145,320,,,,,,,,,,,,
35383,1560695111524,-0,2.59,1.96,3.5,2.21,5.04,0.79,-0.72,0.6,28,-4,36,1.07,4140,32,87,36,81,503,320.0,335,461,60,121.0,171,1,295,377,55,0,0,288,1886,-29696,320,,,,,,,,,,,,
35403,1560695111544,-0,2.58,1.96,3.5,2.2,5.05,0.79,-0.73,0.59,28,-5,38,1.08,4051,32,87,36,81,503,321.0,331,467,60,122.0,175,1,297,373,56,0,0,291,250,-28416,321,,,,,,,,,,,,
35423,1560695111564,3,2.56,1.97,3.5,2.2,5.06,0.77,-0.69,0.59,28,-4,37,1.03,4121,32,87,36,81,503,321.0,330,465,60,122.0,175,1,296,365,56,0,0,288,-16896,-27136,321,,,,,,,,,,,,
35443,1560695111584,1,2.54,1.98,3.48,2.2,5.04,0.75,-0.67,0.59,28,-3,36,1.0,4190,32,87,36,81,503,321.0,338,457,60,119.0,175,1,295,380,56,0,0,289,10686,150,321,45.701023,4.909799,28.89,195.8,0,0.0,0,0.0,0.085,1,0.08,0.5907
35463,1560695111603,-1,2.51,2.0,3.48,2.2,5.06,0.73,-0.6,0.57,28,-2,36,0.95,4154,33,87,36,81,503,321.0,340,453,60,120.0,175,1,295,378,56,0,0,294,0,-27136,321,,,,,,,,,,,,
35483,1560695111623,-2,2.49,2.01,3.44,2.2,5.06,0.71,-0.54,0.55,27,-2,36,0.89,4179,33,87,36,82,503,320.0,336,466,60,122.0,175,1,295,379,56,0,0,295,20480,150,320,,,,,,,,,,,,
35503,1560695111643,-0,2.46,2.03,3.39,2.18,5.05,0.73,-0.52,0.6,26,-2,36,0.9,4189,33,87,36,82,503,321.0,340,472,60,122.0,186,1,295,380,60,0,0,296,80,150,320,,,,,,,,,,,,
35523,1560695111663,3,2.44,2.05,3.36,2.19,5.04,0.74,-0.49,0.63,26,-2,34,0.89,4139,33,87,36,82,503,319.0,340,452,60,120.0,186,1,295,389,60,0,0,300,85,-25856,319,,,,,,,,,,,,
35543,1560695111683,2,2.42,2.09,3.36,2.17,5.05,0.75,-0.43,0.61,24,-2,33,0.87,4193,34,87,36,82,503,319.0,337,447,60,119.0,186,1,295,392,60,0,0,297,90,150,318,45.701023,4.909807,29.13,195.8,0,0.0,0,0.0,0.0867,1,0.08,0.5924
35563,1560695111703,-1,2.4,2.1,3.34,2.17,5.08,0.72,-0.39,0.59,23,-2,33,0.82,4220,34,87,36,83,503,316.0,339,462,60,120.0,186,1,293,406,60,0,0,301,95,145,316,,,,,,,,,,,,
35583,1560695111723,-1,2.38,2.1,3.33,2.16,5.07,0.74,-0.35,0.61,22,-3,31,0.82,4222,35,86,36,83,503,317.0,345,471,60,121.0,186,1,293,406,60,0,0,306,25600,-28416,317,,,,,,,,,,,,
35603,1560695111743,-1,2.37,2.11,3.33,2.14,5.08,0.68,-0.3,0.61,21,-3,29,0.75,4273,35,86,36,83,503,317.0,343,461,60,122.0,201,1,292,409,64,0,0,308,28160,-29696,317,,,,,,,,,,,,
35623,1560695111763,-1,2.37,2.12,3.31,2.13,5.05,0.7,-0.3,0.63,20,-2,27,0.76,4335,35,86,36,83,503,317.0,347,457,60,121.0,201,1,291,413,64,0,0,308,29440,-28416,317,,,,,,,,,,,,
35643,1560695111783,4,2.36,2.12,3.29,2.14,5.08,0.68,-0.25,0.64,19,-1,26,0.73,4241,36,86,36,83,503,318.0,349,452,60,121.0,201,1,293,407,64,0,0,312,115,150,318,45.701031,4.909815,29.6,195.7,0,0.0,0,0.0,0.0883,1,0.08,0.594
35663,1560695111803,2,2.35,2.14,3.29,2.14,5.06,0.69,-0.22,0.64,17,-1,24,0.72,4314,36,86,36,83,503,319.0,346,446,60,119.0,201,1,292,415,64,0,0,314,30720,-27136,319,,,,,,,,,,,,
35683,1560695111823,1,2.35,2.14,3.26,2.13,5.08,0.69,-0.19,0.65,16,0,22,0.71,4383,36,86,36,84,503,319.0,353,463,60,119.0,201,1,291,420,64,0,0,317,125,145,318,,,,,,,,,,,,
35703,1560695111843,0,2.34,2.14,3.25,2.13,5.04,0.67,-0.2,0.66,15,0,21,0.7,4342,36,86,36,84,503,320.0,350,452,60,120.0,216,1,291,417,69,0,0,321,-30976,150,320,,,,,,,,,,,,
35723,1560695111863,-0,2.33,2.15,3.26,2.12,5.05,0.67,-0.19,0.63,15,-0,19,0.7,4371,37,86,36,84,503,321.0,356,462,60,120.0,216,1,291,419,69,0,0,321,135,-25856,320,,,,,,,,,,,,
35743,1560695111883,-2,2.34,2.15,3.25,2.14,5.07,0.63,-0.21,0.59,14,-1,18,0.66,4404,37,86,36,83,503,322.0,353,467,60,122.0,216,1,290,417,69,0,0,325,140,160,322,45.701035,4.909824,29.99,195.7,0,0.0,0,0.0,0.09,1,0.08,0.5957
35763,1560695111903,0,2.33,2.16,3.25,2.16,5.05,0.59,-0.15,0.56,13,1,18,0.61,4444,37,86,36,84,503,323.0,355,470,60,121.0,216,1,290,423,69,0,0,324,140,155,323,,,,,,,,,,,,
35783,1560695111923,1,2.34,2.16,3.25,2.15,5.07,0.56,-0.13,0.64,12,0,18,0.58,4477,37,86,36,84,503,324.0,363,476,60,122.0,216,1,289,424,69,0,0,328,-28416,165,324,,,,,,,,,,,,
35803,1560695111943,-0,2.32,2.17,3.24,2.16,5.05,0.65,-0.14,0.66,11,-1,16,0.67,4170,37,86,36,83,504,326.0,355,464,60,122.0,215,1,294,403,70,0,0,325,150,-23296,326,,,,,,,,,,,,
35823,1560695111963,-0,2.32,2.17,3.24,2.15,5.05,0.62,-0.15,0.62,11,-1,14,0.64,3928,38,86,36,83,504,327.0,344,468,60,121.0,215,1,287,384,70,0,0,320,150,170,327,,,,,,,,,,,,
35843,1560695111983,-1,2.32,2.16,3.27,2.12,5.04,0.68,-0.14,0.59,10,-1,15,0.7,3837,38,86,36,83,505,327.0,327,457,60,122.0,215,1,277,374,70,0,0,320,-27136,-22016,327,45.701038,4.909833,30.49,195.7,0,0.0,0,0.0,0.0917,1,0.08,0.5974
35863,1560695111998,1,2.32,2.14,3.29,2.09,5.08,0.69,-0.16,0.59,9,-1,14,0.71,3701,38,86,36,83,506,328.0,322,465,60,122.0,215,1,262,358,70,0,0,319,150,160,328,,,,,,,,,,,,
35883,1560695112018,0,2.32,2.13,3.29,2.08,5.04,0.72,-0.15,0.61,9,-3,13,0.74,3607,38,86,36,84,507,326.0,309,462,60,120.0,215,1,251,348,70,0,0,320,-25856,-23296,326,,,,,,,,,,,,
35903,1560695112038,-0,2.32,2.13,3.29,2.06,5.08,0.8,-0.25,0.6,8,-2,12,0.84,3508,38,86,36,85,507,326.0,306,461,60,119.0,138,1,240,563,45,0,0,319,150,155,326,,,,,,,,,,,,
35923,1560695112058,3,2.31,2.11,3.3,2.04,5.04,0.81,-0.15,0.54,8,1,9,0.83,3475,38,86,36,86,506,319.0,294,461,60,121.0,138,1,239,508,45,0,0,290,140,20480,319,,,,,,,,,,,,
35943,1560695112078,-0,2.3,2.09,3.36,2.03,5.06,0.87,-0.12,0.56,8,-3,7,0.88,3681,39,86,36,86,506,316.0,297,466,60,122.0,138,1,260,500,45,0,0,303,-32256,29440,316,45.701042,4.909842,31.4,195.7,0,0.0,0,0.0,0.0933,1,0.08,0.599
35963,1560695112103,1,2.31,2.07,3.4,2.01,5.07,0.86,-0.13,0.54,7,-0,5,0.87,3854,40,86,36,86,505,316.0,305,465,60,122.0,138,1,279,470,45,0,0,288,32000,630,313,,,,,,,,,,,,
35983,1560695112123,2,2.3,2.06,3.41,1.97,5.07,0.95,-0.06,0.49,6,-3,5,0.95,4359,40,86,36,85,504,312.0,318,454,60,119.0,138,1,291,449,45,0,0,297,120,26880,312,,,,,,,,,,,,
36003,1560695112143,3,2.29,2.06,3.43,1.95,5.06,0.89,-0.1,0.49,6,-4,5,0.9,4651,41,86,36,85,503,310.0,342,449,60,120.0,230,1,287,443,72,0,0,282,115,630,310,,,,,,,,,,,,
36023,1560695112163,1,2.29,2.06,3.41,1.95,5.04,0.94,-0.07,0.39,6,0,4,0.95,4996,41,86,36,86,503,307.0,373,460,60,122.0,230,1,282,463,72,0,0,293,105,90,307,,,,,,,,,,,,
36043,1560695112183,1,2.3,2.05,3.39,1.94,5.04,0.94,-0.07,0.46,4,-3,3,0.94,5363,41,86,35,85,503,301.0,408,471,60,121.0,230,1,300,466,72,0,0,289,95,85,301,45.701046,4.909852,31.24,195.7,0,0.0,0,0.0,0.095,1,0.08,0.6007
36063,1560695112203,3,2.29,2.04,3.38,1.94,5.07,0.8,-0.01,0.42,5,-1,2,0.8,5758,41,86,35,82,503,300.0,445,464,60,121.0,230,1,328,459,72,0,0,293,24320,85,300,,,,,,,,,,,,
36083,1560695112223,3,2.29,2.04,3.34,1.94,5.04,0.88,0.01,0.44,6,-3,3,0.88,6179,42,86,35,80,503,299.0,479,457,60,122.0,230,1,351,457,72,0,0,295,23040,90,299,,,,,,,,,,,,
36103,1560695112243,-1,2.3,2.05,3.29,1.94,5.07,0.79,0.13,0.48,6,-2,4,0.8,6653,42,86,35,77,502,298.0,514,461,60,119.0,357,1,369,451,107,0,0,296,90,26880,298,,,,,,,,,,,,
36123,1560695112263,2,2.3,2.07,3.27,1.95,5.04,0.85,0.07,0.51,6,-0,3,0.86,6975,42,86,35,76,502,298.0,545,462,60,120.0,357,1,380,441,107,0,0,293,85,24320,298,,,,,,,,,,,,
36143,1560695112283,4,2.3,2.09,3.29,1.97,5.04,0.6,0.12,0.48,6,6,2,0.61,7284,42,86,35,74,501,297.0,573,465,60,121.0,357,1,400,402,107,0,0,299,85,26880,298,45.70105,4.909861,30.17,195.7,0,0.0,0,0.0,0.0967,1,0.08,0.6024
36163,1560695112303,1,2.29,2.17,3.25,2.04,5.04,0.55,0.14,0.51,6,7,1,0.57,7038,42,86,35,72,501,303.0,585,460,60,121.0,357,1,389,383,107,0,0,349,25600,-122,303,,,,,,,,,,,,
36183,1560695112323,6,2.29,2.29,3.09,2.12,5.04,0.61,0.03,0.64,4,6,2,0.61,6613,42,86,35,73,501,311.0,558,466,60,120.0,357,1,372,377,107,0,0,372,125,742,311,,,,,,,,,,,,
36203,1560695112343,4,2.3,2.42,2.94,2.27,5.04,0.52,0.09,0.68,5,9,2,0.53,6252,42,86,35,73,500,321.0,530,466,60,119.0,305,1,360,403,96,0,0,358,-29696,8841,321,,,,,,,,,,,,
36223,1560695112363,4,2.31,2.51,2.89,2.34,5.05,0.4,0.16,0.73,5,9,3,0.43,6023,42,86,35,74,500,322.0,511,460,60,120.0,305,1,351,400,96,0,0,333,155,13,322,,,,,,,,,,,,
36243,1560695112383,5,2.3,2.54,2.91,2.36,5.04,0.31,0.19,0.68,6,9,1,0.37,5903,42,86,35,75,500,328.0,496,460,60,119.0,305,1,343,409,96,0,0,331,-24576,13,328,45.701054,4.909871,28.84,195.6,0,0.0,0,0.0,0.0983,1,0.09,0.604
36263,1560695112403,3,2.3,2.52,2.98,2.34,5.04,0.32,0.2,0.62,5,11,1,0.38,5896,42,86,35,75,500,329.0,489,462,60,119.0,305,1,345,409,96,0,0,335,170,3346,329,,,,,,,,,,,,
36283,1560695112423,5,2.3,2.5,3.11,2.33,5.07,0.26,0.24,0.59,6,11,2,0.35,6036,42,86,35,75,500,331.0,493,465,60,120.0,305,1,353,416,96,0,0,336,175,-31222,331,,,,,,,,,,,,
36303,1560695112443,1,2.31,2.47,3.22,2.33,5.04,0.19,0.35,0.53,7,12,3,0.4,6313,42,86,35,75,500,333.0,505,466,60,120.0,290,1,360,1029,96,0,0,336,175,-122,333,,,,,,,,,,,,
36323,1560695112463,-1,2.31,2.44,3.26,2.3,5.05,0.17,0.33,0.51,7,12,3,0.37,6476,42,86,35,75,500,335.0,523,456,60,122.0,290,1,365,1027,96,0,0,341,-12032,-14714,335,,,,,,,,,,,,
36343,1560695112483,3,2.32,2.43,3.27,2.29,5.07,0.22,0.25,0.56,7,9,3,0.33,6469,42,86,35,75,500,338.0,537,458,60,120.0,290,1,365,1021,96,0,0,344,3346,-30438,340,45.701061,4.90988,29.51,195.6,0,0.0,0,0.0,0.1,1,0.09,0.6057
36363,1560695112503,2,2.32,2.42,3.24,2.27,5.08,0.31,0.28,0.6,6,9,3,0.42,6565,42,86,35,75,500,341.0,540,462,60,119.0,290,1,368,1013,96,0,0,347,-122,8841,341,,,,,,,,,,,,
36383,1560695112523,1,2.32,2.42,3.21,2.28,5.04,0.28,0.23,0.56,7,9,2,0.36,6298,42,86,35,74,500,346.0,544,461,60,121.0,290,1,360,955,96,0,0,347,3327,-30454,346,,,,,,,,,,,,
36403,1560695112543,-1,2.33,2.4,3.2,2.28,5.06,0.38,0.14,0.54,7,8,2,0.41,6077,42,86,35,74,500,346.0,524,460,60,121.0,653,1,353,940,226,0,0,344,6668,28553,347,,,,,,,,,,,,
36423,1560695112563,0,2.33,2.36,3.18,2.25,5.06,0.55,0.07,0.55,6,5,3,0.55,6113,42,86,35,75,500,347.0,516,460,60,121.0,653,1,353,979,226,0,0,340,6668,-30438,347,,,,,,,,,,,,
36443,1560695112583,1,2.32,2.32,3.19,2.22,5.07,0.68,-0.01,0.58,5,1,3,0.68,6027,43,86,35,75,500,345.0,512,457,60,121.0,653,1,350,970,226,0,0,341,3327,-10554,345,45.701061,4.909889,32.11,195.6,0,0.0,0,0.0,0.1017,1,0.09,0.6074
36463,1560695112602,1,2.33,2.29,3.24,2.21,5.05,0.74,-0.08,0.62,4,-2,3,0.74,6058,43,86,35,75,500,345.0,506,457,60,121.0,653,1,351,963,226,0,0,339,-122,-30438,345,,,,,,,,,,,,
36483,1560695112622,1,2.33,2.27,3.3,2.2,5.06,0.84,-0.12,0.67,4,-5,2,0.85,5980,44,86,35,76,500,346.0,509,458,60,121.0,653,1,346,993,226,0,0,341,-122,-10554,346,,,,,,,,,,,,
36503,1560695112642,3,2.32,2.26,3.3,2.19,5.06,0.92,-0.16,0.68,4,-8,2,0.93,6017,46,86,35,77,500,345.0,503,459,60,121.0,655,1,348,1004,226,0,0,339,-122,-10554,345,,,,,,,,,,,,
36523,1560695112662,3,2.33,2.26,3.29,2.18,5.06,1.02,-0.21,0.72,4,-10,2,1.04,5971,49,86,35,78,500,346.0,500,461,60,121.0,655,1,345,1007,226,0,0,338,-122,6870,345,,,,,,,,,,,,
36543,1560695112682,1,2.34,2.25,3.28,2.18,5.06,1.07,-0.22,0.72,4,-11,3,1.1,5954,52,86,35,79,501,346.0,497,457,60,121.0,655,1,343,1013,226,0,0,339,-122,-10554,346,45.701065,4.9099,33.21,195.6,0,0.0,0,0.0,0.1033,1,0.09,0.609
36563,1560695112702,2,2.33,2.24,3.29,2.17,5.08,1.17,-0.29,0.76,4,-13,4,1.2,5946,55,86,35,82,501,346.0,495,454,60,121.0,655,1,340,1048,226,0,0,336,-31222,-31206,346,,,,,,,,,,,,
36583,1560695112722,1,2.34,2.21,3.29,2.16,5.07,1.25,-0.29,0.75,3,-15,4,1.29,5959,57,86,35,83,500,346.0,496,462,60,121.0,655,1,340,1061,226,0,0,336,-122,6668,344,,,,,,,,,,,,
36603,1560695112742,1,2.33,2.2,3.28,2.16,5.04,1.33,-0.36,0.75,1,-17,3,1.38,6060,60,86,35,85,500,343.0,498,456,60,121.0,697,1,338,1063,240,0,0,332,13,-31222,343,,,,,,,,,,,,
36623,1560695112762,4,2.34,2.17,3.29,2.12,5.04,1.4,-0.42,0.82,0,-19,3,1.46,6198,63,86,35,86,500,340.0,507,460,60,121.0,697,1,340,1077,240,0,0,330,-6528,-32559,340,,,,,,,,,,,,
36643,1560695112782,4,2.33,2.15,3.31,2.1,5.04,1.45,-0.42,0.85,0,-20,2,1.51,6247,65,86,35,87,500,338.0,514,456,60,120.0,697,1,339,1082,240,0,0,325,-32559,-20736,338,45.701069,4.90991,33.36,195.6,0,0.0,0,0.0,0.105,1,0.09,0.6107
36663,1560695112803,3,2.33,2.15,3.32,2.08,5.04,1.36,-0.32,0.78,1,-18,3,1.39,6560,67,86,35,88,500,337.0,525,456,60,119.0,697,1,352,1110,240,0,0,330,-12032,-6528,337,,,,,,,,,,,,
36683,1560695112823,2,2.34,2.15,3.32,2.09,5.04,1.23,-0.33,0.71,2,-15,4,1.27,6718,67,86,34,88,500,337.0,542,457,60,120.0,697,1,360,1135,240,0,0,329,175,2560,337,,,,,,,,,,,,
36703,1560695112843,6,2.34,2.16,3.3,2.1,5.07,1.19,-0.24,0.68,2,-13,4,1.22,6599,67,86,34,88,500,338.0,553,461,60,120.0,845,1,353,1102,285,0,0,330,170,3346,338,,,,,,,,,,,,
36723,1560695112863,-0,2.33,2.17,3.27,2.1,5.06,1.17,-0.17,0.61,3,-12,4,1.18,6430,67,86,34,88,500,338.0,548,456,60,119.0,845,1,346,1078,285,0,0,331,170,13,338,,,,,,,,,,,,
36743,1560695112883,3,2.34,2.16,3.27,2.09,5.08,1.18,-0.28,0.65,3,-12,4,1.21,6330,67,86,34,89,500,336.0,536,457,60,120.0,845,1,338,1062,285,0,0,329,-22016,3346,336,45.701073,4.909921,33.0,195.5,0,0.0,0,0.0,0.1067,1,0.09,0.6124
36763,1560695112902,4,2.34,2.16,3.27,2.08,5.07,1.15,-0.31,0.65,3,-12,4,1.19,6496,68,86,34,89,500,336.0,530,460,60,120.0,845,1,347,1075,285,0,0,327,-20736,-31222,336,,,,,,,,,,,,
36783,1560695112922,-1,2.34,2.15,3.26,2.09,5.04,1.03,-0.18,0.58,3,-8,5,1.05,6503,68,86,34,89,500,335.0,535,465,60,119.0,845,1,347,1069,285,0,0,329,170,4838,336,,,,,,,,,,,,
36803,1560695112942,2,2.33,2.15,3.27,2.07,5.05,1.08,-0.24,0.58,3,-10,5,1.1,6416,68,86,34,89,500,335.0,536,453,60,121.0,773,1,342,1053,260,0,0,329,-22016,4838,335,,,,,,,,,,,,
36823,1560695112962,4,2.33,2.15,3.27,2.08,5.04,1.17,-0.34,0.67,3,-12,5,1.22,6311,68,86,34,89,500,336.0,530,456,60,120.0,773,1,337,1035,260,0,0,328,170,-31222,336,,,,,,,,,,,,
36843,1560695112982,5,2.34,2.14,3.27,2.08,5.07,1.12,-0.29,0.69,3,-13,6,1.16,6239,68,86,34,89,500,334.0,522,456,60,120.0,773,1,333,1016,260,0,0,328,-22016,3346,334,45.70108,4.909931,32.61,195.5,0,0.0,0,0.0,0.1083,1,0.09,0.614
36863,1560695112996,5,2.33,2.15,3.27,2.08,5.07,1.0,-0.17,0.69,5,-9,6,1.01,6364,68,86,34,90,500,334.0,520,459,60,119.0,773,1,337,1014,260,0,0,326,-22016,-32559,334,,,,,,,,,,,,
36883,1560695113016,2,2.33,2.16,3.28,2.11,5.06,0.86,-0.09,0.59,6,-5,6,0.87,6390,68,86,34,90,500,335.0,523,463,60,120.0,773,1,338,1021,260,0,0,327,165,-6528,334,,,,,,,,,,,,
36903,1560695113036,2,2.34,2.16,3.28,2.1,5.04,0.87,-0.12,0.56,6,-5,7,0.88,6285,68,86,34,89,500,334.0,523,463,60,121.0,739,1,335,995,247,0,0,328,-22016,-12032,334,,,,,,,,,,,,
36923,1560695113056,4,2.33,2.16,3.28,2.09,5.04,0.9,-0.21,0.59,5,-5,6,0.92,6258,68,86,34,89,500,335.0,521,458,60,121.0,739,1,334,985,247,0,0,329,-22016,3346,335,,,,,,,,,,,,
36943,1560695113076,6,2.33,2.15,3.28,2.09,5.04,0.98,-0.21,0.69,5,-8,6,1.0,6231,68,86,34,90,500,335.0,516,455,60,120.0,739,1,329,983,247,0,0,327,-22016,4838,335,45.70108,4.909941,32.18,195.5,0,0.0,0,0.0,0.11,1,0.09,0.6157
36963,1560695113100,6,2.33,2.15,3.27,2.09,5.05,0.94,-0.14,0.68,5,-7,6,0.95,6264,68,86,34,90,500,335.0,518,457,60,119.0,739,1,331,976,247,0,0,329,165,13,335,,,,,,,,,,,,
36983,1560695113120,-0,2.34,2.15,3.26,2.1,5.06,0.88,-0.05,0.62,5,-7,5,0.89,6194,67,86,34,90,500,336.0,517,457,60,120.0,739,1,327,961,247,0,0,332,170,-6528,334,,,,,,,,,,,,
37003,1560695113140,1,2.32,2.15,3.25,2.09,5.04,0.89,-0.07,0.59,5,-6,5,0.89,6169,62,86,34,89,500,334.0,512,458,60,121.0,667,1,330,943,223,0,0,330,-20736,4838,334,,,,,,,,,,,,
37023,1560695113160,-1,2.33,2.15,3.24,2.08,5.07,0.89,-0.14,0.57,5,-5,4,0.9,6036,59,86,34,88,500,334.0,512,460,60,121.0,667,1,326,920,223,0,0,330,-22016,4838,334,,,,,,,,,,,,
37043,1560695113180,1,2.33,2.15,3.24,2.09,5.06,0.88,-0.2,0.53,4,-4,4,0.9,5952,59,86,34,87,500,334.0,506,457,60,119.0,667,1,326,902,223,0,0,327,165,4838,334,45.701084,4.909952,32.28,195.5,0,0.0,0,0.0,0.1117,1,0.09,0.6174
37063,1560695113202,0,2.32,2.16,3.26,2.09,5.04,0.91,-0.24,0.51,3,-3,4,0.94,5939,59,86,34,86,500,334.0,500,458,60,121.0,667,1,329,888,223,0,0,327,165,-6528,334,,,,,,,,,,,,
37083,1560695113222,-1,2.33,2.15,3.28,2.08,5.07,0.95,-0.26,0.51,2,-2,4,0.99,5833,59,86,34,86,500,334.0,494,461,60,119.0,667,1,323,876,223,0,0,327,-22016,175,334,,,,,,,,,,,,
37103,1560695113242,5,2.33,2.15,3.28,2.09,5.08,1.0,-0.31,0.5,0,-1,3,1.05,5707,59,86,34,86,500,335.0,480,462,60,119.0,570,1,316,864,191,0,0,325,165,-31222,335,,,,,,,,,,,,
37123,1560695113262,2,2.32,2.15,3.28,2.08,5.08,0.95,-0.32,0.51,1,-0,3,1.0,5622,59,86,34,86,500,333.0,475,462,60,120.0,570,1,312,854,191,0,0,326,165,-12032,334,,,,,,,,,,,,
37143,1560695113282,2,2.32,2.15,3.29,2.08,5.07,0.88,-0.29,0.51,4,-1,4,0.93,5532,59,86,34,86,500,333.0,472,453,60,121.0,570,1,307,844,191,0,0,327,165,170,333,45.701088,4.909962,32.02,195.5,0,0.0,0,0.0,0.1133,1,0.09,0.6191
37163,1560695113302,6,2.32,2.15,3.28,2.08,5.07,1.0,-0.22,0.48,4,-2,4,1.02,5461,59,86,34,86,500,333.0,466,467,60,119.0,570,1,304,834,191,0,0,326,165,-32559,332,,,,,,,,,,,,
37183,1560695113322,1,2.32,2.13,3.27,2.06,5.07,0.97,-0.25,0.45,3,-2,4,1.0,5477,59,86,34,87,500,331.0,458,467,60,120.0,570,1,303,836,191,0,0,317,-23296,160,331,,,,,,,,,,,,
37203,1560695113342,1,2.32,2.12,3.29,2.03,5.07,0.93,-0.22,0.43,5,-3,4,0.95,5625,59,86,34,86,500,327.0,463,453,60,122.0,524,1,312,832,173,0,0,306,-27136,-30976,327,,,,,,,,,,,,
37223,1560695113362,1,2.33,2.09,3.32,2.01,5.05,0.99,-0.2,0.45,5,-6,4,1.01,5872,58,86,34,86,500,324.0,478,456,60,121.0,524,1,326,825,173,0,0,308,-28416,125,324,,,,,,,,,,,,
37243,1560695113382,-1,2.33,2.09,3.35,1.99,5.06,1.1,-0.23,0.45,3,-8,5,1.12,5978,58,86,34,86,500,322.0,490,452,60,121.0,524,1,331,819,173,0,0,310,140,32000,322,45.701092,4.909973,32.13,195.5,0,0.0,0,0.0,0.115,1,0.09,0.6207
37263,1560695113400,1,2.33,2.09,3.36,1.99,5.08,1.19,-0.32,0.48,1,-8,6,1.23,5992,58,86,34,85,500,321.0,496,460,60,121.0,524,1,335,806,173,0,0,313,140,-29696,321,,,,,,,,,,,,
37283,1560695113420,-0,2.32,2.1,3.36,2.0,5.05,1.27,-0.39,0.52,-1,-8,6,1.33,5963,58,86,34,84,500,320.0,497,453,60,119.0,524,1,337,476,173,0,0,312,135,-30976,320,,,,,,,,,,,,
37303,1560695113440,-0,2.33,2.1,3.34,2.03,5.04,1.35,-0.47,0.55,-1,-8,6,1.43,6025,57,86,34,84,500,317.0,499,461,60,119.0,334,1,340,478,107,0,0,311,130,145,317,,,,,,,,,,,,
37323,1560695113460,0,2.32,2.11,3.31,2.01,5.06,1.4,-0.61,0.59,-2,-8,7,1.52,6151,57,86,34,85,500,318.0,504,452,60,120.0,334,1,342,484,107,0,0,313,130,-28416,318,,,,,,,,,,,,
37343,1560695113480,0,2.31,2.1,3.28,2.01,5.07,1.46,-0.66,0.66,-2,-9,8,1.6,6262,57,86,34,85,500,318.0,510,456,60,122.0,334,1,346,487,107,0,0,312,130,140,318,45.701096,4.909983,31.82,195.4,0,0.0,0,0.0,0.1167,1,0.1,0.6224
37363,1560695113502,3,2.31,2.09,3.27,2.0,5.08,1.42,-0.61,0.72,-2,-11,9,1.55,6386,57,86,34,86,500,317.0,518,453,60,120.0,334,1,349,490,107,0,0,313,130,-28416,317,,,,,,,,,,,,
37383,1560695113522,4,2.3,2.1,3.25,2.0,5.04,1.26,-0.46,0.65,-1,-10,9,1.34,6410,57,86,34,85,500,316.0,525,458,60,119.0,334,1,352,491,107,0,0,310,-32256,-29696,316,,,,,,,,,,,,
37403,1560695113542,0,2.3,2.1,3.26,2.0,5.04,1.23,-0.43,0.6,-1,-6,9,1.3,6542,57,86,34,85,500,316.0,537,463,60,120.0,382,1,357,493,121,0,0,312,125,130,316,,,,,,,,,,,,
37423,1560695113562,3,2.3,2.1,3.27,2.0,5.08,1.28,-0.35,0.67,-1,-5,9,1.32,6590,57,86,34,84,500,315.0,541,462,60,121.0,382,1,361,490,121,0,0,310,125,140,315,,,,,,,,,,,,
37443,1560695113582,-1,2.31,2.12,3.25,2.01,5.07,1.17,-0.29,0.67,-0,-5,8,1.21,6574,57,86,34,84,500,315.0,546,457,60,120.0,382,1,361,490,121,0,0,318,125,-24576,315,45.701099,4.909994,30.52,195.4,0,0.0,0,0.0,0.1183,1,0.1,0.624
37463,1560695113603,1,2.29,2.16,3.24,2.03,5.04,1.09,-0.36,0.78,0,-3,7,1.15,6443,57,86,34,84,500,318.0,535,462,60,121.0,382,1,356,487,121,0,0,325,140,175,320,,,,,,,,,,,,
37483,1560695113623,3,2.3,2.22,3.21,2.09,5.05,1.06,-0.37,0.87,0,-4,5,1.12,6208,56,86,34,85,500,324.0,521,462,60,121.0,382,1,344,482,121,0,0,332,-27136,-20736,324,,,,,,,,,,,,
37503,1560695113643,1,2.31,2.28,3.15,2.14,5.07,1.03,-0.32,0.93,-0,-6,5,1.08,5958,54,86,34,85,501,327.0,501,462,60,121.0,342,1,333,476,111,0,0,332,160,-12032,326,,,,,,,,,,,,
37523,1560695113663,1,2.3,2.32,3.1,2.15,5.05,0.98,-0.27,0.98,-1,-5,5,1.01,5909,53,86,34,85,501,328.0,494,460,60,121.0,342,1,331,476,111,0,0,332,160,175,328,,,,,,,,,,,,
37543,1560695113683,0,2.3,2.3,3.09,2.15,5.07,0.93,-0.2,1.03,-0,-7,4,0.95,5990,53,86,34,84,502,328.0,493,461,60,122.0,342,1,339,476,111,0,0,330,-23296,175,328,45.701103,4.910004,30.25,195.4,0,0.0,0,0.0,0.12,1,0.1,0.6257
37563,1560695113701,1,2.3,2.3,3.13,2.13,5.04,0.97,-0.16,1.03,-1,-8,2,0.98,6038,53,86,34,84,502,329.0,495,463,60,122.0,342,1,341,478,111,0,0,329,-23296,170,329,,,,,,,,,,,,
37583,1560695113721,1,2.31,2.28,3.22,2.11,5.07,1.0,-0.19,1.05,-1,-8,1,1.02,6198,53,86,34,83,503,329.0,500,462,60,121.0,342,1,349,478,111,0,0,332,165,170,329,,,,,,,,,,,,
37603,1560695113741,4,2.3,2.28,3.28,2.11,5.04,0.97,-0.1,1.04,-2,-8,1,0.98,6319,53,86,34,84,503,330.0,514,461,60,120.0,340,1,352,481,112,0,0,329,165,-6528,330,,,,,,,,,,,,
37623,1560695113761,-0,2.31,2.28,3.28,2.13,5.08,0.91,-0.08,0.94,-1,-6,1,0.92,6416,53,86,34,83,502,333.0,523,458,60,120.0,340,1,357,483,112,0,0,336,-20736,13,333,,,,,,,,,,,,
37643,1560695113781,1,2.31,2.29,3.26,2.13,5.04,0.87,-0.17,0.94,-0,-5,2,0.88,6521,53,86,33,83,502,334.0,532,453,60,122.0,340,1,361,485,112,0,0,340,-12032,-122,335,45.701103,4.910015,30.67,195.4,0,0.0,0,0.0,0.1217,1,0.1,0.6274
37663,1560695113803,4,2.32,2.3,3.21,2.15,5.08,0.87,-0.19,0.99,-1,-5,2,0.89,6526,53,86,33,83,501,338.0,536,463,60,120.0,340,1,361,478,112,0,0,341,-6528,-10554,338,,,,,,,,,,,,
37683,1560695113823,0,2.33,2.3,3.19,2.16,5.08,0.79,-0.1,0.95,-0,-3,3,0.79,6430,53,86,33,82,501,339.0,532,461,60,120.0,340,1,359,476,112,0,0,347,13,-14714,339,,,,,,,,,,,,
37703,1560695113843,1,2.33,2.3,3.17,2.16,5.04,0.8,-0.14,0.93,1,-3,3,0.82,6425,53,86,33,82,500,341.0,530,457,60,121.0,339,1,358,476,115,0,0,345,2560,6870,341,,,,,,,,,,,,
37723,1560695113863,3,2.33,2.3,3.17,2.13,5.06,0.8,-0.16,0.99,1,-5,3,0.82,6458,53,86,33,82,500,344.0,528,456,60,121.0,339,1,360,477,115,0,0,347,3327,2811,344,,,,,,,,,,,,
37743,1560695113883,5,2.33,2.28,3.17,2.14,5.04,0.78,-0.07,0.92,1,-3,2,0.79,6517,53,86,33,82,500,346.0,535,460,60,119.0,339,1,362,478,115,0,0,349,-31206,-30454,346,45.701103,4.910025,31.67,195.4,0,0.0,0,0.0,0.1233,1,0.1,0.629
37763,1560695113903,-2,2.35,2.28,3.18,2.14,5.07,0.74,-0.12,0.89,2,-2,2,0.75,6546,53,86,33,82,500,349.0,537,466,60,122.0,339,1,363,478,115,0,0,354,-14714,28553,349,,,,,,,,,,,,
37783,1560695113923,4,2.36,2.28,3.2,2.15,5.05,0.78,-0.11,0.91,2,-3,3,0.79,6558,53,86,33,82,500,352.0,535,458,60,120.0,339,1,363,479,115,0,0,355,6870,3302,352,,,,,,,,,,,,
37803,1560695113943,1,2.36,2.28,3.22,2.17,5.07,0.69,-0.05,0.81,3,-1,3,0.69,6637,53,86,33,82,500,356.0,540,457,60,120.0,337,1,366,480,119,0,0,355,6870,4104,356,,,,,,,,,,,,
37823,1560695113963,1,2.36,2.28,3.23,2.17,5.06,0.78,-0.2,0.93,3,-2,3,0.8,6658,53,86,33,82,500,357.0,544,465,60,121.0,337,1,367,481,119,0,0,358,2811,2060,357,,,,,,,,,,,,
37843,1560695113983,5,2.36,2.27,3.25,2.18,5.08,0.8,-0.07,0.88,3,-3,3,0.8,6639,53,86,33,81,500,358.0,545,460,60,119.0,337,1,367,474,119,0,0,358,2811,-29978,358,45.701107,4.910036,32.26,195.4,0,0.0,0,0.0,0.125,1,0.1,0.6307
37863,1560695113995,1,2.36,2.27,3.26,2.18,5.08,0.68,-0.13,0.86,5,-4,4,0.69,6768,53,86,33,81,500,359.0,543,455,60,121.0,337,1,371,476,119,0,0,356,-30454,-29302,359,,,,,,,,,,,,
37883,1560695114015,1,2.36,2.27,3.24,2.17,5.04,0.71,-0.1,0.82,4,-2,5,0.72,6835,53,86,33,81,500,361.0,548,465,60,119.0,337,1,373,484,119,0,0,360,-6644,0,361,,,,,,,,,,,,
37903,1560695114035,2,2.36,2.27,3.22,2.16,5.05,0.81,-0.25,0.88,5,-2,7,0.85,6732,53,86,33,81,500,362.0,553,460,60,121.0,337,1,370,476,122,0,0,362,-6644,3082,362,,,,,,,,,,,,
37923,1560695114055,-0,2.37,2.25,3.22,2.17,5.05,0.75,-0.16,0.83,4,-2,8,0.76,6845,53,86,33,81,500,364.0,550,457,60,120.0,337,1,373,477,122,0,0,363,2060,3082,364,,,,,,,,,,,,
37943,1560695114075,3,2.36,2.25,3.23,2.16,5.05,0.87,-0.25,0.94,5,-3,8,0.91,6941,53,86,33,80,500,365.0,561,463,60,122.0,337,1,377,473,122,0,0,363,4104,-6656,365,45.701111,4.910047,33.69,195.4,0,0.0,0,0.0,0.1267,1,0.1,0.6324
37963,1560695114103,-1,2.36,2.25,3.22,2.18,5.07,0.68,-0.2,0.84,6,-0,6,0.71,6996,53,86,33,80,500,367.0,570,457,60,121.0,337,1,379,479,122,0,0,371,-29978,-6656,367,,,,,,,,,,,,
37983,1560695114123,1,2.36,2.25,3.22,2.21,5.04,0.75,-0.21,0.88,5,-4,5,0.78,6947,53,86,33,81,500,370.0,577,466,60,119.0,337,1,377,479,122,0,0,372,-14707,257,370,,,,,,,,,,,,
38003,1560695114143,2,2.36,2.25,3.21,2.21,5.04,0.76,-0.25,0.89,6,-2,5,0.8,6883,54,86,33,80,515,372.0,567,453,60,121.0,336,1,375,472,125,0,0,372,3082,770,372,,,,,,,,,,,,
38023,1560695114163,0,2.36,2.25,3.22,2.2,5.03,0.7,-0.2,0.79,6,0,7,0.72,7025,54,86,33,81,546,374.0,568,458,60,120.0,336,1,380,480,125,0,0,374,-1268,3,374,,,,,,,,,,,,
38043,1560695114183,3,2.37,2.25,3.22,2.19,5.07,0.78,-0.23,0.82,5,-2,8,0.82,7048,54,86,33,81,577,375.0,570,460,60,120.0,336,1,380,480,125,0,0,378,-6405,-6656,376,45.701115,4.910059,33.96,195.4,0,0.0,0,0.0,0.1283,1,0.1,0.634
38063,1560695114203,3,2.36,2.24,3.2,2.18,5.05,0.78,-0.29,0.88,6,-0,9,0.83,6996,54,86,33,81,608,377.0,575,461,60,121.0,336,1,378,479,125,0,0,380,0,-992,377,,,,,,,,,,,,
38083,1560695114223,1,2.36,2.25,3.22,2.19,5.04,0.56,-0.21,0.75,7,2,8,0.6,7086,54,86,33,81,638,380.0,573,459,60,121.0,336,1,384,480,125,0,0,375,486,2278,380,,,,,,,,,,,,
38103,1560695114243,-1,2.38,2.25,3.23,2.19,5.05,0.7,-0.24,0.81,6,-2,7,0.74,7211,54,86,33,80,667,381.0,578,461,60,120.0,334,1,392,475,127,0,0,384,257,-992,381,,,,,,,,,,,,
38123,1560695114263,0,2.37,2.25,3.23,2.2,5.04,0.76,-0.31,0.89,7,-2,7,0.82,7335,54,86,33,80,689,383.0,587,461,60,120.0,334,1,399,476,127,0,0,387,1,-19019,383,,,,,,,,,,,,
38143,1560695114283,5,2.38,2.24,3.22,2.21,5.05,0.76,-0.33,0.81,7,-1,8,0.83,7347,54,86,33,79,687,385.0,593,458,60,120.0,334,1,396,468,127,0,0,387,742,-3866,385,45.701115,4.910071,35.38,195.3,0,0.0,0,0.0,0.13,1,0.1,0.6357
38163,1560695114303,4,2.38,2.25,3.23,2.22,5.04,0.67,-0.32,0.77,8,1,9,0.74,7312,54,86,33,79,685,387.0,592,462,60,120.0,334,1,398,461,127,0,0,390,3,-1562,387,,,,,,,,,,,,
38183,1560695114323,5,2.37,2.25,3.22,2.22,5.07,0.49,-0.29,0.77,9,4,10,0.56,7352,54,86,33,78,682,389.0,593,460,60,120.0,334,1,401,461,127,0,0,391,8200,505,389,,,,,,,,,,,,
38203,1560695114343,3,2.39,2.24,3.22,2.22,5.07,0.43,-0.25,0.78,9,2,9,0.5,7284,54,86,33,78,679,392.0,594,457,60,121.0,333,1,397,460,130,0,0,397,19125,6384,392,,,,,,,,,,,,
38223,1560695114363,1,2.39,2.24,3.22,2.22,5.05,0.42,-0.24,0.68,9,1,9,0.48,7367,55,86,33,79,677,394.0,596,460,60,121.0,333,1,401,468,130,0,0,397,-19019,28696,394,,,,,,,,,,,,
38243,1560695114383,2,2.38,2.23,3.23,2.22,5.04,0.45,-0.21,0.64,9,1,11,0.5,7461,56,86,33,79,675,397.0,599,458,60,120.0,333,1,407,469,130,0,0,397,-19019,6512,397,45.701118,4.910083,36.17,195.3,0,0.0,0,0.0,0.1317,1,0.1,0.6374
38263,1560695114403,3,2.38,2.23,3.24,2.23,5.05,0.48,-0.2,0.71,8,-2,11,0.52,7656,58,86,33,78,674,399.0,610,458,60,121.0,333,1,418,462,130,0,0,404,240,6512,400,,,,,,,,,,,,
38283,1560695114423,4,2.38,2.24,3.24,2.22,5.06,0.38,-0.15,0.71,8,-2,10,0.41,7770,60,86,33,78,674,401.0,607,456,60,121.0,333,1,424,462,130,0,0,407,-6524,2524,403,,,,,,,,,,,,
38303,1560695114443,5,2.39,2.23,3.23,2.24,5.05,0.29,-0.18,0.72,8,-3,9,0.34,7825,60,86,33,78,674,408.0,615,461,60,120.0,337,1,428,462,136,0,0,417,1,-9166,408,,,,,,,,,,,,
38323,1560695114463,-1,2.38,2.24,3.24,2.25,5.06,0.28,-0.13,0.69,8,-2,12,0.31,7904,60,86,33,78,674,409.0,610,458,60,120.0,337,1,432,462,136,0,0,427,-32702,-8165,409,,,,,,,,,,,,
38343,1560695114483,2,2.39,2.26,3.23,2.29,5.08,0.44,-0.18,0.68,8,1,12,0.47,8029,61,86,33,77,673,411.0,608,462,60,121.0,337,1,438,454,136,0,0,419,28696,-3414,411,45.701122,4.910097,37.28,195.3,0,0.0,0,0.0,0.1333,1,0.1,0.639
38363,1560695114503,3,2.39,2.28,3.2,2.3,5.05,0.41,-0.11,0.8,8,-1,12,0.42,8187,61,86,33,75,672,415.0,616,461,60,121.0,337,1,436,439,136,0,0,423,1504,31796,415,,,,,,,,,,,,
38383,1560695114523,2,2.39,2.29,3.17,2.3,5.06,0.42,-0.13,0.79,8,-1,10,0.44,8289,62,86,33,73,671,420.0,617,457,60,120.0,337,1,435,421,136,0,0,434,9517,13180,420,,,,,,,,,,,,
38403,1560695114543,-1,2.39,2.32,3.16,2.33,5.06,0.4,-0.06,0.82,8,-0,11,0.4,8281,62,86,33,72,670,426.0,611,457,60,120.0,312,1,436,412,132,0,0,451,13040,21580,426,,,,,,,,,,,,
38423,1560695114563,4,2.38,2.35,3.16,2.37,5.05,0.37,-0.02,0.73,9,1,11,0.37,8337,63,86,33,72,671,432.0,623,462,60,121.0,312,1,434,413,132,0,0,450,18584,2131,432,,,,,,,,,,,,
38443,1560695114583,2,2.37,2.37,3.15,2.4,5.04,0.38,-0.1,0.85,8,0,13,0.39,8389,64,86,33,72,672,437.0,618,454,60,120.0,312,1,433,415,132,0,0,450,-8165,-8985,440,45.701122,4.91011,38.14,195.3,0,0.0,0,0.0,0.135,1,0.11,0.6407
38463,1560695114602,3,2.38,2.39,3.15,2.41,5.05,0.37,-0.05,0.81,9,0,14,0.37,8476,64,86,32,73,674,442.0,627,466,60,121.0,312,1,430,426,132,0,0,457,3635,17628,442,,,,,,,,,,,,
38483,1560695114622,4,2.37,2.41,3.16,2.4,5.06,0.38,-0.16,0.92,9,-0,12,0.42,8581,64,86,32,72,676,447.0,622,456,60,120.0,312,1,427,417,132,0,0,462,-3322,-23623,447,,,,,,,,,,,,
38503,1560695114642,0,2.38,2.42,3.17,2.41,5.06,0.42,-0.19,1.01,9,-2,12,0.46,8692,65,86,32,72,696,452.0,624,456,60,120.0,293,1,424,407,132,0,0,463,21580,10432,452,,,,,,,,,,,,
38523,1560695114662,1,2.37,2.42,3.16,2.42,5.04,0.42,-0.18,0.98,9,-1,13,0.46,8773,65,86,32,71,716,457.0,627,461,60,120.0,293,1,421,407,132,0,0,465,21432,8488,457,,,,,,,,,,,,
38543,1560695114682,2,2.36,2.42,3.19,2.41,5.04,0.31,-0.04,0.94,10,1,15,0.31,8903,65,86,32,71,734,461.0,624,466,60,121.0,293,1,417,407,132,0,0,477,10305,3576,462,45.701122,4.910124,39.97,195.3,0,0.0,0,0.0,0.1367,1,0.11,0.6424
38563,1560695114702,-1,2.37,2.42,3.18,2.42,5.07,0.21,0.06,0.9,10,1,16,0.21,9018,66,86,32,71,752,467.0,632,460,60,121.0,293,1,413,407,132,0,0,481,2524,3580,467,,,,,,,,,,,,
38583,1560695114722,-0,2.36,2.41,3.19,2.42,5.04,0.05,0.22,0.83,11,3,16,0.23,9101,66,86,32,70,782,471.0,625,461,60,120.0,293,1,413,398,132,0,0,491,-9160,-1562,471,,,,,,,,,,,,
38603,1560695114708,1,2.36,2.41,3.18,2.42,5.07,0.04,0.29,0.81,10,3,17,0.29,9186,66,86,32,70,816,476.0,634,455,60,120.0,291,1,414,398,138,0,0,484,12552,998,478,,,,,,,,,,,,
38623,1560695114728,3,2.35,2.41,3.17,2.42,5.05,0.09,0.31,0.89,10,4,17,0.32,9245,66,86,32,70,836,481.0,627,468,60,120.0,291,1,414,398,138,0,0,492,243,-32768,481,,,,,,,,,,,,
38643,1560695114748,4,2.34,2.41,3.15,2.43,5.05,0.28,0.14,0.98,10,1,17,0.32,9337,66,86,32,70,852,486.0,632,456,60,120.0,291,1,415,388,138,0,0,496,-17956,11560,486,45.701126,4.910139,42.44,195.3,0,0.0,0,0.0,0.1383,1,0.11,0.644
38663,1560695114768,4,2.35,2.41,3.14,2.42,5.04,0.44,-0.07,1.04,10,-1,15,0.45,9403,66,86,32,70,873,493.0,635,455,60,120.0,291,1,415,388,138,0,0,507,32033,-21872,493,,,,,,,,,,,,
38683,1560695114788,2,2.33,2.4,3.15,2.41,5.03,0.24,-0.06,1.05,11,2,13,0.24,9469,66,86,32,69,896,499.0,632,460,60,120.0,291,1,415,388,138,0,0,508,-899,-3856,499,,,,,,,,,,,,
38703,1560695114808,2,2.34,2.4,3.16,2.41,5.07,0.2,-0.08,1.06,11,-0,14,0.21,9551,66,86,32,69,911,501.0,631,465,60,120.0,279,1,414,395,139,0,0,523,505,16383,501,,,,,,,,,,,,
38723,1560695114802,1,2.33,2.41,3.17,2.41,5.04,0.32,-0.18,1.11,9,1,14,0.37,9664,66,86,32,69,919,503.0,638,463,60,120.0,279,1,410,405,139,0,0,515,3,1248,505,,,,,,,,,,,,
38743,1560695114822,2,2.32,2.41,3.17,2.4,5.06,0.27,-0.06,1.13,9,0,14,0.28,9811,66,86,32,68,925,508.0,633,459,60,120.0,279,1,403,408,139,0,0,520,10408,1248,508,45.701126,4.910154,44.97,195.3,0,0.0,0,0.0,0.14,1,0.11,0.6457
38763,1560695114902,1,2.31,2.42,3.17,2.38,5.05,0.35,-0.14,1.2,8,1,12,0.37,9894,66,86,32,67,931,511.0,645,454,60,120.0,279,1,402,415,139,0,0,523,-21872,2088,511,,,,,,,,,,,,
38783,1560695114922,4,2.31,2.43,3.15,2.37,5.05,0.41,-0.03,1.14,8,1,12,0.41,9910,66,86,32,67,934,516.0,647,457,60,120.0,279,1,401,416,139,0,0,531,-4054,-28648,516,,,,,,,,,,,,
38803,1560695114942,2,2.3,2.45,3.13,2.39,5.04,0.39,-0.06,1.19,7,1,12,0.39,9952,66,86,32,67,933,521.0,652,454,60,120.0,306,1,400,421,159,0,0,535,26178,-8186,521,,,,,,,,,,,,
38823,1560695114962,1,2.29,2.44,3.14,2.38,5.04,0.55,-0.14,1.22,7,-1,11,0.57,10048,66,86,32,67,936,522.0,645,462,60,120.0,306,1,401,427,159,0,0,544,-14,-30064,522,,,,,,,,,,,,
38843,1560695114982,6,2.3,2.44,3.14,2.38,5.04,0.53,-0.08,1.1,6,-1,10,0.53,10086,66,86,32,67,944,528.0,645,459,60,120.0,306,1,405,428,159,0,0,542,-22519,14504,530,45.70113,4.910171,47.52,195.2,0,0.0,0,0.0,0.1417,1,0.11,0.6474
38863,1560695114996,2,2.3,2.43,3.13,2.37,5.08,0.5,-0.06,1.11,5,-0,9,0.51,10168,66,86,32,67,952,533.0,640,462,60,120.0,306,1,417,431,159,0,0,549,-28648,2104,534,,,,,,,,,,,,
38883,1560695115016,2,2.3,2.43,3.12,2.37,5.05,0.48,-0.05,1.18,5,-1,9,0.49,10268,66,86,32,67,961,536.0,643,463,60,120.0,306,1,422,435,159,0,0,548,14504,-28648,536,,,,,,,,,,,,
38903,1560695115036,3,2.29,2.44,3.13,2.38,5.04,0.49,-0.11,1.17,4,-0,8,0.51,10347,66,86,32,67,971,539.0,636,460,60,120.0,315,1,430,436,170,0,0,558,-32248,2524,541,,,,,,,,,,,,
38923,1560695115056,3,2.29,2.44,3.13,2.38,5.04,0.51,-0.11,1.2,4,-1,7,0.52,10463,66,85,32,67,983,546.0,645,460,60,120.0,315,1,440,439,170,0,0,563,-8186,6274,546,,,,,,,,,,,,
38943,1560695115076,2,2.29,2.43,3.12,2.38,5.05,0.48,-0.16,1.15,4,-1,7,0.51,10504,66,85,32,67,992,548.0,650,462,60,120.0,315,1,444,441,170,0,0,560,-506,-2934,548,45.70113,4.910189,49.63,195.2,0,0.0,0,0.0,0.1433,1,0.11,0.649
38963,1560695115096,3,2.29,2.43,3.12,2.38,5.08,0.55,-0.08,1.11,4,0,7,0.56,10611,65,85,32,67,994,552.0,650,461,60,120.0,315,1,445,442,170,0,0,562,2524,1267,552,,,,,,,,,,,,
38983,1560695115110,4,2.28,2.43,3.12,2.36,5.05,0.58,-0.06,1.1,3,-1,7,0.58,10623,63,86,32,66,994,554.0,653,460,60,120.0,315,1,446,433,170,0,0,577,-9072,-18032,555,,,,,,,,,,,,
39003,1560695115130,4,2.28,2.43,3.1,2.36,5.04,0.52,-0.08,1.13,3,-2,7,0.52,10665,60,86,32,65,989,559.0,655,456,60,120.0,311,1,448,424,174,0,0,570,-32504,-3210,559,,,,,,,,,,,,
39023,1560695115150,6,2.27,2.42,3.11,2.34,5.08,0.52,-0.15,1.14,3,0,5,0.54,10744,58,86,32,63,985,564.0,655,462,60,120.0,311,1,449,407,174,0,0,573,-18032,-16384,564,,,,,,,,,,,,
