"Interval"|"ms"|0|0|1,"Utc"|"ms"|0|0|1,"FB_p"|"bar"|0|300|50,"Volant"|"F"|0.0|300.0|50,"xFR"|"mm"|0.0|5.0|50,"xRR"|"mm"|0.0|5.0|50,"xFL"|"mm"|0.0|5.0|50,"xRL"|"mm"|0.0|5.0|50,"AccelX"|"G"|-3.0|3.0|50,"AccelY"|"G"|-3.0|3.0|50,"AccelZ"|"G"|-3.0|3.0|50,"Yaw"|"Deg/Sec"|-120|120|50,"Pitch"|"Deg/Sec"|-120|120|50,"Roll"|"Deg/Sec"|-120|120|50,"Gsum"|"G"|0.0|3.0|50,"RPM"|""|0|14000|50,"TPS"|"%"|0|100|50,"WaterTemp"|"?C"|0|300|50,"AirTemp"|"?C"|-1000|1000|50,"MAP"|"KPa"|0|255|50,"Lambda"|""|0|1024|50,"WheelSpeed"|"MPH"|0.0|150.0|50,"OilPress"|"PSI"|0|150|50,"FuelPress"|"PSI"|0|150|50,"OilTemp"|"F"|0|300|50,"Battery"|"Volts"|0.0|20.0|50,"FuelCon"|"L/h"|-1000|1000|50,"Gear"|""|0|10|50,"Advance"|"Deg"|-360|360|50,"Injection"|"ms"|-1000|1000|50,"FuelCon"|"L/100km"|-1000|1000|50,"LC_But_Pres"|""|-1000|1000|50,"LC_Active"|""|-1000|1000|50,"RD_Speed"|""|-1000|1000|50,"RUD_Speed"|""|-1000|1000|50,"LD_Speed"|""|-1000|1000|50,"LUD_Speed"|""|-1000|1000|50,"Latitude"|"Degrees"|-180.0|180.0|10,"Longitude"|"Degrees"|-180.0|180.0|10,"Speed"|"kph"|0.0|150.0|10,"Altitude"|"m"|0.0|4000.0|10,"LapCount"|""|0|0|10,"LapTime"|"Min"|0.0|0.0|10,"Sector"|""|0|0|10,"SectorTime"|"Min"|0.0|0.0|10,"ElapsedTime"|"Min"|0.0|0.0|10,"CurrentLap"|""|0|0|10,"Distance"|"km"|0.0|0.0|10,"SessionTime"|"Min"|0.0|0.0|10
80963,1560695000800,8,2.29,1.89,3.46,1.83,5.07,0.93,-0.16,0.05,3,1,4,0.95,9669,7,77,31,22,774,538.0,651,464,60,120.0,117,1,270,174,64,0,0,512,-32248,15679,537,,,,,,,,,,,,
80983,1560695000820,8,2.28,1.89,3.47,1.82,5.04,1.01,-0.07,0.04,3,-2,4,1.01,9546,7,77,31,22,782,535.0,652,464,60,120.0,117,1,270,171,64,0,0,505,-22519,-3414,533,,,,,,,,,,,,
81003,1560695000840,11,2.29,1.88,3.46,1.83,5.07,1.11,-0.16,0.08,2,0,4,1.12,9464,7,77,31,22,790,529.0,651,459,60,121.0,117,1,270,170,64,0,0,509,6274,10994,529,,,,,,,,,,,,
81023,1560695000860,4,2.29,1.89,3.44,1.83,5.04,0.96,-0.16,0.03,2,-1,5,0.98,9398,7,77,31,21,796,525.0,644,460,60,120.0,117,1,270,170,64,0,0,512,2524,-28648,525,,,,,,,,,,,,
81043,1560695000880,8,2.29,1.89,3.43,1.81,5.03,0.92,-0.06,0.0,3,2,6,0.92,9351,7,77,31,21,807,522.0,648,463,60,120.0,111,1,270,164,58,0,0,505,-8187,-9216,522,45.702103,4.910879,54.15,194.2,0,0.0,0,0.0,0.4717,1,0.32,1.3507
81063,1560695000900,10,2.28,1.89,3.44,1.81,5.04,1.03,0.01,0.04,3,-0,5,1.03,9323,7,77,31,21,822,515.0,644,463,60,120.0,111,1,270,164,58,0,0,495,17136,10408,515,,,,,,,,,,,,
81083,1560695000920,11,2.29,1.88,3.44,1.8,5.05,1.13,-0.11,0.09,2,-2,5,1.13,9286,7,77,31,21,834,512.0,642,462,60,120.0,111,1,270,164,58,0,0,489,-4054,-32768,512,,,,,,,,,,,,
81103,1560695000940,12,2.29,1.87,3.44,1.81,5.03,1.22,-0.28,0.16,2,-0,4,1.25,9186,7,77,31,21,843,509.0,642,465,60,120.0,111,1,270,164,58,0,0,490,6274,248,509,,,,,,,,,,,,
81123,1560695000960,13,2.29,1.89,3.46,1.82,5.04,1.2,-0.29,0.17,2,-1,3,1.24,9097,7,77,31,21,856,504.0,640,462,60,120.0,111,1,270,164,58,0,0,481,15661,998,504,,,,,,,,,,,,
81143,1560695000980,10,2.29,1.9,3.45,1.82,5.06,1.07,-0.24,0.1,2,-1,3,1.1,9057,7,77,31,21,873,500.0,641,463,60,120.0,111,1,270,164,58,0,0,490,3,505,500,45.702095,4.910893,51.89,194.2,0,0.0,0,0.0,0.4733,1,0.32,1.3524
81163,1560695000994,9,2.29,1.91,3.43,1.82,5.06,1.03,-0.18,0.07,2,-2,3,1.05,8928,7,77,32,21,888,496.0,639,460,60,120.0,112,1,270,164,56,0,0,482,-32768,8488,496,,,,,,,,,,,,
81183,1560695001014,12,2.29,1.9,3.45,1.81,5.08,1.01,-0.15,0.07,2,-2,2,1.02,8848,7,77,32,21,896,490.0,640,460,60,120.0,112,1,270,164,56,0,0,474,-1562,3576,490,,,,,,,,,,,,
81203,1560695001034,10,2.28,1.89,3.46,1.82,5.04,1.07,-0.17,0.12,2,-2,2,1.08,8806,7,77,32,21,911,488.0,642,461,60,120.0,112,1,270,164,56,0,0,468,-6441,-23623,488,,,,,,,,,,,,
81223,1560695001054,8,2.29,1.9,3.45,1.81,5.06,1.17,-0.23,0.16,2,-3,2,1.19,8708,7,77,32,21,934,484.0,641,462,60,120.0,112,1,270,164,56,0,0,471,32033,30272,484,,,,,,,,,,,,
81243,1560695001074,9,2.29,1.89,3.45,1.81,5.04,1.22,-0.25,0.19,2,-2,2,1.24,8628,7,77,32,21,955,479.0,633,461,60,121.0,110,1,270,164,53,0,0,466,-17956,30272,479,45.702087,4.910907,50.01,194.2,0,0.0,0,0.0,0.475,1,0.32,1.3541
81263,1560695001100,13,2.28,1.89,3.46,1.8,5.07,1.16,-0.2,0.11,2,-2,2,1.17,8549,7,77,32,21,970,475.0,633,463,60,120.0,110,1,270,164,53,0,0,454,32033,2211,475,,,,,,,,,,,,
81283,1560695001120,11,2.27,1.89,3.45,1.8,5.07,1.14,-0.19,0.12,2,-1,3,1.15,8457,7,77,32,21,990,471.0,635,458,60,120.0,110,1,270,162,53,0,0,456,16408,3571,471,,,,,,,,,,,,
81303,1560695001140,15,2.26,1.91,3.46,1.81,5.05,1.11,-0.14,0.06,2,-1,3,1.11,8378,7,77,32,21,1028,468.0,630,465,60,121.0,110,1,270,160,53,0,0,452,12552,16648,468,,,,,,,,,,,,
81323,1560695001160,12,2.26,1.91,3.46,1.81,5.04,1.12,-0.1,0.07,1,0,3,1.13,8337,7,77,32,21,1065,459.0,632,461,60,120.0,110,1,270,159,53,0,0,441,17628,20625,459,,,,,,,,,,,,
81343,1560695001180,15,2.25,1.91,3.45,1.81,5.05,1.14,-0.05,0.04,1,0,4,1.14,8245,7,77,32,21,1089,456.0,632,463,60,121.0,105,1,270,156,48,0,0,441,2524,-28332,453,45.702076,4.91092,47.85,194.2,0,0.0,0,0.0,0.4767,1,0.32,1.3557
81363,1560695001200,13,2.26,1.9,3.44,1.79,5.06,1.13,-0.01,0.02,1,-2,3,1.13,8134,7,77,32,21,1118,451.0,628,462,60,121.0,105,1,270,153,48,0,0,436,3571,-7939,447,,,,,,,,,,,,
81383,1560695001220,13,2.27,1.88,3.45,1.78,5.07,1.1,0.04,-0.12,1,-0,2,1.1,8043,7,77,32,22,1159,448.0,628,461,60,120.0,105,1,270,152,48,0,0,429,2131,5600,448,,,,,,,,,,,,
81403,1560695001240,12,2.26,1.89,3.45,1.78,5.06,1.02,-0.01,-0.07,2,-1,2,1.02,7988,7,77,32,22,1200,442.0,623,461,60,121.0,105,1,269,151,48,0,0,429,26704,-3322,442,,,,,,,,,,,,
81423,1560695001260,12,2.26,1.88,3.44,1.78,5.07,1.08,0.04,-0.06,2,-2,1,1.08,7884,7,77,32,23,1218,438.0,625,462,60,120.0,105,1,268,154,48,0,0,425,21580,3826,438,,,,,,,,,,,,
81443,1560695001280,13,2.26,1.88,3.46,1.78,5.08,1.18,0.02,-0.1,1,-2,1,1.18,7796,7,77,32,24,1237,433.0,627,463,60,120.0,106,1,267,156,46,0,0,413,1779,18584,434,45.702072,4.910932,45.9,194.2,0,0.0,0,0.0,0.4783,1,0.32,1.3574
81463,1560695001299,15,2.26,1.89,3.47,1.78,5.08,1.04,0.01,-0.12,1,-1,2,1.04,7735,7,77,32,24,1264,428.0,624,461,60,120.0,106,1,267,156,46,0,0,408,31796,13040,428,,,,,,,,,,,,
81483,1560695001319,14,2.26,1.89,3.46,1.78,5.07,0.94,0.06,-0.11,1,-0,3,0.94,7612,7,77,32,24,1291,424.0,616,463,60,121.0,106,1,266,156,46,0,0,411,3826,10392,424,,,,,,,,,,,,
81503,1560695001339,15,2.26,1.9,3.44,1.79,5.05,0.89,0.02,-0.13,2,2,3,0.89,7542,7,77,33,24,1301,419.0,621,463,60,120.0,106,1,265,156,46,0,0,407,7154,10541,417,,,,,,,,,,,,
81523,1560695001359,14,2.26,1.9,3.43,1.78,5.04,0.65,-0.0,-0.12,4,4,2,0.65,7449,7,77,33,25,1312,415.0,618,461,60,120.0,106,1,264,159,46,0,0,402,-9166,-3968,415,,,,,,,,,,,,
81543,1560695001379,15,2.26,1.89,3.44,1.77,5.06,0.59,0.03,-0.16,4,3,1,0.6,7399,6,77,33,24,1324,411.0,617,461,60,121.0,106,1,263,159,46,0,0,396,10392,11545,409,45.702061,4.910943,43.73,194.2,0,0.0,0,0.0,0.48,1,0.32,1.3591
81563,1560695001401,14,2.26,1.87,3.43,1.76,5.03,0.65,0.02,-0.16,4,3,1,0.65,7309,7,77,33,25,1335,408.0,613,462,60,120.0,105,1,263,159,43,0,0,393,-9211,-1562,405,,,,,,,,,,,,
81583,1560695001421,14,2.25,1.88,3.43,1.78,5.04,0.7,0.06,-0.2,4,3,2,0.7,7247,6,77,33,24,1339,400.0,611,460,60,120.0,105,1,262,156,43,0,0,388,6512,-19019,400,,,,,,,,,,,,
81603,1560695001441,14,2.24,1.88,3.44,1.78,5.04,0.83,0.1,-0.08,1,0,1,0.84,7186,6,77,33,24,1340,394.0,613,463,60,121.0,105,1,261,156,43,0,0,382,-6656,-18948,394,,,,,,,,,,,,
81623,1560695001461,18,2.25,1.89,3.43,1.77,5.04,0.87,0.03,-0.04,1,0,-1,0.87,7094,6,77,33,24,1334,389.0,612,460,60,121.0,105,1,260,156,43,0,0,379,-6524,-6656,389,,,,,,,,,,,,
81643,1560695001481,17,2.25,1.89,3.44,1.75,5.08,0.88,0.11,-0.12,1,-0,-1,0.89,7019,6,77,33,24,1329,385.0,605,465,60,119.0,107,1,260,156,41,0,0,376,-6475,-6656,383,45.702053,4.910954,41.43,194.2,0,0.0,0,0.0,0.4817,1,0.32,1.3607
81663,1560695001501,15,2.24,1.89,3.44,1.75,5.04,0.9,0.18,-0.18,1,0,-0,0.92,6947,6,77,33,24,1322,380.0,610,461,60,121.0,107,1,260,156,41,0,0,368,-992,0,379,,,,,,,,,,,,
81683,1560695001521,17,2.25,1.88,3.44,1.75,5.08,1.02,0.08,-0.1,0,-1,0,1.02,6813,6,77,33,24,1314,374.0,600,460,60,121.0,107,1,261,156,41,0,0,363,742,-1268,373,,,,,,,,,,,,
81703,1560695001541,16,2.26,1.88,3.44,1.76,5.04,0.96,0.18,-0.2,1,1,-0,0.98,6725,6,77,33,24,1297,371.0,602,465,60,120.0,107,1,262,156,41,0,0,361,0,3082,369,,,,,,,,,,,,
81723,1560695001561,17,2.26,1.87,3.44,1.75,5.08,1.04,0.07,-0.12,0,-0,0,1.05,6637,6,77,33,24,1274,366.0,598,460,60,122.0,107,1,263,155,41,0,0,360,-1268,-6644,364,,,,,,,,,,,,
81743,1560695001581,18,2.26,1.88,3.44,1.75,5.06,1.11,0.06,-0.04,-1,-2,-1,1.12,6546,6,77,33,24,1258,362.0,600,460,60,121.0,107,1,263,155,41,0,0,351,-29302,6870,362,45.702049,4.910965,39.28,194.2,0,0.0,0,0.0,0.4833,1,0.32,1.3624
81763,1560695001601,13,2.27,1.88,3.44,1.76,5.07,1.08,0.14,-0.13,-0,-1,-0,1.09,6434,6,77,33,24,1244,356.0,590,463,60,120.0,104,1,264,155,38,0,0,342,2060,-30438,356,,,,,,,,,,,,
81783,1560695001621,14,2.27,1.88,3.45,1.75,5.07,1.07,-0.04,-0.09,-0,-1,0,1.07,6353,6,77,33,25,1215,353.0,589,467,60,120.0,104,1,267,159,38,0,0,341,28553,3327,350,,,,,,,,,,,,
81803,1560695001641,15,2.26,1.88,3.42,1.76,5.07,1.12,-0.11,-0.02,-1,-0,1,1.13,6289,6,77,33,25,1181,347.0,582,461,60,122.0,104,1,268,159,38,0,0,339,-30438,-122,347,,,,,,,,,,,,
81823,1560695001661,17,2.25,1.88,3.42,1.76,5.05,1.14,-0.03,0.06,-1,-2,1,1.14,6210,6,77,33,26,1155,340.0,579,463,60,121.0,104,1,271,160,38,0,0,337,3327,4838,340,,,,,,,,,,,,
81843,1560695001681,17,2.25,1.87,3.42,1.76,5.04,1.05,0.11,0.06,0,-1,0,1.06,6129,6,77,33,26,1137,338.0,575,462,60,120.0,109,1,272,160,37,0,0,325,13,-23296,335,45.702042,4.910974,36.95,194.2,0,0.0,0,0.0,0.485,1,0.33,1.3641
81863,1560695001701,15,2.25,1.88,3.44,1.76,5.08,0.95,0.27,0.02,2,1,0,0.99,6044,6,77,33,26,1108,333.0,569,462,60,120.0,109,1,272,160,37,0,0,321,-6528,-22016,332,,,,,,,,,,,,
81883,1560695001721,14,2.25,1.88,3.43,1.76,5.05,0.82,0.36,-0.06,3,2,0,0.9,5971,6,77,33,27,1070,328.0,559,464,60,120.0,109,1,274,161,37,0,0,321,165,145,328,,,,,,,,,,,,
81903,1560695001741,15,2.23,1.88,3.43,1.76,5.07,0.71,0.45,-0.1,5,5,1,0.84,5899,6,77,33,27,1043,325.0,552,460,60,121.0,109,1,273,161,37,0,0,318,-23296,135,325,,,,,,,,,,,,
81923,1560695001761,14,2.24,1.89,3.42,1.76,5.04,0.61,0.53,-0.12,6,6,1,0.8,5821,6,77,33,27,1027,320.0,549,462,60,121.0,109,1,273,161,37,0,0,313,150,30720,318,,,,,,,,,,,,
81943,1560695001781,10,2.25,1.88,3.42,1.76,5.07,0.62,0.59,-0.13,7,4,1,0.86,5751,6,77,34,28,1005,317.0,542,458,60,122.0,111,1,274,162,35,0,0,309,-28416,-32256,314,45.702034,4.910984,34.35,194.1,0,0.0,0,0.0,0.4867,1,0.33,1.3657
81963,1560695001801,12,2.24,1.88,3.42,1.74,5.04,0.76,0.51,-0.08,5,1,1,0.91,5678,6,77,34,28,978,313.0,534,461,60,122.0,111,1,273,161,35,0,0,304,-30976,110,310,,,,,,,,,,,,
81983,1560695001821,15,2.26,1.88,3.42,1.73,5.06,0.88,0.31,0.02,1,1,-1,0.94,5620,6,77,34,29,958,308.0,523,468,60,120.0,111,1,275,162,35,0,0,302,120,95,306,,,,,,,,,,,,
82003,1560695001841,13,2.27,1.89,3.42,1.75,5.05,0.79,0.25,0.02,1,3,-1,0.83,5577,6,77,34,30,951,305.0,521,467,60,120.0,111,1,275,162,35,0,0,299,29440,95,301,,,,,,,,,,,,
82023,1560695001861,12,2.28,1.88,3.42,1.74,5.07,0.78,0.35,-0.05,4,3,0,0.85,5492,6,77,34,30,942,300.0,515,462,60,122.0,111,1,274,161,35,0,0,293,25600,21760,298,,,,,,,,,,,,
82043,1560695001881,16,2.28,1.88,3.41,1.75,5.03,0.9,0.31,0.02,1,1,0,0.95,5415,6,77,34,31,931,294.0,506,461,60,120.0,112,1,276,162,33,0,0,287,85,0,294,45.70203,4.910992,32.21,194.1,0,0.0,0,0.0,0.4883,1,0.33,1.3674
82063,1560695001901,10,2.29,1.89,3.44,1.74,5.07,0.67,0.23,0.01,2,3,-1,0.71,5340,6,77,34,32,924,292.0,508,467,60,121.0,112,1,276,162,33,0,0,282,80,0,290,,,,,,,,,,,,
82083,1560695001921,13,2.3,1.89,3.45,1.75,5.05,0.81,0.21,0.06,2,-0,-1,0.84,5257,6,77,34,32,922,288.0,496,462,60,121.0,112,1,275,161,33,0,0,280,10686,1886,288,,,,,,,,,,,,
82103,1560695001941,13,2.28,1.89,3.45,1.75,5.06,0.56,0.13,0.04,3,6,-1,0.57,5208,6,77,34,33,923,285.0,492,459,60,121.0,112,1,278,167,33,0,0,277,24064,-1534,285,,,,,,,,,,,,
82123,1560695001961,12,2.28,1.89,3.46,1.73,5.05,0.7,0.16,0.06,2,2,-1,0.72,5113,6,77,34,34,927,281.0,483,469,60,120.0,112,1,280,172,33,0,0,274,630,30208,279,,,,,,,,,,,,
82143,1560695001981,11,2.27,1.89,3.45,1.73,5.07,0.58,0.15,0.1,3,3,-1,0.6,5017,6,77,34,35,932,277.0,473,453,60,122.0,112,1,282,178,33,0,0,270,-1527,250,276,45.702023,4.911,30.0,194.1,0,0.0,0,0.0,0.49,1,0.33,1.3691
82163,1560695001995,10,2.26,1.9,3.45,1.74,5.04,0.63,0.05,0.17,1,5,-3,0.63,4951,6,77,34,37,939,271.0,462,467,60,121.0,119,1,288,188,33,0,0,268,-1281,-1,271,,,,,,,,,,,,
82183,1560695002015,9,2.25,1.9,3.45,1.73,5.07,0.77,0.13,0.17,0,1,-3,0.78,4884,6,77,34,38,943,269.0,455,459,60,119.0,119,1,289,192,33,0,0,262,-1,-1,267,,,,,,,,,,,,
82203,1560695002035,10,2.24,1.91,3.45,1.72,5.08,0.79,0.19,0.1,2,-0,-2,0.81,4834,6,77,34,38,942,265.0,451,465,60,121.0,119,1,286,191,33,0,0,259,-1,-1,263,,,,,,,,,,,,
82223,1560695002055,5,2.22,1.93,3.44,1.72,5.08,0.61,0.21,0.07,2,6,-3,0.64,4818,6,77,34,39,942,264.0,440,458,60,122.0,119,1,290,196,33,0,0,258,-1,506,259,,,,,,,,,,,,
82243,1560695002075,3,2.2,1.99,3.43,1.72,5.04,0.61,0.08,0.14,-0,6,-2,0.62,4760,6,77,34,40,934,262.0,436,467,60,122.0,136,1,289,196,35,0,0,255,-1,-1,257,45.702019,4.911008,27.96,194.1,0,0.0,0,0.0,0.4917,1,0.33,1.3707
82263,1560695002101,1,2.19,2.01,3.38,1.73,5.04,0.75,0.06,0.27,-3,4,-3,0.75,4722,6,77,34,41,923,260.0,430,463,60,121.0,136,1,289,197,35,0,0,255,-1,-1,254,,,,,,,,,,,,
82283,1560695002121,-1,2.17,2.03,3.33,1.74,5.03,0.88,0.09,0.28,-3,1,-2,0.88,4686,6,77,34,41,898,260.0,427,460,60,121.0,136,1,288,196,35,0,0,255,-1,16896,252,,,,,,,,,,,,
82303,1560695002141,-1,2.15,2.09,3.28,1.73,5.07,0.99,0.22,0.31,-3,-1,-2,1.02,4647,6,77,34,41,872,257.0,428,460,60,120.0,136,1,286,196,35,0,0,255,14337,250,250,,,,,,,,,,,,
82323,1560695002161,1,2.1,2.12,3.26,1.73,5.04,1.07,0.32,0.32,-3,-2,-2,1.12,4646,6,77,34,42,854,258.0,416,461,60,121.0,136,1,288,197,35,0,0,253,-10440,250,247,,,,,,,,,,,,
82343,1560695002181,4,2.08,2.12,3.22,1.72,5.04,1.06,0.35,0.33,-2,-2,-4,1.11,4625,6,77,34,42,836,257.0,421,460,60,120.0,136,1,287,196,35,0,0,253,14337,-17920,246,45.702015,4.911015,26.3,194.1,0,0.0,0,0.0,0.4933,1,0.33,1.3724
82363,1560695002199,2,2.05,2.13,3.19,1.72,5.06,1.01,0.37,0.28,-2,1,-5,1.07,4584,7,77,34,42,827,258.0,415,461,60,120.0,138,1,286,198,34,0,0,252,-10440,-1484,243,,,,,,,,,,,,
82383,1560695002219,3,2.01,2.15,3.19,1.71,5.05,0.9,0.35,0.22,-3,2,-6,0.96,4570,7,77,34,43,817,259.0,420,461,60,122.0,138,1,288,198,34,0,0,253,-41,-25600,239,,,,,,,,,,,,
82403,1560695002239,5,1.98,2.19,3.17,1.73,5.05,0.79,0.36,0.17,-5,6,-7,0.87,4553,7,77,34,44,825,259.0,419,459,60,122.0,138,1,290,198,34,0,0,255,-41,10824,235,,,,,,,,,,,,
82423,1560695002259,3,1.94,2.22,3.15,1.73,5.07,0.68,0.31,0.15,-7,7,-9,0.75,4546,8,77,34,44,833,259.0,416,460,60,122.0,138,1,290,200,34,0,0,254,-41,250,232,,,,,,,,,,,,
82443,1560695002279,5,1.9,2.25,3.13,1.72,5.07,0.58,0.32,0.13,-9,9,-12,0.66,4528,8,77,34,45,853,260.0,411,466,60,122.0,147,1,292,199,34,0,0,253,-1,19968,229,45.702011,4.911022,24.39,194.2,0,0.0,0,0.0,0.495,1,0.33,1.3741
82463,1560695002300,4,1.86,2.28,3.13,1.72,5.08,0.54,0.31,0.08,-11,9,-16,0.62,4471,9,77,34,45,872,261.0,411,466,60,122.0,147,1,291,201,34,0,0,255,-1,1596,226,,,,,,,,,,,,
82483,1560695002320,4,1.83,2.29,3.12,1.72,5.04,0.51,0.33,0.02,-14,11,-18,0.61,4432,9,77,34,46,886,262.0,402,460,60,122.0,147,1,293,200,34,0,0,254,-1,250,224,,,,,,,,,,,,
82503,1560695002340,3,1.79,2.29,3.11,1.71,5.02,0.52,0.32,0.06,-16,10,-20,0.61,4392,10,77,34,46,898,262.0,396,461,60,121.0,147,1,292,202,34,0,0,255,-1,250,221,,,,,,,,,,,,
82523,1560695002360,2,1.77,2.31,3.11,1.71,5.07,0.58,0.36,0.12,-17,10,-21,0.68,4398,10,77,34,46,913,263.0,392,460,60,122.0,147,1,292,202,34,0,0,255,-1,16384,220,,,,,,,,,,,,
82543,1560695002380,-2,1.75,2.31,3.1,1.7,5.07,0.64,0.46,0.09,-19,8,-24,0.79,4316,10,77,34,47,929,263.0,394,460,60,120.0,147,1,295,204,34,0,0,254,-1,-1533,218,45.702007,4.911028,23.7,194.2,0,0.0,0,0.0,0.4967,1,0.33,1.3757
82563,1560695002396,-1,1.73,2.32,3.09,1.69,5.05,0.72,0.54,0.1,-20,5,-27,0.9,4351,11,77,34,48,936,262.0,387,463,60,119.0,151,1,295,208,33,0,0,255,-1,13964,216,,,,,,,,,,,,
82583,1560695002416,-2,1.72,2.32,3.08,1.68,5.07,0.82,0.62,0.15,-21,4,-29,1.03,4293,11,77,34,48,940,262.0,391,461,60,120.0,151,1,295,211,33,0,0,256,-1,250,215,,,,,,,,,,,,
82603,1560695002436,-1,1.71,2.31,3.08,1.69,5.08,0.88,0.66,0.24,-23,3,-32,1.1,4303,11,77,34,49,940,263.0,388,462,60,121.0,151,1,295,211,33,0,0,252,-1,-1482,214,,,,,,,,,,,,
82623,1560695002456,-1,1.71,2.32,3.08,1.71,5.06,0.89,0.65,0.3,-26,1,-35,1.1,4311,11,77,34,49,940,262.0,380,462,60,122.0,151,1,295,211,33,0,0,252,-1,13874,213,,,,,,,,,,,,
82643,1560695002476,5,1.7,2.32,3.07,1.7,5.06,0.85,0.67,0.28,-28,3,-37,1.08,4252,12,77,34,50,937,260.0,379,467,60,122.0,161,1,295,214,34,0,0,253,-1,250,211,45.702004,4.911035,22.87,194.2,0,0.0,0,0.0,0.4983,1,0.33,1.3774
82663,1560695002500,3,1.72,2.32,3.08,1.7,5.06,0.77,0.7,0.24,-28,4,-38,1.04,4269,12,77,34,50,932,260.0,378,462,60,122.0,161,1,295,214,34,0,0,251,-1,-1480,210,,,,,,,,,,,,
82683,1560695002520,-1,1.75,2.31,3.08,1.71,5.05,0.79,0.7,0.22,-29,3,-39,1.06,4289,12,77,34,51,930,259.0,382,461,60,121.0,161,1,296,218,34,0,0,251,-41,14412,208,,,,,,,,,,,,
82703,1560695002540,1,1.76,2.3,3.08,1.7,5.04,0.85,0.68,0.23,-30,3,-39,1.09,4279,12,77,34,51,929,258.0,377,463,60,120.0,161,1,296,218,34,0,0,252,-10440,-1480,209,,,,,,,,,,,,
82723,1560695002560,-0,1.79,2.29,3.07,1.72,5.03,0.89,0.7,0.27,-30,1,-39,1.14,4305,13,77,34,52,930,255.0,380,463,60,120.0,161,1,297,222,34,0,0,248,-1281,12800,209,,,,,,,,,,,,
82743,1560695002580,-1,1.83,2.28,3.08,1.73,5.06,0.94,0.68,0.36,-30,1,-40,1.16,4307,15,77,34,53,934,255.0,378,460,60,121.0,177,1,297,227,37,0,0,248,-1281,12800,208,45.702,4.911042,21.84,194.2,0,0.0,0,0.0,0.5,1,0.33,1.3791
82763,1560695002598,0,1.85,2.28,3.08,1.73,5.04,0.89,0.65,0.41,-31,1,-41,1.1,4297,16,77,34,54,936,252.0,376,465,60,122.0,177,1,298,230,37,0,0,244,-1,-1480,209,,,,,,,,,,,,
82783,1560695002618,5,1.9,2.28,3.08,1.76,5.07,0.81,0.61,0.41,-31,2,-43,1.01,4327,16,77,34,55,937,252.0,378,466,60,122.0,177,1,298,235,37,0,0,246,-1,12800,210,,,,,,,,,,,,
82803,1560695002638,3,1.96,2.27,3.08,1.81,5.05,0.72,0.58,0.43,-30,4,-44,0.92,4349,17,77,34,56,936,249.0,380,465,60,122.0,177,1,297,240,37,0,0,244,16896,-29696,209,,,,,,,,,,,,
82823,1560695002658,3,2.01,2.25,3.1,1.85,5.06,0.7,0.5,0.39,-28,4,-44,0.86,4374,17,77,34,57,934,245.0,383,458,60,121.0,177,1,296,245,37,0,0,242,15360,-1482,212,,,,,,,,,,,,
82843,1560695002678,1,2.07,2.23,3.13,1.9,5.07,0.67,0.38,0.38,-27,5,-42,0.77,4411,18,77,34,58,933,241.0,383,455,60,121.0,177,1,296,250,37,0,0,238,-17920,966,214,45.701996,4.911048,21.28,194.2,0,0.0,0,0.0,0.5017,1,0.33,1.3807
82863,1560695002698,2,2.12,2.19,3.19,1.94,5.04,0.68,0.3,0.41,-25,5,-38,0.75,4418,20,77,34,59,931,239.0,385,457,60,120.0,191,1,295,255,41,0,0,235,13468,250,214,,,,,,,,,,,,
82883,1560695002718,2,2.16,2.18,3.23,1.96,5.04,0.66,0.22,0.39,-23,6,-35,0.7,4502,21,77,34,60,931,236.0,390,457,60,121.0,191,1,294,265,41,0,0,234,250,-1532,217,,,,,,,,,,,,
82903,1560695002738,3,2.22,2.17,3.24,1.95,5.05,0.65,0.17,0.33,-21,5,-32,0.67,4527,22,77,34,62,932,232.0,391,457,60,122.0,191,1,293,271,41,0,0,231,250,250,219,,,,,,,,,,,,
82923,1560695002758,3,2.28,2.15,3.27,1.96,5.04,0.6,0.12,0.3,-20,7,-30,0.62,4614,23,77,35,63,937,230.0,395,460,60,121.0,191,1,293,276,41,0,0,228,10824,1210,220,,,,,,,,,,,,
82943,1560695002778,3,2.33,2.13,3.29,1.99,5.06,0.53,0.03,0.35,-18,8,-27,0.53,4626,24,77,35,65,946,226.0,401,456,60,122.0,191,1,292,288,41,0,0,228,10318,250,221,45.701996,4.911056,21.32,194.2,0,0.0,0,0.0,0.5033,1,0.33,1.3824
82963,1560695002798,3,2.38,2.13,3.3,2.03,5.05,0.5,-0.04,0.42,-16,8,-25,0.5,4639,25,77,35,66,955,226.0,405,458,60,122.0,226,1,292,294,50,0,0,228,10318,250,225,,,,,,,,,,,,
82983,1560695002818,5,2.41,2.13,3.3,2.08,5.04,0.48,-0.12,0.45,-13,8,-23,0.49,4507,25,77,35,68,963,228.0,403,464,60,122.0,226,1,291,305,50,0,0,228,250,8704,232,,,,,,,,,,,,
83003,1560695002838,3,2.46,2.14,3.3,2.15,5.04,0.51,-0.14,0.49,-11,8,-19,0.53,4342,26,77,35,69,973,233.0,393,463,60,122.0,226,1,294,304,50,0,0,231,19968,-25600,233,,,,,,,,,,,,
83023,1560695002858,1,2.49,2.14,3.3,2.17,5.05,0.51,-0.2,0.51,-9,7,-16,0.55,4211,26,77,35,70,988,237.0,387,460,60,121.0,226,1,296,305,50,0,0,231,19968,-25600,237,,,,,,,,,,,,
83043,1560695002878,-0,2.55,2.13,3.32,2.2,5.04,0.55,-0.24,0.51,-6,6,-13,0.6,4230,26,77,35,72,1002,240.0,379,461,60,120.0,226,1,295,311,50,0,0,229,10318,250,240,45.701996,4.911063,21.34,194.2,0,0.0,0,0.0,0.505,1,0.33,1.384
83063,1560695002898,0,2.58,2.13,3.36,2.24,5.06,0.56,-0.32,0.49,-3,4,-9,0.64,4222,27,77,35,73,1009,242.0,376,467,60,120.0,204,1,296,314,49,0,0,228,-1530,250,242,,,,,,,,,,,,
83083,1560695002918,-0,2.63,2.09,3.4,2.23,5.04,0.64,-0.34,0.55,-0,3,-5,0.72,4174,27,77,35,74,1017,245.0,368,465,60,122.0,204,1,296,312,49,0,0,223,15360,-1445,245,,,,,,,,,,,,
83103,1560695002938,5,2.66,2.05,3.44,2.24,5.05,0.59,-0.36,0.58,3,4,-2,0.69,4255,27,77,35,75,1030,249.0,370,469,60,122.0,204,1,295,318,49,0,0,218,250,250,249,,,,,,,,,,,,
83123,1560695002958,3,2.68,2.02,3.46,2.24,5.04,0.59,-0.42,0.53,5,4,0,0.72,4276,27,77,35,75,1041,253.0,367,458,60,122.0,204,1,295,322,49,0,0,215,250,10812,253,,,,,,,,,,,,
83143,1560695002978,-0,2.71,2.0,3.49,2.24,5.08,0.57,-0.47,0.46,7,5,4,0.74,4322,27,77,35,75,1046,253.0,369,451,60,121.0,205,1,294,323,52,0,0,215,1210,15360,254,45.701996,4.911071,21.93,194.2,0,0.0,0,0.0,0.5067,1,0.33,1.3857
83163,1560695002994,-1,2.75,1.99,3.47,2.25,5.05,0.59,-0.51,0.47,10,3,9,0.78,4383,27,77,35,75,1051,255.0,376,457,60,119.0,205,1,293,325,52,0,0,213,-1532,250,256,,,,,,,,,,,,
83183,1560695003014,-2,2.78,1.97,3.47,2.24,5.07,0.67,-0.49,0.5,13,2,12,0.83,4478,27,77,35,75,1060,255.0,382,457,60,120.0,205,1,291,333,52,0,0,212,-1532,16896,256,,,,,,,,,,,,
83203,1560695003034,-1,2.78,1.97,3.48,2.25,5.04,0.68,-0.51,0.5,16,0,16,0.85,4418,27,77,35,76,1069,257.0,383,461,60,119.0,205,1,291,330,52,0,0,211,250,10818,258,,,,,,,,,,,,
83223,1560695003054,-1,2.8,1.96,3.49,2.27,5.08,0.7,-0.55,0.49,18,-1,19,0.89,4484,27,77,35,76,1073,259.0,384,463,60,120.0,205,1,290,332,52,0,0,216,250,-1,259,,,,,,,,,,,,
83243,1560695003074,-1,2.81,1.96,3.49,2.28,5.06,0.74,-0.56,0.55,20,-2,24,0.92,4465,28,77,35,76,1077,260.0,389,457,60,119.0,215,1,291,332,56,0,0,220,-1533,-1,260,45.701992,4.911078,22.55,194.2,0,0.0,0,0.0,0.5083,1,0.34,1.3874
83263,1560695003100,-1,2.81,1.96,3.48,2.28,5.06,0.79,-0.55,0.58,22,-2,26,0.96,4525,28,77,35,76,1098,261.0,388,457,60,119.0,215,1,290,333,56,0,0,226,1088,-1,262,,,,,,,,,,,,
83283,1560695003120,-1,2.81,1.96,3.48,2.3,5.08,0.81,-0.57,0.57,24,-4,29,0.99,4519,28,77,35,76,1120,262.0,387,461,60,120.0,215,1,290,347,56,0,0,228,1088,-1,262,,,,,,,,,,,,
83303,1560695003140,-2,2.82,1.97,3.47,2.3,5.06,0.86,-0.57,0.57,25,-4,32,1.03,4536,28,77,35,77,1138,263.0,392,454,60,119.0,215,1,289,348,56,0,0,229,250,14337,265,,,,,,,,,,,,
83323,1560695003160,1,2.8,1.98,3.46,2.29,5.04,0.87,-0.6,0.61,27,-5,35,1.06,4524,28,77,35,77,1155,264.0,392,453,60,120.0,215,1,290,347,56,0,0,226,-17920,-10440,265,,,,,,,,,,,,
83343,1560695003180,-3,2.83,1.99,3.48,2.3,5.05,0.86,-0.61,0.6,28,-6,36,1.05,4555,28,77,35,76,1184,265.0,393,456,60,120.0,226,1,289,349,60,0,0,232,-17920,-10440,265,45.701992,4.911086,22.26,194.2,0,0.0,0,0.0,0.51,1,0.34,1.389
83363,1560695003200,0,2.85,1.99,3.48,2.28,5.04,0.85,-0.64,0.55,30,-5,37,1.06,4577,28,77,35,77,1215,268.0,391,462,60,119.0,226,1,289,350,60,0,0,235,1210,-1,268,,,,,,,,,,,,
83383,1560695003220,3,2.86,1.99,3.5,2.29,5.04,0.84,-0.66,0.54,30,-4,40,1.07,4615,29,77,35,77,1233,269.0,397,456,60,119.0,226,1,288,351,60,0,0,233,250,-41,269,,,,,,,,,,,,
83403,1560695003240,5,2.89,1.98,3.53,2.29,5.04,0.78,-0.74,0.53,31,-4,41,1.08,4634,29,77,35,77,1247,270.0,405,450,60,122.0,226,1,288,352,60,0,0,238,250,-1,270,,,,,,,,,,,,
83423,1560695003260,5,2.91,1.97,3.56,2.28,5.07,0.75,-0.76,0.52,32,-2,41,1.07,4688,30,77,35,78,1244,272.0,405,456,60,122.0,226,1,287,367,60,0,0,253,-1532,-1,272,,,,,,,,,,,,
83443,1560695003280,-2,2.93,1.96,3.56,2.28,5.04,0.78,-0.79,0.48,33,-2,42,1.11,4730,31,77,35,79,1235,273.0,410,462,60,122.0,241,1,286,369,66,0,0,231,250,-1,273,45.701988,4.911093,22.7,194.2,0,0.0,0,0.0,0.5117,1,0.34,1.3907
83463,1560695003299,-0,0.34,1.95,3.57,2.28,5.03,0.81,-0.77,0.46,34,-3,44,1.12,4731,32,77,35,79,1215,275.0,411,462,60,121.0,241,1,286,382,66,0,0,234,-1532,-1,275,,,,,,,,,,,,
83483,1560695003319,-0,0.35,1.95,3.59,2.27,5.05,0.85,-0.74,0.47,36,-3,48,1.13,4783,32,77,35,80,1192,276.0,415,473,60,121.0,241,1,285,398,66,0,0,255,1210,-1,276,,,,,,,,,,,,
83503,1560695003339,3,0.37,1.95,3.62,2.29,5.04,0.8,-0.81,0.48,38,-5,49,1.14,4877,33,77,35,80,1157,278.0,422,452,60,120.0,241,1,284,403,66,0,0,275,-17920,-1,276,,,,,,,,,,,,
83523,1560695003359,-2,0.39,1.94,3.64,2.27,5.05,0.75,-0.88,0.47,39,-3,49,1.15,4992,33,77,35,80,1118,277.0,425,463,60,122.0,241,1,282,394,66,0,0,265,1088,-1,277,,,,,,,,,,,,
83543,1560695003379,0,0.38,1.92,3.66,2.29,5.03,0.85,-0.83,0.45,40,-4,51,1.19,5067,34,77,35,80,1090,278.0,435,463,60,120.0,284,1,285,412,79,0,0,252,-17920,-1,278,45.701984,4.9111,23.27,194.2,0,0.0,0,0.0,0.5133,1,0.34,1.3924
83563,1560695003399,3,0.39,1.92,3.66,2.28,5.05,0.84,-0.91,0.52,42,-5,54,1.24,5158,34,77,35,79,1073,279.0,444,462,60,121.0,284,1,291,404,79,0,0,651,-1532,-1,279,,,,,,,,,,,,
83583,1560695003419,-2,0.37,1.92,3.66,2.28,5.06,0.79,-0.91,0.46,42,-3,53,1.2,5228,34,77,35,79,1061,281.0,447,467,60,122.0,284,1,296,407,79,0,0,81,-17920,-1,281,,,,,,,,,,,,
83603,1560695003439,-1,0.33,1.92,3.66,2.3,5.07,0.79,-0.98,0.52,44,-4,56,1.26,5357,34,77,35,78,1050,281.0,461,460,60,122.0,284,1,304,403,79,0,0,265,250,250,281,,,,,,,,,,,,
83623,1560695003459,1,2.91,1.93,3.64,2.32,5.04,0.83,-0.94,0.5,44,-3,57,1.25,5317,34,77,35,77,1047,281.0,470,465,60,120.0,284,1,303,389,79,0,0,279,-17920,250,282,,,,,,,,,,,,
83643,1560695003479,0,2.84,1.93,3.63,2.32,5.04,0.72,-1.0,0.56,45,-3,57,1.23,5290,34,77,35,77,1052,282.0,472,455,60,122.0,273,1,300,387,77,0,0,298,15360,250,284,45.701977,4.911106,23.13,194.2,0,0.0,0,0.0,0.515,1,0.34,1.394
83663,1560695003499,3,2.79,1.95,3.55,2.34,5.04,0.8,-0.98,0.58,44,-2,58,1.26,5287,34,77,35,77,1059,285.0,470,467,60,120.0,273,1,300,386,77,0,0,275,1596,630,285,,,,,,,,,,,,
83683,1560695003519,1,2.73,1.99,3.48,2.33,5.07,0.68,-0.98,0.58,45,-0,58,1.19,5257,35,77,35,77,1069,285.0,472,457,60,122.0,273,1,298,385,77,0,0,266,-1496,1886,285,,,,,,,,,,,,
83703,1560695003539,1,2.67,2.06,3.4,2.33,5.07,0.69,-0.9,0.55,43,1,58,1.13,5153,35,77,35,78,1077,285.0,448,463,60,120.0,273,1,291,391,77,0,0,269,-1494,1886,285,,,,,,,,,,,,
83723,1560695003559,3,2.6,2.15,3.31,2.32,5.06,0.68,-0.85,0.62,42,1,59,1.09,5077,35,77,35,78,1082,284.0,362,454,60,120.0,273,1,286,386,77,0,0,251,-1484,24064,284,,,,,,,,,,,,
83743,1560695003579,-0,2.54,2.21,3.21,2.32,5.05,0.68,-0.81,0.66,39,3,57,1.06,4966,35,77,35,79,1087,284.0,351,463,60,121.0,260,1,282,393,74,0,0,250,250,-1529,282,45.701977,4.911112,22.63,194.2,0,0.0,0,0.0,0.5167,1,0.34,1.3957
83763,1560695003599,-2,2.47,2.28,3.13,2.31,5.05,0.76,-0.66,0.71,36,-0,56,1.01,4794,36,77,35,80,1090,282.0,346,470,60,121.0,260,1,285,398,74,0,0,257,-214,-1534,282,,,,,,,,,,,,
83783,1560695003619,-1,2.38,2.34,3.06,2.27,5.07,0.7,-0.5,0.68,34,-1,53,0.86,4734,37,77,35,81,1092,281.0,331,462,60,119.0,260,1,286,409,74,0,0,257,-1,250,281,,,,,,,,,,,,
83803,1560695003639,2,2.31,2.38,3.03,2.23,5.07,0.64,-0.41,0.65,32,0,49,0.76,4810,38,77,35,82,1090,277.0,352,450,60,121.0,260,1,285,426,74,0,0,258,-41,250,277,,,,,,,,,,,,
83823,1560695003659,1,2.23,2.39,3.03,2.15,5.04,0.64,-0.33,0.64,29,0,45,0.72,4916,40,77,35,83,1087,274.0,358,458,60,122.0,260,1,283,446,74,0,0,261,-1,250,274,,,,,,,,,,,,
83843,1560695003679,1,2.16,2.39,3.04,2.11,5.04,0.74,-0.23,0.61,24,-1,40,0.77,5093,41,77,35,83,1076,271.0,380,460,60,122.0,321,1,286,453,87,0,0,267,-1,-1,271,45.701969,4.911116,23.79,194.2,0,0.0,0,0.0,0.5183,1,0.34,1.3974
83863,1560695003699,1,2.1,2.4,3.04,2.11,5.04,0.68,-0.17,0.65,23,-1,37,0.7,5305,42,77,35,82,1068,269.0,408,456,60,121.0,321,1,300,446,87,0,0,272,-1281,-1281,268,,,,,,,,,,,,
83883,1560695003719,1,2.05,2.44,3.02,2.09,5.04,0.72,-0.15,0.64,17,-0,32,0.74,5337,42,77,35,82,1059,276.0,432,463,60,120.0,321,1,305,446,87,0,0,277,250,28160,266,,,,,,,,,,,,
83903,1560695003739,-1,2.0,2.46,2.94,2.06,5.08,0.69,-0.07,0.72,14,-0,27,0.69,5431,43,77,35,81,1051,281.0,447,456,60,122.0,321,1,308,438,87,0,0,286,24064,250,265,,,,,,,,,,,,
83923,1560695003759,6,1.96,2.52,2.86,2.04,5.04,0.7,0.01,0.69,11,2,23,0.7,5477,43,77,35,81,1039,288.0,466,463,60,120.0,321,1,311,440,87,0,0,290,0,-1529,265,,,,,,,,,,,,
83943,1560695003779,2,1.92,2.58,2.83,2.04,5.05,0.73,0.09,0.67,7,2,18,0.73,5516,43,77,35,80,1028,291.0,476,463,60,122.0,321,1,314,432,87,0,0,293,20480,21760,265,45.701965,4.91112,25.06,194.2,0,0.0,0,0.0,0.52,1,0.34,1.399
83963,1560695003799,1,1.89,2.61,2.83,2.03,5.06,0.72,0.19,0.76,4,0,13,0.75,5522,44,77,35,80,1026,294.0,479,460,60,122.0,339,1,314,432,90,0,0,296,90,100,268,,,,,,,,,,,,
83983,1560695003819,1,1.85,2.62,2.83,2.04,5.05,0.71,0.21,0.73,2,1,8,0.74,5597,46,77,35,80,1023,299.0,485,459,60,119.0,339,1,319,435,90,0,0,304,25600,24320,270,,,,,,,,,,,,
84003,1560695003839,3,1.82,2.61,2.83,2.04,5.08,0.72,0.28,0.65,-1,1,4,0.78,5678,46,77,35,80,1024,301.0,497,462,60,119.0,339,1,325,437,90,0,0,305,26880,30720,271,,,,,,,,,,,,
84023,1560695003859,3,1.77,2.62,2.84,2.03,5.04,0.69,0.31,0.62,-4,1,1,0.76,5769,47,77,35,80,1024,305.0,503,469,60,121.0,339,1,330,443,90,0,0,307,29440,165,271,,,,,,,,,,,,
84043,1560695003879,4,1.74,2.61,2.89,2.04,5.04,0.59,0.33,0.58,-5,0,-2,0.68,5961,48,77,35,80,1028,308.0,518,462,60,120.0,339,1,343,452,90,0,0,313,120,140,271,45.701958,4.911125,25.77,194.2,0,0.0,0,0.0,0.5217,1,0.34,1.4007
84063,1560695003901,3,1.74,2.63,2.92,2.03,5.07,0.5,0.42,0.52,-7,2,-5,0.66,6117,48,77,35,80,1033,310.0,528,467,60,120.0,376,1,349,456,102,0,0,319,125,-27136,273,,,,,,,,,,,,
84083,1560695003921,3,1.74,2.63,2.89,2.04,5.05,0.42,0.52,0.42,-9,2,-8,0.66,6171,50,77,35,81,1031,317.0,543,471,60,120.0,376,1,350,463,102,0,0,324,-28416,13,274,,,,,,,,,,,,
84103,1560695003941,-0,1.74,2.63,2.82,2.03,5.04,0.36,0.57,0.41,-11,3,-11,0.67,6237,51,77,34,81,1028,319.0,550,460,60,120.0,376,1,353,468,102,0,0,329,-27136,2560,275,,,,,,,,,,,,
84123,1560695003961,-1,1.77,2.63,2.79,2.02,5.07,0.41,0.5,0.45,-13,5,-14,0.64,6235,52,77,34,82,1026,327.0,552,465,60,119.0,376,1,352,474,102,0,0,331,-22016,155,277,,,,,,,,,,,,
84143,1560695003981,1,1.81,2.63,2.79,2.01,5.04,0.45,0.46,0.55,-15,5,-18,0.64,6235,53,77,34,83,1022,331.0,557,460,60,122.0,376,1,351,479,102,0,0,336,-12032,8841,283,45.701954,4.91113,27.34,194.2,0,0.0,0,0.0,0.5233,1,0.34,1.4024
84163,1560695003993,3,1.86,2.63,2.79,1.99,5.05,0.52,0.53,0.65,-18,3,-21,0.75,6281,56,77,34,83,1012,337.0,557,458,60,121.0,399,1,352,480,113,0,0,342,2560,2060,288,,,,,,,,,,,,
84183,1560695004013,6,1.91,2.63,2.79,1.99,5.05,0.55,0.65,0.63,-21,1,-24,0.85,6386,59,77,34,85,995,338.0,562,459,60,120.0,399,1,352,490,113,0,0,343,6668,3346,289,,,,,,,,,,,,
84203,1560695004033,1,1.96,2.63,2.8,2.0,5.04,0.49,0.65,0.64,-22,3,-26,0.82,6483,61,77,34,86,987,343.0,571,461,60,120.0,399,1,353,496,113,0,0,346,-14714,-22016,293,,,,,,,,,,,,
84223,1560695004053,3,1.99,2.63,2.85,2.01,5.07,0.53,0.48,0.73,-22,3,-28,0.72,6512,62,77,34,87,979,345.0,574,463,60,121.0,399,1,352,502,113,0,0,348,6870,6870,301,,,,,,,,,,,,
84243,1560695004073,1,2.02,2.62,2.87,2.04,5.07,0.5,0.58,0.78,-23,4,-29,0.77,6588,65,77,34,88,973,347.0,582,462,60,121.0,416,1,353,508,127,0,0,350,-30438,486,305,45.701946,4.911135,28.68,194.2,0,0.0,0,0.0,0.525,1,0.34,1.404
84263,1560695004101,3,2.04,2.63,2.87,2.05,5.05,0.52,0.56,0.83,-23,4,-30,0.76,6754,66,77,34,88,964,348.0,583,458,60,121.0,416,1,362,515,127,0,0,353,-1246,2811,309,,,,,,,,,,,,
84283,1560695004121,1,2.08,2.62,2.87,2.08,5.07,0.46,0.61,0.86,-23,3,-31,0.76,6833,67,77,34,89,964,351.0,591,465,60,120.0,416,1,364,522,127,0,0,358,28553,-10554,316,,,,,,,,,,,,
84303,1560695004141,2,2.1,2.63,2.86,2.13,5.07,0.55,0.5,0.91,-23,3,-31,0.74,6823,67,77,34,89,966,352.0,595,460,60,120.0,416,1,364,521,127,0,0,358,3302,2060,320,,,,,,,,,,,,
84323,1560695004161,-1,2.12,2.63,2.85,2.13,5.05,0.39,0.56,0.93,-22,2,-29,0.68,6808,68,77,34,90,969,356.0,595,465,60,119.0,416,1,361,526,127,0,0,364,4104,-6656,328,,,,,,,,,,,,
84343,1560695004181,4,2.13,2.6,2.85,2.15,5.04,0.54,0.43,0.98,-21,2,-29,0.69,6823,69,77,34,89,971,360.0,593,461,60,121.0,416,1,364,521,127,0,0,366,-14707,-6640,334,45.701942,4.911142,30.26,194.2,0,0.0,0,0.0,0.5267,1,0.34,1.4057
84363,1560695004199,1,2.13,2.57,2.86,2.15,5.06,0.42,0.44,1.08,-20,3,-28,0.61,6828,71,77,34,90,971,364.0,594,458,60,120.0,404,1,362,528,135,0,0,372,-1268,-29302,343,,,,,,,,,,,,
84383,1560695004219,5,2.14,2.56,2.89,2.15,5.05,0.58,0.34,1.1,-20,-1,-28,0.67,6863,75,77,34,91,971,369.0,600,462,60,121.0,404,1,364,529,135,0,0,376,-6656,3082,350,,,,,,,,,,,,
84403,1560695004239,2,2.14,2.56,2.92,2.17,5.04,0.47,0.31,1.13,-18,3,-27,0.56,6970,79,77,34,92,960,373.0,592,462,60,119.0,404,1,369,532,135,0,0,380,-6656,-6656,353,,,,,,,,,,,,
84423,1560695004259,0,2.14,2.56,2.9,2.17,5.04,0.45,0.35,1.12,-18,2,-24,0.57,7059,81,77,34,93,934,375.0,598,464,60,120.0,404,1,374,534,135,0,0,381,3,-6656,359,,,,,,,,,,,,
84443,1560695004279,2,2.15,2.56,2.92,2.16,5.07,0.61,0.27,1.18,-19,-1,-24,0.66,7181,83,77,34,93,918,378.0,603,456,60,121.0,404,1,384,540,135,0,0,386,2278,240,362,45.701935,4.91115,31.93,194.3,0,0.0,0,0.0,0.5283,1,0.34,1.4074
84463,1560695004298,1,2.16,2.57,2.92,2.17,5.06,0.71,0.28,1.16,-18,-1,-24,0.76,7405,86,77,34,93,898,383.0,606,461,60,121.0,406,1,401,551,147,0,0,388,-19126,6512,367,,,,,,,,,,,,
84483,1560695004318,1,2.19,2.56,2.93,2.16,5.08,0.69,0.22,1.16,-17,1,-23,0.73,7612,88,77,34,92,873,386.0,613,458,60,121.0,406,1,417,559,147,0,0,394,-3866,18584,371,,,,,,,,,,,,
84503,1560695004338,3,2.2,2.56,2.93,2.2,5.04,0.75,0.17,1.17,-16,1,-22,0.77,7888,89,77,34,91,858,390.0,611,458,60,120.0,406,1,440,571,147,0,0,402,-1562,-1818,378,,,,,,,,,,,,
84523,1560695004358,5,2.22,2.56,2.91,2.26,5.04,0.62,0.2,1.22,-15,-1,-21,0.65,8047,90,77,34,91,843,395.0,615,459,60,120.0,406,1,448,574,147,0,0,414,17144,10392,381,,,,,,,,,,,,
84543,1560695004378,1,2.23,2.57,2.91,2.29,5.05,0.55,0.21,1.18,-14,3,-20,0.59,8061,90,77,34,89,843,400.0,622,463,60,121.0,446,1,447,571,174,0,0,430,-8151,13552,392,45.701931,4.911159,34.25,194.3,0,0.0,0,0.0,0.53,1,0.34,1.409
84563,1560695004400,4,2.24,2.59,2.89,2.33,5.07,0.59,0.26,1.17,-14,0,-18,0.65,8106,90,77,34,89,845,406.0,617,455,60,120.0,446,1,446,575,174,0,0,437,-26615,14488,401,,,,,,,,,,,,
84583,1560695004420,0,2.25,2.61,2.86,2.35,5.07,0.54,0.18,1.24,-13,-2,-18,0.57,8187,91,77,34,89,852,414.0,617,460,60,121.0,446,1,443,585,174,0,0,437,2524,3635,407,,,,,,,,,,,,
84603,1560695004440,3,2.26,2.6,2.88,2.35,5.08,0.52,0.23,1.19,-12,-1,-18,0.57,8223,91,77,34,89,855,420.0,622,462,60,120.0,446,1,442,589,174,0,0,446,-8165,10305,414,,,,,,,,,,,,
84623,1560695004460,1,2.28,2.59,2.93,2.35,5.08,0.5,0.24,1.27,-11,-2,-17,0.55,8325,92,77,34,89,860,427.0,612,458,60,121.0,446,1,439,591,174,0,0,461,31796,16648,421,,,,,,,,,,,,
84643,1560695004480,5,2.28,2.6,2.96,2.36,5.07,0.39,0.33,1.13,-10,-1,-16,0.51,8495,94,77,34,88,866,430.0,620,456,60,120.0,446,1,434,610,174,0,0,458,243,15649,427,45.701923,4.911169,36.4,194.3,0,0.0,0,0.0,0.5317,1,0.35,1.4107
84663,1560695004500,3,2.28,2.61,2.99,2.38,5.08,0.48,0.12,1.12,-9,-3,-14,0.5,8664,97,77,34,87,877,438.0,624,457,60,120.0,459,1,428,599,196,0,0,462,21580,-9160,434,,,,,,,,,,,,
84683,1560695004520,3,2.28,2.64,3.01,2.38,5.03,0.48,0.03,1.19,-9,-1,-12,0.48,8806,100,77,34,87,885,442.0,617,459,60,120.0,459,1,423,599,196,0,0,469,23400,10305,440,,,,,,,,,,,,
84703,1560695004540,3,2.28,2.66,3.0,2.4,5.07,0.56,-0.06,1.26,-8,-2,-12,0.56,8924,100,77,34,87,891,447.0,626,458,60,120.0,459,1,420,599,196,0,0,471,10305,10305,448,,,,,,,,,,,,
84723,1560695004560,5,2.28,2.67,3.0,2.42,5.04,0.55,-0.15,1.3,-7,-2,-10,0.58,9075,100,77,34,87,902,454.0,623,461,60,120.0,459,1,418,599,196,0,0,481,2524,-9203,452,,,,,,,,,,,,
84743,1560695004580,4,2.29,2.67,2.97,2.43,5.04,0.66,-0.33,1.3,-6,-1,-10,0.74,9164,100,77,34,86,919,460.0,624,456,60,120.0,455,1,418,599,208,0,0,479,-23623,-6528,460,45.701916,4.911179,39.53,194.3,0,0.0,0,0.0,0.5333,1,0.35,1.4124
84763,1560695004600,5,2.29,2.65,2.97,2.42,5.04,0.67,-0.44,1.35,-5,-3,-10,0.8,9200,100,77,34,87,933,467.0,627,458,60,120.0,455,1,418,588,208,0,0,499,30272,3,467,,,,,,,,,,,,
84783,1560695004620,8,2.3,2.62,2.97,2.42,5.06,0.7,-0.56,1.33,-4,-5,-9,0.9,9291,100,77,34,86,949,475.0,627,459,60,120.0,455,1,418,588,208,0,0,507,-1923,3,475,,,,,,,,,,,,
84803,1560695004640,1,2.3,2.6,3.01,2.42,5.04,0.48,-0.48,1.27,-3,-2,-7,0.68,9407,100,77,34,86,959,481.0,628,465,60,120.0,455,1,418,588,208,0,0,513,2212,6274,483,,,,,,,,,,,,
84823,1560695004660,4,2.3,2.6,3.05,2.43,5.04,0.48,-0.42,1.34,-2,-1,-6,0.64,9585,100,77,34,86,983,489.0,634,457,60,120.0,455,1,415,590,208,0,0,516,-6441,2524,489,,,,,,,,,,,,
84843,1560695004680,2,2.31,2.59,3.04,2.43,5.03,0.39,-0.37,1.34,-3,-2,-5,0.54,9760,100,77,34,85,1006,495.0,633,458,60,119.0,455,1,407,579,208,0,0,512,1,-22519,495,45.701912,4.911191,42.45,194.3,0,0.0,0,0.0,0.535,1,0.35,1.414
84863,1560695004700,5,2.31,2.59,3.03,2.43,5.08,0.36,-0.3,1.21,-2,-2,-4,0.47,9989,100,77,34,85,1018,502.0,639,458,60,120.0,436,1,396,582,216,0,0,519,3,-8186,502,,,,,,,,,,,,
84883,1560695004720,5,2.31,2.6,3.02,2.43,5.03,0.31,-0.22,1.25,-1,-0,-4,0.37,10113,100,77,34,85,1029,509.0,642,456,60,119.0,436,1,403,582,216,0,0,530,15661,2104,509,,,,,,,,,,,,
84903,1560695004740,2,2.32,2.58,3.01,2.46,5.05,0.26,-0.19,1.23,1,1,-3,0.32,10206,100,77,34,84,1030,516.0,632,461,60,119.0,436,1,409,582,216,0,0,555,-28648,-8186,516,,,,,,,,,,,,
84923,1560695004760,2,2.32,2.56,3.03,2.5,5.04,0.2,-0.28,1.14,1,2,-3,0.34,10273,100,77,34,85,1031,519.0,643,461,60,119.0,436,1,412,582,216,0,0,571,10994,-2934,521,,,,,,,,,,,,
84943,1560695004780,-1,2.31,2.56,3.04,2.5,5.08,0.23,-0.3,1.12,1,1,-1,0.38,10307,100,77,34,85,1023,527.0,638,460,60,120.0,430,1,421,582,227,0,0,564,1341,-28648,527,45.701904,4.911204,46.0,194.3,0,0.0,0,0.0,0.5367,1,0.35,1.4157
84963,1560695004800,2,2.3,2.58,3.03,2.49,5.04,0.28,-0.31,1.18,0,1,1,0.42,10434,100,77,34,85,1013,532.0,646,458,60,120.0,430,1,426,582,227,0,0,545,-22519,12552,532,,,,,,,,,,,,
84983,1560695004820,2,2.29,2.62,2.98,2.46,5.04,0.35,-0.22,1.13,0,0,1,0.41,10463,100,77,34,85,1000,536.0,646,460,60,120.0,430,1,428,582,227,0,0,552,2104,-1894,536,,,,,,,,,,,,
85003,1560695004840,3,2.29,2.63,2.95,2.46,5.05,0.4,-0.22,1.06,1,-2,2,0.45,10641,100,77,34,85,987,542.0,645,461,60,120.0,430,1,433,582,227,0,0,560,-30064,1780,542,,,,,,,,,,,,
85023,1560695004860,3,2.28,2.61,3.02,2.46,5.05,0.35,-0.25,1.04,3,-1,1,0.43,10708,100,77,34,84,982,549.0,646,458,60,120.0,430,1,437,564,227,0,0,582,1779,1780,549,,,,,,,,,,,,
85043,1560695004880,4,2.28,2.57,3.07,2.45,5.04,0.43,-0.13,1.06,3,0,1,0.45,10825,100,77,34,84,979,555.0,642,457,60,119.0,416,1,438,564,231,0,0,603,2104,774,555,45.701897,4.911217,48.78,194.3,0,0.0,0,0.0,0.5383,1,0.35,1.4174
85063,1560695004900,8,2.27,2.53,3.08,2.44,5.03,0.5,-0.27,1.16,2,-1,1,0.57,10990,100,77,34,84,977,560.0,648,460,60,119.0,416,1,442,564,231,0,0,594,-22263,1760,560,,,,,,,,,,,,
85083,1560695004920,3,2.28,2.54,3.1,2.44,5.06,0.4,-0.12,0.99,1,1,2,0.42,11075,100,77,34,84,974,563.0,650,460,60,120.0,416,1,443,564,231,0,0,585,2211,17344,563,,,,,,,,,,,,
85103,1560695004940,6,2.28,2.6,3.04,2.42,5.04,0.43,-0.07,1.0,1,2,3,0.44,11194,100,77,34,84,973,569.0,651,461,60,119.0,416,1,442,564,231,0,0,586,-3190,1010,569,,,,,,,,,,,,
85123,1560695004960,4,2.27,2.64,3.01,2.39,5.05,0.36,-0.09,1.04,1,1,1,0.37,11349,100,77,33,84,972,574.0,656,460,60,120.0,416,1,441,564,231,0,0,597,1760,19320,574,,,,,,,,,,,,
85143,1560695004980,3,2.27,2.64,2.97,2.4,5.04,0.45,-0.09,1.1,2,-0,-1,0.46,11460,100,77,33,84,968,580.0,649,466,60,119.0,416,1,441,564,231,0,0,602,1,4956,581,45.701889,4.911232,51.72,194.3,0,0.0,0,0.0,0.54,1,0.35,1.419
85163,1560695004994,5,2.26,2.62,2.95,2.41,5.05,0.39,-0.1,1.06,2,1,-0,0.4,11439,100,77,33,84,964,588.0,652,458,60,119.0,422,1,441,564,245,0,0,612,15649,-7939,588,,,,,,,,,,,,
85183,1560695005014,5,2.26,2.59,2.96,2.43,5.07,0.38,-0.21,1.09,2,1,-0,0.44,11460,100,77,33,84,959,589.0,654,458,60,120.0,422,1,441,564,245,0,0,630,-12040,269,593,,,,,,,,,,,,
85203,1560695005034,7,2.26,2.57,2.96,2.44,5.05,0.42,-0.09,1.18,1,1,2,0.43,11510,100,77,33,84,955,598.0,661,453,60,119.0,422,1,440,564,245,0,0,624,-16179,3395,598,,,,,,,,,,,,
85223,1560695005054,4,2.27,2.58,2.96,2.43,5.08,0.42,0.03,1.15,-0,1,2,0.42,11617,100,77,33,83,943,600.0,661,457,60,119.0,422,1,440,548,245,0,0,626,-3210,6208,600,,,,,,,,,,,,
85243,1560695005074,7,2.25,2.59,2.93,2.42,5.04,0.43,0.02,1.01,-1,-2,1,0.43,11777,100,77,33,83,923,606.0,664,457,60,119.0,422,1,440,553,245,0,0,623,-7939,-3584,606,45.701878,4.911246,54.41,194.3,0,0.0,0,0.0,0.5417,1,0.35,1.4207
85263,1560695005100,5,2.26,2.57,2.94,2.4,5.03,0.43,-0.03,1.1,-1,-1,2,0.43,11919,100,77,33,83,906,614.0,666,462,60,120.0,407,1,440,557,247,0,0,635,28675,-5120,614,,,,,,,,,,,,
85283,1560695005120,6,2.27,2.56,2.95,2.37,5.05,0.48,-0.14,1.17,-1,1,2,0.5,12034,100,77,33,83,890,619.0,666,458,60,120.0,407,1,440,560,247,0,0,645,30721,-2836,619,,,,,,,,,,,,
85303,1560695005140,5,2.27,2.53,3.0,2.37,5.08,0.43,-0.13,1.21,-1,4,2,0.45,12128,100,77,33,83,870,624.0,670,458,60,120.0,407,1,440,560,247,0,0,657,3395,-6006,623,,,,,,,,,,,,
85323,1560695005160,5,2.27,2.53,3.04,2.36,5.04,0.43,-0.12,1.26,-1,7,2,0.44,12183,100,77,33,83,847,629.0,667,458,60,119.0,407,1,440,560,247,0,0,667,-14655,-6006,627,,,,,,,,,,,,
85343,1560695005180,-2,2.27,2.53,3.03,2.36,5.08,0.41,0.04,1.13,-2,7,4,0.41,12262,100,77,33,83,828,636.0,672,457,60,120.0,413,1,440,560,261,0,0,654,-2580,2024,631,45.701874,4.911262,57.1,194.3,0,0.0,0,0.0,0.5433,1,0.35,1.4224
85363,1560695005200,-1,2.26,2.6,2.97,2.36,5.05,0.34,0.17,0.95,-3,7,5,0.38,11777,100,77,33,84,822,633.0,677,456,60,123.0,413,1,440,574,261,0,0,655,-5120,-3488,630,,,,,,,,,,,,
85383,1560695005220,1,2.27,2.59,2.92,2.35,5.07,0.44,0.06,0.86,-3,6,4,0.44,11322,100,77,33,86,817,641.0,677,460,60,122.0,413,1,442,601,261,0,0,649,6208,-3584,637,,,,,,,,,,,,
85403,1560695005240,0,2.28,2.56,2.98,2.32,5.04,0.45,0.17,0.76,-2,4,4,0.48,11003,100,77,33,87,811,638.0,667,461,60,122.0,413,1,446,620,261,0,0,639,-3584,-2836,638,,,,,,,,,,,,
85423,1560695005260,-0,2.26,2.54,3.09,2.3,5.04,0.44,0.16,0.83,-1,0,2,0.46,10775,100,77,33,87,807,639.0,665,462,60,122.0,413,1,440,620,261,0,0,641,16599,-4876,639,,,,,,,,,,,,
85443,1560695005280,1,2.26,2.47,3.25,2.3,5.03,0.45,0.11,0.91,-1,1,1,0.47,10623,100,77,33,88,809,638.0,661,462,60,122.0,402,1,437,639,257,0,0,633,-2836,16599,638,45.701862,4.911278,59.78,194.3,0,0.0,0,0.0,0.545,1,0.36,1.424
85463,1560695005299,6,2.26,2.43,3.36,2.3,5.04,0.35,0.22,0.88,0,-1,3,0.41,10336,100,77,33,88,838,641.0,652,451,60,119.0,402,1,422,1142,257,0,0,643,-2580,24583,638,,,,,,,,,,,,
85483,1560695005319,0,2.26,2.45,3.3,2.3,5.06,0.37,0.13,0.91,1,1,4,0.39,9650,100,77,33,88,949,644.0,635,460,60,118.0,402,1,413,995,257,0,0,704,-2830,-12152,644,,,,,,,,,,,,
85503,1560695005339,5,2.26,2.5,3.2,2.34,5.03,0.16,0.23,0.87,1,4,3,0.28,9484,100,77,33,87,1058,647.0,632,462,60,119.0,402,1,418,853,257,0,0,740,11566,-2356,647,,,,,,,,,,,,
85523,1560695005359,5,2.26,2.54,3.16,2.36,5.04,0.33,0.1,0.98,1,2,1,0.34,9796,100,77,33,86,1168,652.0,645,453,60,120.0,402,1,405,745,257,0,0,695,479,24,652,,,,,,,,,,,,
85543,1560695005379,5,2.26,2.53,3.13,2.38,5.06,0.27,0.13,1.03,1,1,2,0.3,9899,100,77,33,85,1278,657.0,636,460,60,119.0,402,1,400,631,257,0,0,695,-388,-10399,662,45.701855,4.911295,62.03,194.3,0,0.0,0,0.0,0.5467,1,0.36,1.4257
85563,1560695005399,6,2.26,2.58,3.02,2.42,5.07,0.38,-0.05,1.08,-0,0,1,0.38,9650,100,77,33,85,1389,662.0,638,460,60,119.0,354,1,412,578,235,0,0,726,-2826,-2560,662,,,,,,,,,,,,
85583,1560695005419,2,2.26,2.66,2.98,2.45,5.06,0.23,0.12,1.04,-0,2,2,0.26,9426,100,77,33,86,1498,667.0,636,453,60,119.0,354,1,418,576,235,0,0,715,-2830,-388,667,,,,,,,,,,,,
85603,1560695005439,4,2.26,2.71,2.94,2.45,5.04,0.21,0.16,1.07,-1,-3,2,0.27,9422,100,77,33,86,1498,672.0,628,458,60,120.0,354,1,418,588,235,0,0,699,-3038,11069,669,,,,,,,,,,,,
85623,1560695005459,6,2.27,2.71,2.98,2.44,5.05,0.39,-0.02,1.16,-1,-1,-0,0.39,9484,100,78,33,86,1484,677.0,640,456,60,120.0,354,1,418,588,235,0,0,702,-26892,-20693,676,,,,,,,,,,,,
85643,1560695005479,3,2.25,2.66,3.07,2.41,5.05,0.26,-0.0,1.17,-0,-2,-0,0.26,9585,100,78,33,86,1390,683.0,638,464,60,120.0,354,1,415,590,235,0,0,714,3543,6658,681,45.701843,4.911313,62.62,194.4,0,0.0,0,0.0,0.5483,1,0.36,1.4274
85663,1560695005499,5,2.26,2.6,3.14,2.39,5.06,0.3,-0.03,1.23,-0,0,-0,0.3,9704,100,78,33,85,1296,693.0,637,460,60,120.0,313,1,409,578,214,0,0,729,1780,-13072,686,,,,,,,,,,,,
85683,1560695005519,4,2.27,2.59,3.14,2.37,5.05,0.25,0.1,1.25,-0,4,-1,0.27,9899,100,78,33,85,1202,695.0,645,462,60,120.0,313,1,400,581,214,0,0,722,-10448,-3344,692,,,,,,,,,,,,
85703,1560695005539,7,2.26,2.59,3.11,2.35,5.05,0.24,-0.0,1.27,-0,0,-1,0.24,10005,100,78,33,85,1109,697.0,645,461,60,120.0,313,1,395,582,214,0,0,720,16599,-2826,698,,,,,,,,,,,,
85723,1560695005559,3,2.27,2.59,3.01,2.36,5.08,0.22,0.1,1.16,-0,1,-0,0.24,10021,100,78,33,85,1026,703.0,646,455,60,120.0,313,1,396,582,214,0,0,727,-20693,-3580,701,,,,,,,,,,,,
85743,1560695005579,4,2.27,2.58,2.93,2.35,5.08,0.25,0.13,1.2,-0,4,0,0.28,9973,100,78,33,85,945,711.0,645,456,60,119.0,313,1,397,581,214,0,0,733,-13072,-3344,710,45.701832,4.911331,65.06,194.4,0,0.0,0,0.0,0.55,1,0.36,1.429
85763,1560695005599,6,2.26,2.58,2.91,2.36,5.05,0.35,0.06,1.21,-1,2,2,0.35,9915,100,78,33,85,947,714.0,638,457,60,120.0,310,1,399,581,220,0,0,739,-13312,-3580,713,,,,,,,,,,,,
85783,1560695005619,2,2.27,2.6,2.92,2.38,5.06,0.22,0.22,1.17,-1,1,3,0.31,9878,100,78,33,85,960,715.0,639,459,60,120.0,310,1,401,581,220,0,0,741,204,-13068,715,,,,,,,,,,,,
85803,1560695005639,0,2.27,2.63,2.92,2.4,5.07,0.38,0.15,1.14,-2,1,0,0.41,9984,100,78,33,85,973,718.0,644,464,60,120.0,310,1,396,582,220,0,0,738,-2560,-23308,717,,,,,,,,,,,,
85823,1560695005659,5,2.27,2.64,2.99,2.41,5.04,0.36,0.11,1.04,-2,-4,1,0.38,10140,100,78,33,85,987,720.0,642,456,60,120.0,310,1,405,582,220,0,0,746,-2830,1037,721,,,,,,,,,,,,
85843,1560695005679,5,2.28,2.69,3.09,2.39,5.08,0.33,0.13,1.0,-1,-4,1,0.35,10234,100,78,33,85,991,725.0,640,458,60,120.0,314,1,411,582,226,0,0,753,-4091,-2574,719,45.70182,4.911349,66.95,194.3,0,0.0,0,0.0,0.5517,1,0.36,1.4307
85863,1560695005701,5,2.27,2.68,3.22,2.37,5.04,0.38,0.07,1.03,-0,-5,-1,0.38,10387,100,78,33,85,993,731.0,647,460,60,120.0,314,1,423,582,226,0,0,772,-2314,-3368,728,,,,,,,,,,,,
85883,1560695005721,5,2.26,2.65,3.34,2.36,5.08,0.34,-0.01,1.05,0,-6,-2,0.34,10504,100,78,33,85,992,738.0,652,463,60,120.0,314,1,431,582,226,0,0,797,-2830,-2570,734,,,,,,,,,,,,
85903,1560695005741,5,2.27,2.61,3.34,2.35,5.08,0.36,-0.03,1.06,-1,-5,-1,0.36,10726,100,78,33,85,992,740.0,652,458,60,120.0,314,1,436,582,226,0,0,791,-2826,-10214,740,,,,,,,,,,,,
85923,1560695005761,1,2.27,2.55,3.24,2.29,5.03,0.28,-0.0,1.15,-1,1,-1,0.28,10769,100,78,33,85,990,748.0,658,456,60,120.0,314,1,437,582,226,0,0,775,-4096,-22796,743,,,,,,,,,,,,
85943,1560695005781,3,2.28,2.54,3.07,2.26,5.04,0.34,0.01,1.06,-0,0,-1,0.34,10907,100,78,33,84,987,753.0,659,461,60,120.0,314,1,440,564,226,0,0,770,-3450,-30694,751,45.701813,4.911368,69.98,194.3,0,0.0,0,0.0,0.5533,1,0.37,1.4324
85963,1560695005801,5,2.27,2.53,2.95,2.26,5.07,0.27,0.1,1.07,-0,0,-1,0.29,10844,100,78,33,84,984,756.0,648,458,60,119.0,311,1,438,564,233,0,0,787,-31066,-2426,755,,,,,,,,,,,,
85983,1560695005821,5,2.26,2.52,2.88,2.29,5.04,0.3,0.09,1.1,1,2,-1,0.32,10611,100,78,33,84,981,763.0,646,458,60,120.0,311,1,432,564,233,0,0,792,-10218,5876,763,,,,,,,,,,,,
86003,1560695005841,4,2.26,2.5,2.73,2.31,5.07,0.36,0.04,1.13,-0,2,0,0.36,10498,100,78,33,85,980,767.0,649,461,60,119.0,311,1,430,582,233,0,0,784,-2826,3544,764,,,,,,,,,,,,
86023,1560695005861,4,2.26,2.52,2.74,2.32,5.04,0.38,0.17,1.21,-0,4,0,0.42,10445,100,78,33,85,979,768.0,645,453,60,120.0,311,1,427,582,233,0,0,785,-2826,-3450,768,,,,,,,,,,,,
86043,1560695005881,6,2.27,2.54,2.76,2.32,5.07,0.47,0.16,1.21,-1,-1,-1,0.49,10617,100,78,33,85,975,769.0,648,458,60,120.0,304,1,434,582,234,0,0,785,6900,-2344,769,45.701798,4.911388,71.5,194.3,0,0.0,0,0.0,0.555,1,0.37,1.434
86063,1560695005901,6,2.26,2.56,2.9,2.32,5.05,0.38,0.13,1.28,-0,-4,0,0.4,10769,100,78,33,84,971,772.0,650,462,60,119.0,304,1,436,582,234,0,0,790,-3368,5344,770,,,,,,,,,,,,
86083,1560695005921,2,2.26,2.61,3.08,2.33,5.04,0.32,0.1,1.19,0,-5,-1,0.33,10984,100,78,33,84,967,776.0,660,461,60,120.0,304,1,442,564,234,0,0,805,-2830,-13312,769,,,,,,,,,,,,
86103,1560695005941,4,2.27,2.63,3.26,2.35,5.03,0.26,0.07,1.01,0,-3,-3,0.27,11114,91,78,33,83,962,777.0,656,461,60,119.0,304,1,442,545,234,0,0,812,-2830,6790,775,,,,,,,,,,,,
86123,1560695005961,3,2.26,2.65,3.39,2.42,5.06,0.32,0.03,1.02,1,-5,-2,0.32,11241,79,78,33,81,957,778.0,652,458,60,120.0,304,1,443,529,234,0,0,840,-23308,-2826,777,,,,,,,,,,,,
86143,1560695005981,6,2.26,2.65,3.4,2.48,5.06,0.38,0.07,0.99,-1,-9,2,0.39,11453,64,78,33,75,949,782.0,663,460,60,119.0,304,1,442,485,234,0,0,841,-2574,-2314,781,45.70179,4.911408,72.93,194.3,0,0.0,0,0.0,0.5567,1,0.37,1.4357
86163,1560695005995,4,2.26,2.66,3.37,2.46,5.04,0.34,0.05,1.05,-1,-7,1,0.34,11460,49,78,33,66,943,787.0,670,460,60,120.0,268,1,441,444,210,0,0,841,6389,-3335,780,,,,,,,,,,,,
86183,1560695006015,7,2.27,2.64,3.32,2.45,5.07,0.41,0.05,0.79,-1,-6,-0,0.41,11207,36,78,33,59,939,788.0,662,460,60,120.0,268,1,432,381,210,0,0,818,11277,-2311,793,,,,,,,,,,,,
86203,1560695006035,6,2.27,2.63,3.34,2.45,5.04,0.33,0.16,0.69,-0,-4,1,0.37,10738,23,78,33,51,928,795.0,666,460,60,120.0,268,1,391,307,210,0,0,824,11277,-30694,795,,,,,,,,,,,,
86223,1560695006055,12,2.27,2.61,3.34,2.43,5.04,0.4,0.15,0.67,-1,-7,0,0.43,10486,15,78,33,45,907,794.0,662,461,60,120.0,268,1,365,244,210,0,0,802,-2540,-2540,787,,,,,,,,,,,,
86243,1560695006075,14,2.27,2.55,3.32,2.29,5.07,0.39,0.14,0.61,-0,-6,-2,0.41,10245,13,78,33,41,888,789.0,650,457,60,120.0,268,1,335,225,210,0,0,790,-2570,6389,787,45.701778,4.911429,76.01,194.3,0,0.0,0,0.0,0.5583,1,0.37,1.4374
86263,1560695006101,11,2.28,2.41,3.32,2.1,5.05,0.42,0.11,0.57,-1,-5,-1,0.44,10080,13,78,33,37,872,788.0,655,462,60,120.0,110,1,314,215,87,0,0,780,-10216,-22795,785,,,,,,,,,,,,
86283,1560695006121,17,2.27,2.35,3.32,2.06,5.04,0.56,-0.01,0.56,-1,-7,-1,0.56,9904,12,78,33,35,854,781.0,651,462,60,120.0,110,1,308,210,87,0,0,776,-2826,-22795,780,,,,,,,,,,,,
86303,1560695006141,17,2.27,2.26,3.32,2.04,5.04,0.54,0.04,0.51,0,-6,-1,0.54,9694,12,78,33,33,833,778.0,653,462,60,120.0,110,1,302,203,87,0,0,772,-2574,7413,777,,,,,,,,,,,,
86323,1560695006161,21,2.28,2.11,3.33,1.96,5.06,0.57,0.1,0.38,1,-5,-0,0.58,9679,11,78,33,32,815,778.0,653,461,60,121.0,110,1,300,201,87,0,0,746,-3368,-31068,778,,,,,,,,,,,,
86343,1560695006181,18,2.27,1.97,3.32,1.84,5.06,0.65,0.05,0.37,1,-5,-1,0.65,9780,10,78,33,30,810,773.0,653,463,60,120.0,110,1,291,198,87,0,0,748,6900,-2826,773,45.701763,4.911451,76.81,194.3,0,0.0,0,0.0,0.56,1,0.37,1.439
86363,1560695006201,21,2.28,1.84,3.46,1.75,5.07,0.79,0.1,0.42,2,-6,1,0.79,9832,10,78,33,29,811,770.0,654,460,60,120.0,94,1,287,197,73,0,0,713,6389,-31066,770,,,,,,,,,,,,
86383,1560695006221,16,2.28,1.83,3.54,1.73,5.05,0.75,0.07,0.33,2,-5,1,0.75,9750,9,78,33,28,830,764.0,653,461,60,120.0,94,1,282,194,73,0,0,679,5876,-31066,764,,,,,,,,,,,,
86403,1560695006241,21,2.26,1.84,3.54,1.72,5.06,0.87,0.0,0.26,2,-4,0,0.87,9640,9,78,33,27,850,758.0,646,466,60,120.0,94,1,278,191,73,0,0,703,-22795,-22796,757,,,,,,,,,,,,
86423,1560695006261,17,2.27,1.83,3.47,1.71,5.05,0.91,-0.1,0.25,1,-1,0,0.92,9635,8,78,32,27,874,751.0,649,458,60,120.0,94,1,278,191,73,0,0,730,-2830,-4091,751,,,,,,,,,,,,
86443,1560695006281,20,2.26,1.83,3.41,1.68,5.04,1.0,-0.05,0.24,1,-2,-0,1.0,9650,8,78,32,26,896,742.0,650,463,60,121.0,94,1,274,189,73,0,0,721,-2826,-2918,741,45.701756,4.911472,76.66,194.2,0,0.0,0,0.0,0.5617,1,0.38,1.4407
86463,1560695006300,18,2.26,1.83,3.4,1.67,5.06,1.06,-0.08,0.21,1,-2,-1,1.06,9654,8,78,32,25,906,739.0,655,463,60,120.0,93,1,270,188,69,0,0,722,-31066,-3450,739,,,,,,,,,,,,
86483,1560695006320,21,2.26,1.82,3.41,1.67,5.05,1.05,-0.04,0.1,1,-2,-0,1.05,9674,8,78,32,25,916,730.0,653,461,60,121.0,93,1,270,188,69,0,0,703,-2358,24,727,,,,,,,,,,,,
86503,1560695006340,17,2.27,1.83,3.44,1.67,5.04,1.08,-0.12,0.17,0,-2,0,1.09,9645,8,78,32,24,901,724.0,653,463,60,120.0,93,1,270,182,69,0,0,704,-2918,-20693,723,,,,,,,,,,,,
86523,1560695006360,17,2.26,1.83,3.44,1.66,5.08,1.0,-0.07,0.14,1,0,-1,1.0,9561,8,78,32,24,887,718.0,653,459,60,121.0,93,1,270,182,69,0,0,712,-2560,12333,716,,,,,,,,,,,,
86543,1560695006380,19,2.27,1.85,3.43,1.66,5.07,1.1,-0.05,0.07,-0,-3,-1,1.1,9479,8,78,32,23,863,714.0,646,461,60,120.0,88,1,270,176,63,0,0,699,204,11576,710,45.70174,4.911494,74.27,194.2,0,0.0,0,0.0,0.5633,1,0.38,1.4424
86563,1560695006400,18,2.27,1.84,3.45,1.66,5.05,1.17,-0.17,0.16,0,-2,-1,1.18,9398,8,78,32,23,839,706.0,650,465,60,120.0,88,1,270,176,63,0,0,689,687,-3584,705,,,,,,,,,,,,
86583,1560695006420,18,2.26,1.83,3.45,1.65,5.06,1.08,-0.15,0.11,1,0,-1,1.09,9241,8,78,32,23,830,703.0,641,460,60,120.0,88,1,270,176,63,0,0,689,15647,1780,703,,,,,,,,,,,,
86603,1560695006440,17,2.26,1.83,3.44,1.66,5.03,0.88,0.01,-0.08,1,-0,-1,0.88,9150,8,78,32,23,820,698.0,641,460,60,120.0,88,1,270,176,63,0,0,674,24,-388,694,,,,,,,,,,,,
86623,1560695006460,15,2.27,1.84,3.43,1.65,5.07,0.89,0.17,-0.12,0,3,-2,0.91,9066,8,78,32,22,808,692.0,640,461,60,120.0,88,1,270,170,63,0,0,679,-2830,-26892,689,,,,,,,,,,,,
86643,1560695006480,18,2.27,1.84,3.41,1.65,5.05,0.86,0.26,-0.05,1,-0,-3,0.9,9023,8,78,32,22,796,687.0,638,462,60,121.0,88,1,270,170,63,0,0,659,16599,-3038,683,45.701729,4.911514,71.48,194.1,0,0.0,0,0.0,0.565,1,0.38,1.4441
86663,1560695006500,15,2.29,1.83,3.41,1.66,5.05,0.82,0.33,-0.14,1,-0,-3,0.89,8967,8,78,32,22,791,680.0,638,463,60,121.0,84,1,270,170,58,0,0,195,-26380,3543,676,,,,,,,,,,,,
86683,1560695006520,15,2.29,1.83,3.41,1.65,5.06,0.77,0.41,-0.24,2,-0,-1,0.87,8911,8,78,32,22,788,675.0,637,461,60,121.0,84,1,270,170,58,0,0,654,-2830,-6006,671,,,,,,,,,,,,
86703,1560695006540,17,2.28,1.82,3.43,1.67,5.03,0.69,0.48,-0.29,2,3,2,0.84,8840,8,78,32,22,788,667.0,642,462,60,121.0,84,1,270,170,58,0,0,639,3543,-3038,667,,,,,,,,,,,,
86723,1560695006560,19,2.28,1.83,3.43,1.66,5.08,0.57,0.54,-0.32,2,2,4,0.79,8745,8,78,32,22,788,661.0,640,462,60,120.0,84,1,270,170,58,0,0,646,-26380,11776,660,,,,,,,,,,,,
86743,1560695006580,20,2.28,1.82,3.44,1.67,5.04,0.63,0.51,-0.24,2,3,3,0.81,8644,7,78,32,21,790,656.0,636,462,60,120.0,82,1,270,164,54,0,0,631,-3488,479,656,45.701717,4.911534,68.53,194.1,0,0.0,0,0.0,0.5667,1,0.38,1.4457
86763,1560695006600,18,2.27,1.81,3.45,1.66,5.04,0.72,0.45,-0.17,2,3,4,0.85,8585,7,78,32,21,793,650.0,637,460,60,121.0,82,1,270,164,54,0,0,631,-30207,6208,650,,,,,,,,,,,,
86783,1560695006620,16,2.27,1.81,3.45,1.66,5.05,0.8,0.46,-0.19,2,2,3,0.92,8472,7,78,32,21,802,649.0,634,463,60,120.0,82,1,270,163,54,0,0,628,-3584,30721,649,,,,,,,,,,,,
86803,1560695006640,16,2.25,1.81,3.46,1.65,5.03,0.84,0.41,-0.14,2,3,3,0.93,8385,7,78,32,21,813,638.0,633,460,60,120.0,82,1,270,160,54,0,0,619,-2580,269,636,,,,,,,,,,,,
86823,1560695006660,13,2.28,1.82,3.47,1.65,5.07,0.82,0.33,-0.12,3,2,2,0.88,8292,7,78,32,21,822,634.0,632,463,60,121.0,82,1,270,157,54,0,0,612,-2836,269,633,,,,,,,,,,,,
86843,1560695006680,16,2.28,1.81,3.5,1.66,5.08,0.94,0.27,-0.11,2,3,2,0.98,8270,7,78,32,21,830,629.0,632,463,60,121.0,82,1,270,157,54,0,0,598,20993,-30139,632,45.70171,4.911552,65.99,194.1,0,0.0,0,0.0,0.5683,1,0.38,1.4474
86863,1560695006700,15,2.27,1.84,3.49,1.69,5.06,0.88,0.23,0.01,2,1,2,0.91,8205,7,78,32,21,848,622.0,630,461,60,121.0,75,1,270,155,48,0,0,602,-18357,1010,619,,,,,,,,,,,,
86883,1560695006720,18,2.27,1.92,3.48,1.71,5.07,0.97,0.15,-0.05,1,-0,1,0.98,8127,7,78,32,22,871,611.0,626,463,60,120.0,75,1,270,155,48,0,0,599,19621,-13043,608,,,,,,,,,,,,
86903,1560695006740,20,2.27,1.93,3.48,1.72,5.04,0.99,0.14,-0.12,1,-2,2,1.0,8054,7,78,32,22,890,606.0,626,463,60,121.0,75,1,270,153,48,0,0,595,-3820,-25872,606,,,,,,,,,,,,
86923,1560695006760,15,2.28,1.92,3.47,1.71,5.07,0.92,0.14,-0.07,2,-1,2,0.93,7982,7,78,32,22,905,602.0,628,465,60,121.0,75,1,269,151,48,0,0,589,-768,-32504,600,,,,,,,,,,,,
86943,1560695006780,16,2.27,1.91,3.48,1.71,5.07,1.03,0.1,-0.08,2,-3,0,1.03,7861,7,78,32,23,930,599.0,623,464,60,120.0,75,1,268,154,48,0,0,574,3472,-3210,599,45.701698,4.911571,63.01,194.1,0,0.0,0,0.0,0.57,1,0.39,1.449
86963,1560695006800,18,2.28,1.91,3.52,1.72,5.05,1.13,0.08,-0.09,1,-3,1,1.13,7735,7,78,32,24,962,597.0,621,461,60,120.0,76,1,267,156,46,0,0,562,6273,1,597,,,,,,,,,,,,
86983,1560695006820,17,2.28,1.91,3.55,1.73,5.04,1.09,0.02,-0.07,1,-4,1,1.09,7618,7,78,32,24,987,589.0,623,462,60,120.0,76,1,266,156,46,0,0,558,-25872,-32504,589,,,,,,,,,,,,
87003,1560695006840,16,2.28,1.9,3.56,1.71,5.08,0.99,0.06,-0.13,2,-4,1,0.99,7449,7,78,33,25,1004,586.0,618,462,60,120.0,76,1,264,159,46,0,0,553,15649,2216,586,,,,,,,,,,,,
87023,1560695006860,15,2.29,1.88,3.52,1.7,5.06,1.01,0.1,-0.27,3,1,2,1.02,7378,7,78,33,25,1027,583.0,615,465,60,120.0,76,1,263,159,46,0,0,562,-16384,-22519,583,,,,,,,,,,,,
87043,1560695006880,15,2.28,1.88,3.5,1.71,5.05,1.12,0.08,-0.23,3,1,3,1.12,7355,7,78,33,25,1058,577.0,615,458,60,120.0,76,1,263,159,46,0,0,545,-8188,-8962,578,45.701691,4.911588,60.72,194.1,0,0.0,0,0.0,0.5717,1,0.39,1.4507
87063,1560695006900,15,2.28,1.85,3.49,1.72,5.04,1.17,0.05,-0.1,2,-2,3,1.17,7387,7,78,33,25,1083,571.0,616,462,60,120.0,76,1,263,159,44,0,0,529,-23623,1779,571,,,,,,,,,,,,
87083,1560695006920,10,2.28,1.82,3.49,1.71,5.06,1.25,0.02,-0.07,1,-3,3,1.25,7358,7,78,33,25,1096,568.0,612,460,60,120.0,76,1,263,159,44,0,0,542,6273,2088,565,,,,,,,,,,,,
87103,1560695006940,13,2.28,1.81,3.46,1.69,5.06,1.33,-0.05,-0.04,0,-4,5,1.33,7256,7,78,33,25,1114,562.0,613,458,60,122.0,76,1,262,159,44,0,0,544,6273,-28648,562,,,,,,,,,,,,
87123,1560695006960,13,2.27,1.8,3.43,1.68,5.04,1.3,-0.07,-0.05,1,0,4,1.3,7214,7,78,33,24,1137,558.0,618,467,60,122.0,76,1,262,159,44,0,0,538,-9072,-28648,558,,,,,,,,,,,,
87143,1560695006980,13,2.27,1.79,3.45,1.69,5.08,1.15,-0.03,-0.08,3,2,1,1.15,7205,7,78,33,24,1156,552.0,622,462,60,122.0,76,1,262,156,42,0,0,518,2524,6274,551,45.701679,4.911604,58.16,194.1,0,0.0,0,0.0,0.5733,1,0.39,1.4524
87163,1560695006994,12,2.28,1.79,3.52,1.68,5.07,1.08,0.02,-0.08,3,1,-1,1.08,7197,7,78,33,25,1166,548.0,617,462,60,121.0,76,1,261,159,42,0,0,500,1779,2524,544,,,,,,,,,,,,
87183,1560695007014,12,2.26,1.79,3.53,1.69,5.03,1.17,-0.03,-0.04,2,1,-1,1.17,7107,7,78,33,25,1177,542.0,616,461,60,121.0,76,1,261,159,42,0,0,510,-28648,-32248,542,,,,,,,,,,,,
87203,1560695007034,15,2.27,1.8,3.51,1.68,5.07,1.26,-0.16,-0.02,1,-0,1,1.27,6954,7,78,33,25,1194,536.0,611,462,60,121.0,76,1,261,231,42,0,0,517,-28648,-9072,533,,,,,,,,,,,,
87223,1560695007054,13,2.26,1.85,3.49,1.67,5.05,1.05,-0.08,-0.21,2,4,2,1.05,7038,7,78,33,25,1207,532.0,607,462,60,120.0,76,1,260,220,42,0,0,518,14504,-8187,527,,,,,,,,,,,,
87243,1560695007074,11,2.26,1.86,3.5,1.68,5.03,1.14,-0.08,-0.11,2,3,3,1.15,6996,7,78,33,25,1213,525.0,613,462,60,119.0,102,1,261,204,54,0,0,510,2088,10994,525,45.701672,4.91162,55.09,194.0,0,0.0,0,0.0,0.575,1,0.39,1.4541
87263,1560695007100,14,2.27,1.87,3.5,1.67,5.07,1.05,-0.18,-0.02,2,1,2,1.07,6936,7,78,33,24,1214,522.0,609,462,60,120.0,102,1,260,185,54,0,0,507,2524,17136,519,,,,,,,,,,,,
87283,1560695007120,9,2.27,1.88,3.49,1.69,5.04,1.02,-0.06,-0.06,2,1,-1,1.02,6870,7,78,33,24,1194,517.0,606,463,60,119.0,102,1,261,169,54,0,0,504,15679,15661,516,,,,,,,,,,,,
87303,1560695007140,12,2.25,1.89,3.48,1.69,5.04,1.03,-0.13,-0.0,1,-0,-1,1.04,6788,7,78,33,24,1174,511.0,603,463,60,120.0,102,1,262,156,54,0,0,504,-3856,11560,510,,,,,,,,,,,,
87323,1560695007160,7,2.25,1.89,3.44,1.69,5.04,1.02,-0.03,-0.09,1,1,-1,1.02,6706,7,78,33,24,1148,509.0,602,462,60,119.0,102,1,262,156,54,0,0,499,10994,2524,507,,,,,,,,,,,,
87343,1560695007180,9,2.26,1.89,3.43,1.7,5.05,1.07,-0.09,-0.01,1,-0,0,1.07,6686,7,78,33,24,1117,505.0,601,463,60,120.0,102,1,263,155,54,0,0,491,6274,-1818,503,45.70166,4.911635,52.36,194.0,0,0.0,0,0.0,0.5767,1,0.39,1.4557
87363,1560695007198,4,2.26,1.89,3.39,1.7,5.08,1.02,-0.04,-0.01,1,1,1,1.02,6701,7,78,33,24,1054,502.0,603,465,60,118.0,77,1,262,156,39,0,0,493,11560,-6656,502,,,,,,,,,,,,
87383,1560695007218,6,2.27,1.88,3.36,1.71,5.07,1.02,-0.08,0.06,2,0,1,1.02,6691,7,78,33,24,993,500.0,598,460,60,120.0,77,1,263,155,39,0,0,488,3,-32768,501,,,,,,,,,,,,
