"Interval"|"ms"|0|0|1,"Utc"|"ms"|0|0|1,"FB_p"|"bar"|0|300|50,"Volant"|"F"|0.0|300.0|50,"xFR"|"mm"|0.0|5.0|50,"xRR"|"mm"|0.0|5.0|50,"xFL"|"mm"|0.0|5.0|50,"xRL"|"mm"|0.0|5.0|50,"AccelX"|"G"|-3.0|3.0|50,"AccelY"|"G"|-3.0|3.0|50,"AccelZ"|"G"|-3.0|3.0|50,"Yaw"|"Deg/Sec"|-120|120|50,"Pitch"|"Deg/Sec"|-120|120|50,"Roll"|"Deg/Sec"|-120|120|50,"Gsum"|"G"|0.0|3.0|50,"RPM"|""|0|14000|50,"TPS"|"%"|0|100|50,"WaterTemp"|"?C"|0|300|50,"AirTemp"|"?C"|-1000|1000|50,"MAP"|"KPa"|0|255|50,"Lambda"|""|0|1024|50,"WheelSpeed"|"MPH"|0.0|150.0|50,"OilPress"|"PSI"|0|150|50,"FuelPress"|"PSI"|0|150|50,"OilTemp"|"F"|0|300|50,"Battery"|"Volts"|0.0|20.0|50,"FuelCon"|"L/h"|-1000|1000|50,"Gear"|""|0|10|50,"Advance"|"Deg"|-360|360|50,"Injection"|"ms"|-1000|1000|50,"FuelCon"|"L/100km"|-1000|1000|50,"LC_But_Pres"|""|-1000|1000|50,"LC_Active"|""|-1000|1000|50,"RD_Speed"|""|-1000|1000|50,"RUD_Speed"|""|-1000|1000|50,"LD_Speed"|""|-1000|1000|50,"LUD_Speed"|""|-1000|1000|50,"Latitude"|"Degrees"|-180.0|180.0|10,"Longitude"|"Degrees"|-180.0|180.0|10,"Speed"|"kph"|0.0|150.0|10,"Altitude"|"m"|0.0|4000.0|10,"LapCount"|""|0|0|10,"LapTime"|"Min"|0.0|0.0|10,"Sector"|""|0|0|10,"SectorTime"|"Min"|0.0|0.0|10,"ElapsedTime"|"Min"|0.0|0.0|10,"CurrentLap"|""|0|0|10,"Distance"|"km"|0.0|0.0|10,"SessionTime"|"Min"|0.0|0.0|10
63003,1560694226246,5,2.23,2.24,3.25,2.0,5.08,0.88,0.13,0.6,0,1,-5,0.89,7030,20,65,33,38,861,0.0,630,459,60,121.0,0,1,307,211,56,0,0,0,250,250,0,,,,,,,,,,,,
63023,1560694226266,2,2.23,2.24,3.25,1.99,5.06,0.76,0.08,0.59,1,1,-5,0.77,7051,20,65,33,38,863,0.0,627,461,60,120.0,0,1,307,211,56,0,0,0,250,250,0,,,,,,,,,,,,
63043,1560694226286,-0,2.23,2.24,3.26,1.99,5.07,0.7,0.17,0.49,1,-0,-5,0.72,7014,19,65,33,38,863,0.0,628,463,60,119.0,0,1,307,211,56,0,0,0,250,250,0,45.700253,4.90941,0.0,189.3,0,0.0,-1,0.0,0.0,0,0.0,1.0507
63063,1560694226306,5,2.23,2.24,3.24,2.0,5.05,0.83,0.09,0.63,-0,-3,-6,0.84,7019,20,65,33,38,865,0.0,627,458,60,120.0,0,1,307,211,56,0,0,0,250,250,0,,,,,,,,,,,,
63083,1560694226326,3,2.22,2.24,3.25,2.0,5.04,0.73,-0.01,0.56,1,-1,-4,0.73,7048,20,65,33,38,866,0.0,626,461,60,121.0,0,1,307,211,56,0,0,0,250,250,0,,,,,,,,,,,,
63103,1560694226346,-1,2.24,2.25,3.25,2.01,5.04,0.7,0.09,0.42,1,1,-2,0.7,7009,19,65,33,38,867,0.0,625,461,60,119.0,0,1,307,211,56,0,0,0,250,250,0,,,,,,,,,,,,
63123,1560694226366,4,2.24,2.24,3.26,2.0,5.04,0.83,0.09,0.58,-0,0,-3,0.84,6991,20,65,33,38,869,0.0,626,461,60,120.0,0,1,307,211,56,0,0,0,250,250,0,,,,,,,,,,,,
63143,1560694226386,2,2.23,2.24,3.25,1.99,5.07,0.8,-0.01,0.64,1,-1,-3,0.8,7019,20,65,33,38,869,0.0,630,458,60,120.0,0,1,307,211,56,0,0,0,250,250,0,45.700253,4.90941,0.0,189.3,0,0.0,-1,0.0,0.0,0,0.0,1.0524
63163,1560694226406,0,2.24,2.24,3.26,2.0,5.08,0.66,0.1,0.49,1,-0,-4,0.67,7011,20,65,33,38,870,0.0,628,462,60,119.0,0,1,307,211,56,0,0,0,250,250,0,,,,,,,,,,,,
63183,1560694226426,-0,2.23,2.24,3.25,2.0,5.09,0.79,0.07,0.6,-1,-4,-4,0.8,7009,20,65,33,38,870,0.0,622,459,60,120.0,0,1,307,211,56,0,0,0,250,250,0,,,,,,,,,,,,
63203,1560694226446,4,2.24,2.24,3.25,2.0,5.05,0.75,-0.06,0.57,-0,-2,-3,0.75,7035,20,65,33,38,870,0.0,628,464,60,120.0,0,1,307,211,56,0,0,0,250,250,0,,,,,,,,,,,,
63223,1560694226466,1,2.23,2.24,3.26,2.0,5.04,0.67,0.01,0.44,0,0,-2,0.67,7009,20,65,33,38,870,0.0,627,461,60,120.0,0,1,307,211,56,0,0,0,250,250,0,,,,,,,,,,,,
63243,1560694226486,-1,2.24,2.24,3.24,2.0,5.04,0.77,0.05,0.54,-1,-1,-3,0.78,7019,20,65,33,38,869,0.0,627,465,60,120.0,0,1,307,211,56,0,0,0,250,250,0,45.700253,4.90941,0.0,189.3,0,0.0,-1,0.0,0.0,0,0.0,1.054
63263,1560694226506,2,2.23,2.24,3.25,2.0,5.04,0.84,-0.09,0.65,-1,-2,-3,0.84,7033,20,65,33,38,868,0.0,623,459,60,120.0,0,1,307,211,56,0,0,0,250,250,0,,,,,,,,,,,,
63283,1560694226526,1,2.23,2.24,3.25,1.99,5.05,0.65,-0.03,0.48,1,-0,-2,0.65,6998,20,65,33,38,865,0.0,633,466,60,120.0,0,1,307,211,56,0,0,0,250,250,0,,,,,,,,,,,,
63303,1560694226546,-0,2.23,2.24,3.25,2.0,5.04,0.78,0.02,0.5,-1,-2,-1,0.78,7001,20,65,33,38,864,0.0,626,456,60,120.0,0,1,307,211,56,0,0,0,250,250,0,,,,,,,,,,,,
63323,1560694226566,4,2.24,2.24,3.26,2.0,5.04,0.8,-0.1,0.56,-0,-1,-1,0.81,7019,20,65,33,38,862,0.0,620,461,60,120.0,0,1,307,211,56,0,0,0,250,250,0,,,,,,,,,,,,
63343,1560694226586,-1,2.23,2.24,3.26,1.99,5.06,0.7,-0.03,0.47,1,2,-0,0.7,6985,20,65,33,38,861,0.0,630,461,60,120.0,0,1,307,211,56,0,0,0,250,250,0,45.700253,4.90941,0.0,189.3,0,0.0,-1,0.0,0.0,0,0.0,1.0557
63363,1560694226606,-1,2.24,2.24,3.24,2.0,5.04,0.77,0.04,0.55,1,1,-1,0.78,6985,20,65,33,38,861,0.0,629,463,60,120.0,0,1,307,211,56,0,0,0,250,250,0,,,,,,,,,,,,
63383,1560694226626,4,2.23,2.24,3.25,1.99,5.04,0.85,-0.09,0.67,1,-0,-3,0.85,7004,20,65,33,38,862,0.0,621,460,60,121.0,0,1,307,211,56,0,0,0,250,250,0,,,,,,,,,,,,
63403,1560694226646,-1,2.24,2.24,3.26,1.99,5.06,0.65,-0.02,0.49,2,1,-2,0.66,6954,20,65,33,38,862,0.0,628,461,60,120.0,0,1,307,211,56,0,0,0,250,250,0,,,,,,,,,,,,
63423,1560694226666,-1,2.24,2.24,3.25,2.0,5.05,0.79,0.01,0.58,0,-1,-2,0.79,6957,20,65,33,38,865,0.0,625,462,60,120.0,0,1,307,211,55,0,0,0,250,250,0,,,,,,,,,,,,
63443,1560694226686,3,2.23,2.24,3.25,1.99,5.05,0.75,-0.12,0.53,1,-0,-1,0.76,6972,20,65,33,38,867,0.0,625,458,60,121.0,0,1,307,211,55,0,0,0,250,250,0,45.700253,4.90941,0.0,189.3,0,0.0,-1,0.0,0.0,0,0.0,1.0574
63463,1560694226705,1,2.23,2.24,3.25,2.0,5.04,0.7,-0.01,0.41,2,2,1,0.7,6957,20,65,33,38,869,0.0,627,460,60,119.0,0,1,307,211,55,0,0,0,250,250,0,,,,,,,,,,,,
63483,1560694226725,4,2.23,2.23,3.25,1.99,5.07,0.79,0.01,0.57,1,2,1,0.79,6957,20,65,33,38,871,0.0,623,461,60,120.0,0,1,307,211,55,0,0,0,250,250,0,,,,,,,,,,,,
63503,1560694226745,1,2.23,2.24,3.25,2.0,5.07,0.77,-0.08,0.62,1,0,-0,0.78,6988,20,65,33,38,871,0.0,621,458,60,121.0,0,1,307,211,55,0,0,0,250,250,0,,,,,,,,,,,,
63523,1560694226765,-1,2.23,2.24,3.25,2.0,5.08,0.68,0.06,0.51,2,0,-2,0.68,6952,20,65,33,38,871,0.0,623,463,60,119.0,0,1,307,211,55,0,0,0,250,250,0,,,,,,,,,,,,
63543,1560694226785,4,2.23,2.24,3.25,2.0,5.04,0.81,0.01,0.64,-0,-2,-3,0.81,6965,20,65,33,38,871,0.0,627,461,60,120.0,0,1,307,211,55,0,0,0,250,250,0,45.700253,4.90941,0.0,189.3,0,0.0,-1,0.0,0.0,0,0.0,1.059
63563,1560694226805,-1,2.24,2.24,3.25,2.0,5.08,0.7,-0.05,0.54,1,-1,-2,0.7,6985,20,65,33,38,870,0.0,626,463,60,119.0,0,1,307,211,55,0,0,0,250,250,0,,,,,,,,,,,,
63583,1560694226825,0,2.23,2.24,3.25,1.99,5.05,0.73,0.08,0.45,1,0,0,0.74,6998,20,65,33,38,870,0.0,621,460,60,119.0,0,1,307,211,55,0,0,0,250,250,0,,,,,,,,,,,,
63603,1560694226845,5,2.23,2.24,3.25,2.0,5.04,0.83,0.03,0.6,-0,-0,0,0.83,6952,20,65,33,38,870,0.0,630,461,60,120.0,0,1,307,211,55,0,0,0,250,250,0,,,,,,,,,,,,
63623,1560694226865,-1,2.24,2.24,3.25,1.99,5.04,0.71,0.03,0.57,1,0,1,0.72,6993,20,65,33,38,870,0.0,625,458,60,120.0,0,1,307,211,55,0,0,0,250,250,0,,,,,,,,,,,,
63643,1560694226885,-2,2.24,2.24,3.24,1.99,5.05,0.73,0.14,0.57,1,-1,-1,0.74,6980,20,65,33,38,871,0.0,622,461,60,120.0,0,1,307,211,55,0,0,0,250,250,0,45.700253,4.90941,0.0,189.3,0,0.0,-1,0.0,0.0,0,0.0,1.0607
63663,1560694226905,1,2.24,2.24,3.25,1.99,5.07,0.83,0.04,0.68,-0,-2,-2,0.83,6967,20,65,33,38,872,0.0,627,456,60,121.0,0,1,307,211,55,0,0,0,250,250,0,,,,,,,,,,,,
63683,1560694226925,1,2.23,2.24,3.25,1.99,5.07,0.69,0.04,0.52,1,-1,-1,0.69,6988,20,65,33,38,873,0.0,625,462,60,120.0,0,1,307,211,55,0,0,0,250,250,0,,,,,,,,,,,,
63703,1560694226945,0,2.23,2.24,3.25,1.99,5.07,0.78,0.12,0.52,0,0,1,0.79,6965,20,65,33,38,873,0.0,630,460,60,119.0,0,1,307,211,55,0,0,0,250,250,0,,,,,,,,,,,,
63723,1560694226965,2,2.24,2.24,3.25,1.99,5.06,0.84,0.06,0.63,-0,-0,2,0.84,6959,20,65,33,38,873,0.0,622,462,60,120.0,0,1,307,211,55,0,0,0,250,250,0,,,,,,,,,,,,
63743,1560694226985,1,2.24,2.24,3.25,2.0,5.08,0.7,0.12,0.56,1,1,2,0.71,7009,20,65,33,38,873,0.0,623,463,60,119.0,0,1,307,211,55,0,0,0,250,250,0,45.700253,4.90941,0.0,189.3,0,0.0,-1,0.0,0.0,0,0.0,1.0624
63763,1560694226999,-1,2.24,2.24,3.25,2.0,5.07,0.8,0.17,0.67,0,-2,-0,0.82,6991,20,65,33,38,873,0.0,623,464,60,120.0,0,1,307,211,55,0,0,0,250,250,0,,,,,,,,,,,,
63783,1560694227019,2,2.24,2.24,3.25,2.0,5.06,0.83,0.07,0.68,-0,-2,-2,0.83,6975,20,65,33,39,873,0.0,620,460,60,121.0,0,1,310,211,55,0,0,0,250,250,0,,,,,,,,,,,,
63803,1560694227039,-0,2.24,2.24,3.25,1.99,5.07,0.73,0.11,0.52,1,-1,-1,0.73,6998,20,65,33,38,873,0.0,622,463,60,120.0,0,1,307,211,55,0,0,0,250,250,0,,,,,,,,,,,,
63823,1560694227059,-0,2.24,2.24,3.25,2.01,5.04,0.83,0.12,0.6,-0,-1,0,0.84,6988,20,65,33,38,873,0.0,626,457,60,120.0,0,1,307,211,55,0,0,0,250,250,0,,,,,,,,,,,,
63843,1560694227079,1,2.24,2.24,3.25,2.0,5.06,0.84,0.04,0.64,0,-1,2,0.84,6967,20,65,33,38,873,0.0,622,460,60,121.0,0,1,307,211,55,0,0,0,250,250,0,45.700253,4.90941,0.0,189.3,0,0.0,-1,0.0,0.0,0,0.0,1.064
63863,1560694227105,-0,2.23,2.24,3.25,2.0,5.08,0.7,0.15,0.52,1,1,2,0.71,6985,20,65,33,38,872,0.0,631,465,60,120.0,0,1,307,211,55,0,0,0,250,250,0,,,,,,,,,,,,
63883,1560694227125,-0,2.24,2.23,3.26,2.0,5.08,0.83,0.14,0.66,-0,-2,0,0.84,6972,20,65,33,38,872,0.0,625,460,60,120.0,0,1,307,211,55,0,0,0,250,250,0,,,,,,,,,,,,
63903,1560694227145,2,2.24,2.24,3.24,2.0,5.05,0.74,0.04,0.6,0,-2,-1,0.74,6962,20,65,33,38,872,0.0,630,458,60,121.0,0,1,307,211,55,0,0,0,250,250,0,,,,,,,,,,,,
63923,1560694227165,-1,2.23,2.24,3.25,2.0,5.04,0.72,0.1,0.48,1,-1,-0,0.73,6998,20,65,33,38,872,0.0,630,465,60,119.0,0,1,307,211,57,0,0,0,250,250,0,,,,,,,,,,,,
63943,1560694227185,3,2.24,2.24,3.26,1.99,5.06,0.8,0.01,0.61,-0,-1,0,0.8,6985,19,65,33,38,873,0.0,624,457,60,121.0,0,1,307,211,57,0,0,0,250,250,0,45.700253,4.90941,0.0,189.3,0,0.0,-1,0.0,0.0,0,0.0,1.0657
63963,1560694227205,1,2.23,2.24,3.25,2.0,5.06,0.76,-0.04,0.59,1,-0,2,0.76,6949,20,65,33,38,874,0.0,630,459,60,121.0,0,1,307,211,57,0,0,0,250,250,0,,,,,,,,,,,,
63983,1560694227225,0,2.23,2.24,3.26,1.99,5.07,0.7,0.07,0.54,1,2,2,0.7,6972,20,65,33,38,874,0.0,618,462,60,119.0,0,1,307,211,57,0,0,0,250,250,0,,,,,,,,,,,,
64003,1560694227245,3,2.24,2.24,3.25,1.99,5.06,0.8,0.13,0.63,-0,-2,-1,0.81,6972,20,65,33,39,875,0.0,621,461,60,120.0,0,1,310,211,57,0,0,0,250,250,0,,,,,,,,,,,,
64023,1560694227265,2,2.24,2.23,3.25,2.0,5.08,0.8,0.01,0.65,1,-1,-2,0.8,6952,20,65,33,38,875,0.0,618,461,60,120.0,0,1,307,218,55,0,0,0,250,250,0,,,,,,,,,,,,
64043,1560694227285,-1,2.24,2.24,3.25,2.0,5.05,0.73,0.05,0.49,1,-2,-1,0.73,6983,20,65,33,39,875,0.0,622,463,60,119.0,0,1,310,218,55,0,0,0,250,250,0,45.700253,4.90941,0.0,189.3,0,0.0,-1,0.0,0.0,0,0.0,1.0674
64063,1560694227305,4,2.23,2.24,3.26,2.0,5.05,0.81,0.02,0.58,0,-1,-1,0.81,6972,20,65,33,38,875,0.0,623,459,60,121.0,0,1,307,211,55,0,0,0,250,250,0,,,,,,,,,,,,
64083,1560694227325,2,2.23,2.25,3.25,2.0,5.04,0.82,-0.03,0.6,1,0,2,0.82,6941,20,65,33,38,874,0.0,628,461,60,120.0,0,1,307,218,55,0,0,0,250,250,0,,,,,,,,,,,,
64103,1560694227345,-0,2.23,2.24,3.25,1.99,5.05,0.71,0.06,0.52,1,1,2,0.71,6926,20,65,33,38,873,0.0,628,462,60,120.0,0,1,307,211,55,0,0,0,250,250,0,,,,,,,,,,,,
64123,1560694227365,2,2.22,2.24,3.25,1.99,5.04,0.83,0.01,0.67,0,-2,0,0.83,6957,20,65,33,38,873,0.0,627,459,60,121.0,0,1,307,211,55,0,0,0,250,250,0,,,,,,,,,,,,
64143,1560694227385,0,2.23,2.24,3.25,2.0,5.05,0.69,-0.04,0.58,1,-1,-1,0.69,6908,20,65,33,38,871,0.0,626,461,60,119.0,0,1,310,218,55,0,0,0,250,250,0,45.700253,4.90941,0.0,189.3,0,0.0,-1,0.0,0.0,0,0.0,1.069
64163,1560694227405,5,2.23,2.24,3.25,2.0,5.04,0.8,0.01,0.57,-0,-3,-3,0.8,6900,20,65,33,39,869,0.0,619,462,60,120.0,0,1,310,218,55,0,0,0,250,250,0,,,,,,,,,,,,
64183,1560694227425,2,2.23,2.24,3.25,1.99,5.07,0.78,-0.14,0.58,1,-2,-2,0.79,6913,20,65,33,39,867,0.0,627,460,60,120.0,0,1,310,218,55,0,0,0,250,250,0,,,,,,,,,,,,
64203,1560694227445,-0,2.24,2.23,3.25,2.0,5.04,0.74,-0.05,0.45,0,-0,0,0.74,6911,20,65,33,39,865,0.0,627,459,60,119.0,0,1,310,218,55,0,0,0,250,250,0,,,,,,,,,,,,
64223,1560694227465,4,2.23,2.24,3.25,1.99,5.06,0.82,-0.06,0.6,-0,-0,1,0.83,6898,20,65,33,38,864,0.0,625,462,60,120.0,0,1,307,218,57,0,0,0,250,250,0,,,,,,,,,,,,
64243,1560694227485,1,2.23,2.24,3.25,2.0,5.04,0.75,-0.1,0.58,1,1,1,0.75,6923,20,65,33,39,864,0.0,622,463,60,119.0,0,1,310,218,57,0,0,0,250,250,0,45.700253,4.90941,0.0,189.3,0,0.0,-1,0.0,0.0,0,0.0,1.0707
64263,1560694227505,3,2.24,2.24,3.24,1.99,5.06,0.76,0.02,0.58,-0,-2,-1,0.76,6926,20,65,33,39,864,0.0,623,462,60,120.0,0,1,310,218,57,0,0,0,250,250,0,,,,,,,,,,,,
64283,1560694227525,0,2.23,2.24,3.26,1.99,5.06,0.82,-0.05,0.6,0,-1,-2,0.83,6898,20,65,33,39,865,0.0,624,459,60,121.0,0,1,310,218,57,0,0,0,250,250,0,,,,,,,,,,,,
64303,1560694227545,-0,2.24,2.24,3.25,2.0,5.08,0.76,-0.02,0.47,0,-2,-1,0.76,6900,20,65,33,39,867,0.0,619,465,60,119.0,0,1,310,218,57,0,0,0,250,250,0,,,,,,,,,,,,
64323,1560694227565,4,2.23,2.25,3.25,2.01,5.07,0.81,-0.04,0.59,-0,-1,-0,0.81,6918,20,65,33,39,866,0.0,620,459,60,120.0,0,1,310,218,57,0,0,0,250,250,0,,,,,,,,,,,,
64343,1560694227585,-1,2.24,2.24,3.25,1.99,5.07,0.77,-0.08,0.57,1,1,2,0.77,6903,20,65,33,39,866,0.0,630,460,60,120.0,0,1,310,218,57,0,0,0,250,250,0,45.700253,4.90941,0.0,189.3,0,0.0,-1,0.0,0.0,0,0.0,1.0724
64363,1560694227605,8,2.24,2.24,3.25,2.0,5.05,0.75,0.02,0.55,-0,1,1,0.75,6893,20,65,33,39,864,0.0,626,462,60,120.0,0,1,310,218,57,0,0,0,250,250,0,,,,,,,,,,,,
64383,1560694227625,3,2.23,2.24,3.26,1.99,5.06,0.85,-0.08,0.69,0,-1,-1,0.85,6918,20,65,33,39,862,0.0,626,457,60,121.0,0,1,310,218,57,0,0,0,250,250,0,,,,,,,,,,,,
64403,1560694227645,-1,2.24,2.24,3.25,1.99,5.08,0.7,-0.06,0.52,1,-1,-2,0.7,6911,20,65,33,39,859,0.0,626,463,60,119.0,0,1,310,218,57,0,0,0,250,250,0,,,,,,,,,,,,
64423,1560694227665,3,2.24,2.25,3.25,2.01,5.04,0.83,-0.05,0.59,-1,-3,-3,0.83,6911,20,65,33,39,856,0.0,627,457,60,121.0,0,1,310,218,57,0,0,0,250,250,0,,,,,,,,,,,,
64443,1560694227685,2,2.23,2.24,3.25,1.99,5.06,0.75,-0.16,0.5,1,-2,-2,0.77,6936,20,65,33,39,855,0.0,617,463,60,120.0,0,1,310,218,57,0,0,0,250,250,0,45.700253,4.90941,0.0,189.3,0,0.0,-1,0.0,0.0,0,0.0,1.074
64463,1560694227704,0,2.23,2.24,3.25,2.0,5.06,0.77,-0.05,0.41,-0,-1,0,0.77,6934,20,65,33,39,855,0.0,623,460,60,120.0,0,1,310,218,57,0,0,0,250,250,0,,,,,,,,,,,,
64483,1560694227724,2,2.23,2.25,3.25,2.0,5.04,0.84,-0.07,0.55,0,-0,2,0.84,6923,20,65,33,39,853,0.0,620,463,60,121.0,0,1,310,218,57,0,0,0,250,250,0,,,,,,,,,,,,
64503,1560694227744,1,2.23,2.24,3.25,2.0,5.04,0.74,-0.04,0.5,1,1,2,0.74,6954,20,65,33,39,852,0.0,624,461,60,119.0,0,1,310,218,57,0,0,0,250,250,0,,,,,,,,,,,,
64523,1560694227764,5,2.23,2.24,3.26,1.99,5.05,0.79,0.07,0.57,-0,-2,0,0.8,6962,20,65,33,40,852,0.0,624,461,60,121.0,0,1,317,219,57,0,0,0,250,250,0,,,,,,,,,,,,
64543,1560694227784,2,2.24,2.24,3.26,2.0,5.08,0.81,-0.02,0.61,1,-1,-1,0.81,6916,20,65,33,39,852,0.0,627,458,60,121.0,0,1,310,218,57,0,0,0,250,250,0,45.700253,4.90941,0.0,189.3,0,0.0,-1,0.0,0.0,0,0.0,1.0757
64563,1560694227804,-1,2.24,2.24,3.25,2.0,5.04,0.72,0.03,0.44,1,-1,-1,0.72,6936,20,65,33,40,852,0.0,623,461,60,120.0,0,1,317,219,57,0,0,0,250,250,0,,,,,,,,,,,,
64583,1560694227824,6,2.23,2.24,3.26,2.0,5.05,0.81,-0.01,0.56,-0,-1,-1,0.81,6949,20,65,33,40,850,0.0,625,456,60,121.0,0,1,317,219,57,0,0,0,250,250,0,,,,,,,,,,,,
64603,1560694227844,2,2.23,2.24,3.25,2.0,5.04,0.78,-0.05,0.56,1,1,1,0.78,6947,20,65,33,40,850,0.0,623,459,60,120.0,0,1,317,219,57,0,0,0,250,250,0,,,,,,,,,,,,
64623,1560694227864,-1,2.23,2.24,3.26,1.99,5.07,0.7,0.05,0.46,1,1,1,0.7,6991,20,65,33,40,849,0.0,630,465,60,119.0,0,1,317,219,58,0,0,0,250,250,0,,,,,,,,,,,,
64643,1560694227884,4,2.23,2.24,3.25,2.0,5.04,0.83,0.0,0.62,-0,-1,-1,0.83,7009,20,65,33,40,849,0.0,624,461,60,121.0,0,1,317,219,58,0,0,0,250,250,0,45.700253,4.90941,0.0,189.3,0,0.0,-1,0.0,0.0,0,0.0,1.0774
64663,1560694227904,2,2.23,2.24,3.25,2.0,5.04,0.7,-0.08,0.54,1,-0,-1,0.71,6985,20,65,33,40,849,0.0,625,459,60,120.0,0,1,317,219,58,0,0,0,250,250,0,,,,,,,,,,,,
64683,1560694227924,-1,2.23,2.23,3.25,1.99,5.02,0.7,-0.0,0.46,0,-2,-1,0.7,7004,20,65,33,40,849,0.0,626,460,60,119.0,0,1,317,219,58,0,0,0,250,250,0,,,,,,,,,,,,
64703,1560694227944,3,2.23,2.24,3.25,2.0,5.06,0.8,-0.06,0.57,-0,-1,-1,0.8,7054,20,65,33,40,850,0.0,630,464,60,121.0,0,1,317,219,58,0,0,0,250,250,0,,,,,,,,,,,,
64723,1560694227964,2,2.22,2.23,3.25,2.0,5.08,0.77,-0.11,0.61,1,1,2,0.77,7043,20,65,33,40,852,0.0,623,461,60,120.0,0,1,317,219,58,0,0,0,250,250,0,,,,,,,,,,,,
64743,1560694227984,1,2.22,2.24,3.25,2.0,5.06,0.66,-0.01,0.51,1,3,2,0.66,7096,20,65,33,40,853,0.0,621,463,60,119.0,0,1,317,219,58,0,0,0,250,250,0,45.700253,4.90941,0.0,189.3,0,0.0,-1,0.0,0.0,0,0.0,1.079
64763,1560694228000,1,2.23,2.23,3.25,2.0,5.08,0.77,0.03,0.6,-0,-0,-0,0.77,7121,20,65,33,40,854,0.0,626,460,60,120.0,0,1,317,219,58,0,0,0,250,250,0,,,,,,,,,,,,
64783,1560694228020,4,2.22,2.24,3.25,1.99,5.05,0.87,-0.04,0.69,0,-0,-2,0.87,7107,20,65,33,40,854,0.0,625,459,60,121.0,0,1,317,219,58,0,0,0,250,250,0,,,,,,,,,,,,
64803,1560694228040,3,2.22,2.24,3.25,2.0,5.07,0.7,-0.09,0.55,1,0,-2,0.71,7137,20,65,33,40,855,0.0,628,463,60,120.0,0,1,317,219,58,0,0,0,250,250,0,,,,,,,,,,,,
64823,1560694228060,1,2.23,2.24,3.25,2.0,5.05,0.71,-0.02,0.42,1,1,0,0.71,7140,21,65,33,40,856,0.0,626,458,60,119.0,0,1,317,219,59,0,0,0,250,250,0,,,,,,,,,,,,
64843,1560694228080,-1,2.22,2.24,3.25,2.0,5.03,0.83,0.01,0.51,-0,1,1,0.83,7159,21,65,33,40,858,0.0,627,463,60,120.0,0,1,317,219,59,0,0,0,250,250,0,45.700253,4.90941,0.0,189.3,0,0.0,-1,0.0,0.0,0,0.0,1.0807
64863,1560694228106,3,2.22,2.24,3.25,2.0,5.04,0.94,-0.03,0.66,-1,-1,0,0.94,7208,21,65,33,40,858,0.0,631,460,60,121.0,0,1,317,219,59,0,0,0,250,250,0,,,,,,,,,,,,
64883,1560694228126,4,2.22,2.23,3.25,2.0,5.07,0.88,-0.06,0.66,0,0,-1,0.88,7214,21,65,33,40,860,0.0,630,459,60,121.0,0,1,317,218,59,0,0,0,250,250,0,,,,,,,,,,,,
64903,1560694228146,2,2.23,2.24,3.25,2.0,5.08,0.73,-0.09,0.53,1,0,-1,0.73,7264,21,65,33,40,863,0.0,632,462,60,120.0,0,1,317,218,59,0,0,0,250,250,0,,,,,,,,,,,,
64923,1560694228166,1,2.22,2.24,3.25,2.0,5.04,0.76,-0.06,0.46,1,-0,1,0.76,7281,21,65,33,40,864,0.0,628,461,60,120.0,0,1,317,218,60,0,0,0,250,250,0,,,,,,,,,,,,
64943,1560694228186,1,2.22,2.24,3.25,2.0,5.04,0.75,-0.01,0.46,0,1,1,0.75,7361,21,65,33,40,866,0.0,635,463,60,119.0,0,1,317,218,60,0,0,0,250,250,0,45.700253,4.90941,0.0,189.3,0,0.0,-1,0.0,0.0,0,0.0,1.0824
64963,1560694228206,1,2.23,2.24,3.26,1.99,5.07,0.8,0.02,0.5,0,-2,-0,0.8,7387,22,65,33,39,867,0.0,627,460,60,120.0,0,1,310,216,60,0,0,0,250,250,0,,,,,,,,,,,,
64983,1560694228226,-0,2.22,2.24,3.25,1.99,5.05,0.91,-0.01,0.54,-1,-4,-2,0.91,7381,22,65,33,40,868,0.0,628,461,60,120.0,0,1,317,218,60,0,0,0,250,250,0,,,,,,,,,,,,
65003,1560694228246,-1,2.23,2.24,3.25,2.0,5.04,0.99,0.01,0.53,-1,-2,-1,0.99,7458,22,65,33,39,869,0.0,630,461,60,121.0,0,1,310,216,60,0,0,0,250,250,0,,,,,,,,,,,,
65023,1560694228266,-1,2.22,2.24,3.25,1.99,5.06,1.01,0.06,0.49,-1,-0,0,1.01,7470,22,65,33,39,868,0.0,641,461,60,121.0,0,1,310,216,61,0,0,0,250,250,0,,,,,,,,,,,,
65043,1560694228286,-0,2.23,2.24,3.25,2.0,5.04,1.09,0.1,0.6,-2,-2,-1,1.1,7527,22,65,33,39,868,0.0,636,461,60,120.0,0,1,310,218,61,0,0,0,250,250,0,45.700253,4.90941,0.0,189.3,0,0.0,-1,0.0,0.0,0,0.0,1.084
65063,1560694228306,1,2.22,2.24,3.25,2.0,5.08,1.16,0.07,0.65,-3,-4,-3,1.17,7557,23,65,33,39,869,0.0,634,457,60,121.0,0,1,310,218,61,0,0,0,250,250,0,,,,,,,,,,,,
65083,1560694228326,-0,2.23,2.25,3.26,2.0,5.04,1.19,0.06,0.6,-3,-4,-3,1.19,7621,23,65,33,39,870,0.0,637,460,60,120.0,0,1,310,218,61,0,0,0,250,250,0,,,,,,,,,,,,
65103,1560694228346,2,2.22,2.24,3.26,1.99,5.06,1.17,0.1,0.53,-3,-3,-1,1.18,7693,23,65,33,39,871,0.0,640,463,60,119.0,0,1,310,218,61,0,0,0,250,250,0,,,,,,,,,,,,
65123,1560694228366,3,2.23,2.24,3.26,2.0,5.08,1.04,0.1,0.55,-2,-2,-1,1.04,7722,23,65,33,39,873,0.0,638,462,60,119.0,0,1,310,218,61,0,0,0,250,250,0,,,,,,,,,,,,
65143,1560694228386,3,2.23,2.24,3.26,2.0,5.08,0.89,0.05,0.59,-1,-3,-2,0.89,7786,23,65,33,38,875,0.0,639,461,60,121.0,0,1,307,211,61,0,0,0,250,250,0,45.700253,4.90941,0.0,189.3,0,0.0,-1,0.0,0.0,0,0.0,1.0857
65163,1560694228406,-0,2.23,2.24,3.25,2.0,5.05,0.89,-0.03,0.58,-1,-2,-1,0.89,7789,23,65,33,38,878,0.0,643,460,60,120.0,0,1,307,211,61,0,0,0,250,250,0,,,,,,,,,,,,
65183,1560694228426,1,2.22,2.25,3.25,2.0,5.04,0.94,0.02,0.58,-1,-2,-1,0.94,7868,23,65,33,38,879,0.0,640,461,60,120.0,0,1,307,211,61,0,0,0,250,250,0,,,,,,,,,,,,
65203,1560694228446,1,2.23,2.24,3.25,1.99,5.07,0.95,0.02,0.63,-1,-4,-2,0.95,7871,23,65,33,38,879,0.0,638,462,60,119.0,0,1,307,211,61,0,0,0,250,250,0,,,,,,,,,,,,
65223,1560694228466,5,2.22,2.24,3.25,2.0,5.05,0.89,0.02,0.61,-1,-4,-0,0.89,7911,23,65,33,37,880,0.0,653,459,60,120.0,0,1,304,205,63,0,0,0,250,250,0,,,,,,,,,,,,
65243,1560694228486,-1,2.22,2.24,3.25,2.0,5.04,0.91,-0.04,0.67,-1,-3,-0,0.91,7988,23,65,33,37,881,0.0,648,463,60,120.0,0,1,304,205,63,0,0,0,250,250,0,45.700253,4.90941,0.0,189.3,0,0.0,-1,0.0,0.0,0,0.0,1.0874
65263,1560694228506,2,2.22,2.24,3.25,2.0,5.08,0.9,-0.04,0.63,-1,-4,-1,0.9,8040,23,65,33,37,883,0.0,641,459,60,120.0,0,1,304,206,63,0,0,0,250,250,0,,,,,,,,,,,,
65283,1560694228526,5,2.22,2.24,3.25,2.0,5.04,0.86,-0.03,0.62,-0,-3,-0,0.86,8047,23,65,33,36,883,0.0,651,460,60,120.0,0,1,301,199,63,0,0,0,250,250,0,,,,,,,,,,,,
65303,1560694228546,2,2.22,2.24,3.25,1.99,5.04,0.91,-0.04,0.67,-0,-3,-0,0.91,8120,23,65,33,36,884,0.0,651,461,60,120.0,0,1,303,200,63,0,0,0,250,250,0,,,,,,,,,,,,
65323,1560694228566,3,2.23,2.24,3.25,2.0,5.05,0.82,-0.02,0.66,-0,-4,-1,0.82,8162,23,65,33,36,886,0.0,648,461,60,119.0,0,1,304,201,62,0,0,0,250,250,0,,,,,,,,,,,,
65343,1560694228586,2,2.21,2.24,3.26,2.0,5.07,0.88,-0.09,0.71,-0,-3,0,0.88,8169,24,65,33,35,887,0.0,652,460,60,120.0,0,1,301,203,62,0,0,0,250,250,0,45.700253,4.90941,0.0,189.3,0,0.0,-1,0.0,0.0,0,0.0,1.0891
65363,1560694228606,4,2.22,2.24,3.26,1.99,5.07,0.83,0.03,0.66,0,-3,0,0.83,8205,24,65,33,35,888,0.0,651,460,60,120.0,0,1,301,198,62,0,0,0,250,250,0,,,,,,,,,,,,
65383,1560694228626,0,2.23,2.24,3.25,2.0,5.04,0.83,-0.02,0.72,0,-3,-0,0.83,8227,24,65,33,35,890,0.0,643,463,60,120.0,0,1,302,198,62,0,0,0,250,250,0,,,,,,,,,,,,
65403,1560694228646,2,2.23,2.24,3.25,1.99,5.07,0.79,0.03,0.63,0,-1,1,0.79,8212,24,65,33,35,893,0.0,649,457,60,120.0,0,1,302,198,62,0,0,0,250,250,0,,,,,,,,,,,,
65423,1560694228666,1,2.23,2.24,3.25,2.01,5.04,0.86,-0.05,0.76,-0,-2,-0,0.86,8245,24,65,33,35,896,0.0,645,463,60,119.0,0,1,302,198,62,0,0,0,250,250,0,,,,,,,,,,,,
65443,1560694228686,3,2.23,2.24,3.26,2.0,5.08,0.84,-0.02,0.66,-0,-2,0,0.84,8245,24,65,33,35,898,0.0,649,460,60,119.0,0,1,302,195,62,0,0,0,250,250,0,45.700253,4.90941,0.0,189.3,0,0.0,-1,0.0,0.0,0,0.0,1.0907
65463,1560694228701,1,2.22,2.24,3.25,1.99,5.04,0.9,-0.1,0.7,-1,-2,-0,0.91,8292,24,65,33,34,904,0.0,646,462,60,121.0,0,1,300,199,62,0,0,0,250,250,0,,,,,,,,,,,,
65483,1560694228721,4,2.23,2.24,3.25,2.0,5.03,0.8,-0.06,0.67,-0,-3,-1,0.81,8270,24,65,33,35,909,0.0,646,461,60,119.0,0,1,304,194,62,0,0,0,250,250,0,,,,,,,,,,,,
65503,1560694228741,-1,2.21,2.23,3.24,1.99,5.06,0.87,-0.13,0.63,0,-2,-0,0.88,8292,24,65,33,35,914,0.0,656,462,60,120.0,0,1,303,199,62,0,0,0,250,250,0,,,,,,,,,,,,
65523,1560694228761,5,2.22,2.24,3.25,1.99,5.07,0.78,0.01,0.59,1,-1,0,0.78,8303,24,65,33,35,918,0.0,652,463,60,119.0,0,1,304,196,61,0,0,0,250,250,0,,,,,,,,,,,,
65543,1560694228781,2,2.21,2.24,3.25,2.0,5.07,0.81,-0.04,0.56,0,-1,-1,0.81,8359,25,65,33,35,925,0.0,651,462,60,120.0,0,1,305,201,61,0,0,0,250,250,0,45.700253,4.90941,0.0,189.3,0,0.0,-1,0.0,0.0,0,0.0,1.0924
65563,1560694228805,-1,2.22,2.24,3.24,2.0,5.07,0.77,0.01,0.55,0,-1,1,0.77,8344,25,65,33,35,939,0.0,653,461,60,120.0,0,1,304,201,61,0,0,0,250,250,0,,,,,,,,,,,,
65583,1560694228825,1,2.22,2.24,3.25,2.0,5.07,0.79,-0.01,0.62,-0,-2,-0,0.79,8318,25,65,33,35,948,0.0,646,458,60,120.0,0,1,304,200,61,0,0,0,250,250,0,,,,,,,,,,,,
65603,1560694228845,0,2.22,2.24,3.25,2.0,5.07,0.82,0.01,0.53,-0,-2,1,0.82,8314,25,65,33,35,955,0.0,659,464,60,120.0,0,1,304,200,61,0,0,0,250,250,0,,,,,,,,,,,,
65623,1560694228865,2,2.23,2.24,3.26,1.99,5.07,0.78,0.1,0.58,0,-0,1,0.78,8366,25,65,33,35,965,0.0,646,461,60,120.0,0,1,302,197,61,0,0,0,250,250,0,,,,,,,,,,,,
65643,1560694228885,-1,2.23,2.24,3.25,2.0,5.05,0.8,0.03,0.59,-0,-2,0,0.8,8363,25,65,33,35,978,0.0,648,463,60,120.0,0,1,305,201,61,0,0,0,250,250,0,45.700253,4.90941,0.0,189.3,0,0.0,-1,0.0,0.0,0,0.0,1.0941
65663,1560694228905,4,2.23,2.24,3.26,2.0,5.04,0.75,0.06,0.53,0,-0,1,0.75,8355,25,65,33,35,987,0.0,653,461,60,119.0,0,1,305,201,61,0,0,0,250,250,0,,,,,,,,,,,,
65683,1560694228925,2,2.23,2.25,3.25,2.0,5.05,0.84,-0.04,0.64,-0,-1,-0,0.84,8344,25,65,33,35,993,0.0,658,462,60,120.0,0,1,304,201,61,0,0,0,250,250,0,,,,,,,,,,,,
65703,1560694228945,5,2.22,2.24,3.25,2.0,5.08,0.8,0.01,0.58,-0,-1,1,0.8,8359,25,65,33,35,999,0.0,652,461,60,119.0,0,1,305,203,61,0,0,0,250,250,0,,,,,,,,,,,,
65723,1560694228965,3,2.22,2.24,3.26,2.0,5.05,0.81,0.01,0.68,-0,0,1,0.81,8415,25,65,33,34,1007,0.0,651,463,60,120.0,0,1,303,204,63,0,0,0,250,250,0,,,,,,,,,,,,
65743,1560694228985,1,2.22,2.24,3.25,2.0,5.05,0.8,-0.04,0.7,-0,-2,0,0.8,8419,25,65,33,35,1016,0.0,651,456,60,119.0,0,1,306,204,63,0,0,0,250,250,0,45.700253,4.90941,0.0,189.3,0,0.0,-1,0.0,0.0,0,0.0,1.0957
65763,1560694228999,3,2.22,2.24,3.26,1.99,5.07,0.74,0.05,0.66,0,0,1,0.74,8426,25,65,33,35,1019,0.0,648,457,60,120.0,0,1,306,203,63,0,0,0,250,250,0,,,,,,,,,,,,
65783,1560694229019,1,2.23,2.24,3.25,2.0,5.04,0.85,-0.05,0.79,-0,-2,0,0.85,8404,25,65,33,35,1022,0.0,651,460,60,121.0,0,1,306,204,63,0,0,0,250,250,0,,,,,,,,,,,,
65803,1560694229039,0,2.22,2.24,3.25,2.0,5.04,0.84,-0.02,0.73,0,-2,1,0.84,8419,25,65,33,35,1028,0.0,648,458,60,120.0,0,1,306,204,63,0,0,0,250,250,0,,,,,,,,,,,,
65823,1560694229059,4,2.21,2.24,3.26,2.0,5.07,0.81,0.01,0.79,0,-0,1,0.81,8465,25,65,33,35,1032,0.0,647,461,60,120.0,0,1,307,205,65,0,0,0,250,250,0,,,,,,,,,,,,
65843,1560694229079,2,2.22,2.24,3.25,1.99,5.06,0.86,-0.05,0.77,-0,-2,0,0.86,8484,25,65,33,35,1034,0.0,648,459,60,119.0,0,1,307,205,65,0,0,0,250,250,0,45.700253,4.90941,0.0,189.3,0,0.0,-1,0.0,0.0,0,0.0,1.0974
65863,1560694229099,-3,2.22,2.24,3.25,2.0,5.08,0.78,0.03,0.71,0,0,1,0.78,8511,25,65,33,36,1037,0.0,651,455,60,119.0,0,1,311,205,65,0,0,0,250,250,0,,,,,,,,,,,,
65883,1560694229119,4,2.23,2.24,3.25,2.0,5.04,0.78,0.03,0.77,0,-2,0,0.78,8476,25,65,33,35,1042,0.0,646,465,60,120.0,0,1,307,205,65,0,0,0,250,250,0,,,,,,,,,,,,
65903,1560694229139,2,2.22,2.24,3.26,2.0,5.07,0.88,-0.01,0.66,0,-2,1,0.88,8507,25,65,33,35,1046,0.0,653,465,60,120.0,0,1,308,206,65,0,0,0,250,250,0,,,,,,,,,,,,
65923,1560694229159,1,2.22,2.24,3.26,1.99,5.07,0.79,0.12,0.58,0,-1,1,0.8,8534,26,65,33,35,1049,0.0,649,460,60,120.0,0,1,308,206,66,0,0,0,250,250,0,,,,,,,,,,,,
65943,1560694229179,3,2.22,2.24,3.25,1.99,5.07,0.72,0.14,0.57,1,-1,1,0.74,8581,26,65,33,35,1051,0.0,648,460,60,120.0,0,1,308,206,66,0,0,0,250,250,0,45.700253,4.90941,0.0,189.3,0,0.0,-1,0.0,0.0,0,0.0,1.0991
65963,1560694229205,3,2.23,2.24,3.26,2.0,5.06,0.84,0.02,0.59,0,-0,0,0.84,8596,26,65,33,35,1051,0.0,648,463,60,120.0,0,1,308,206,66,0,0,0,250,250,0,,,,,,,,,,,,
65983,1560694229225,-1,2.23,2.24,3.25,1.99,5.05,0.8,-0.03,0.6,-0,-2,-0,0.8,8612,26,65,33,35,1050,0.0,652,460,60,120.0,0,1,308,206,66,0,0,0,250,250,0,,,,,,,,,,,,
66003,1560694229245,5,2.22,2.23,3.25,2.0,5.04,0.69,0.07,0.59,0,-0,1,0.69,8640,26,65,33,35,1048,0.0,652,458,60,119.0,0,1,308,206,66,0,0,0,250,250,0,,,,,,,,,,,,
66023,1560694229265,5,2.22,2.24,3.25,2.0,5.03,0.69,0.07,0.64,0,-1,0,0.69,8624,26,65,33,35,1046,0.0,648,464,60,120.0,0,1,308,206,67,0,0,0,250,250,0,,,,,,,,,,,,
66043,1560694229285,3,2.23,2.24,3.25,2.0,5.07,0.82,-0.02,0.6,0,-1,0,0.82,8636,26,65,33,35,1041,0.0,662,463,60,120.0,0,1,308,206,67,0,0,0,250,250,0,45.700253,4.90941,0.0,189.3,0,0.0,-1,0.0,0.0,0,0.0,1.1007
66063,1560694229305,2,2.22,2.24,3.25,2.0,5.03,0.85,-0.04,0.61,0,-2,0,0.85,8668,26,65,33,35,1037,0.0,660,463,60,120.0,0,1,308,206,67,0,0,0,250,250,0,,,,,,,,,,,,
66083,1560694229325,-0,2.22,2.24,3.25,2.0,5.04,0.77,0.0,0.53,0,-2,1,0.77,8672,26,65,33,36,1034,0.0,655,455,60,119.0,0,1,311,210,67,0,0,0,250,250,0,,,,,,,,,,,,
66103,1560694229345,3,2.22,2.24,3.25,2.0,5.07,0.68,0.13,0.56,0,-1,1,0.69,8729,26,65,33,35,1032,0.0,653,458,60,120.0,0,1,308,206,67,0,0,0,250,250,0,,,,,,,,,,,,
66123,1560694229365,2,2.23,2.24,3.25,2.0,5.05,0.69,0.11,0.54,1,-0,0,0.7,8716,26,65,33,35,1030,0.0,655,459,60,120.0,0,1,308,210,67,0,0,0,250,250,0,,,,,,,,,,,,
66143,1560694229385,1,2.23,2.24,3.25,1.99,5.05,0.82,-0.03,0.5,0,0,-0,0.82,8737,26,65,33,36,1028,0.0,658,452,60,120.0,0,1,311,210,67,0,0,0,250,250,0,45.700253,4.90941,0.0,189.3,0,0.0,-1,0.0,0.0,0,0.0,1.1024
66163,1560694229405,2,2.22,2.23,3.25,2.0,5.04,0.83,-0.11,0.54,-0,-2,-1,0.84,8741,27,65,33,35,1026,0.0,649,459,60,119.0,0,1,308,206,67,0,0,0,250,250,0,,,,,,,,,,,,
66183,1560694229425,-1,2.23,2.24,3.25,2.0,5.05,0.76,-0.04,0.59,0,-0,-0,0.76,8741,27,65,33,36,1027,0.0,658,455,60,119.0,0,1,308,206,67,0,0,0,250,250,0,,,,,,,,,,,,
66203,1560694229445,1,2.22,2.24,3.24,2.0,5.07,0.72,-0.05,0.62,0,-1,-0,0.72,8720,27,65,33,36,1028,0.0,661,462,60,120.0,0,1,311,210,67,0,0,0,250,250,0,,,,,,,,,,,,
66223,1560694229465,3,2.23,2.24,3.26,1.99,5.06,0.63,0.06,0.62,1,1,1,0.63,8741,27,65,33,36,1031,0.0,661,458,60,120.0,0,1,311,210,69,0,0,0,250,250,0,,,,,,,,,,,,
66243,1560694229485,3,2.22,2.24,3.25,2.0,5.03,0.54,0.16,0.62,1,-1,0,0.56,8741,27,65,33,36,1033,0.0,658,466,60,120.0,0,1,311,210,69,0,0,0,250,250,0,45.700253,4.90941,0.0,189.3,0,0.0,-1,0.0,0.0,0,0.0,1.1041
66263,1560694229505,4,2.22,2.24,3.25,1.99,5.04,0.59,0.13,0.57,0,-1,0,0.6,8765,27,65,33,36,1035,0.0,660,461,60,120.0,0,1,311,210,69,0,0,0,250,250,0,,,,,,,,,,,,
66283,1560694229525,1,2.23,2.24,3.26,1.99,5.06,0.69,-0.0,0.67,-0,-3,-1,0.69,8778,27,65,33,36,1041,0.0,665,461,60,120.0,0,1,311,210,69,0,0,0,250,250,0,,,,,,,,,,,,
66303,1560694229545,2,2.22,2.24,3.26,2.0,5.07,0.83,-0.17,0.68,-0,-2,-0,0.84,8798,27,65,33,36,1047,0.0,666,456,60,120.0,0,1,311,210,69,0,0,0,250,250,0,,,,,,,,,,,,
66323,1560694229565,1,2.22,2.23,3.24,1.99,5.06,0.92,-0.26,0.73,-0,-2,0,0.95,8806,27,65,33,36,1053,0.0,662,460,60,119.0,0,1,311,210,71,0,0,0,250,250,0,,,,,,,,,,,,
66343,1560694229585,0,2.21,2.24,3.25,2.0,5.05,0.95,-0.22,0.65,0,-1,1,0.97,8823,28,65,33,36,1057,0.0,663,460,60,119.0,0,1,311,210,71,0,0,0,250,250,0,45.700253,4.90941,0.0,189.3,0,0.0,-1,0.0,0.0,0,0.0,1.1057
66363,1560694229605,11,2.22,2.24,3.25,2.0,5.04,0.87,-0.08,0.66,1,0,2,0.88,8869,28,65,33,36,1061,0.0,662,462,60,120.0,0,1,311,210,71,0,0,0,250,250,0,,,,,,,,,,,,
66383,1560694229625,5,2.22,2.24,3.26,1.99,5.06,0.71,0.12,0.57,1,1,2,0.73,8898,28,65,33,36,1066,0.0,656,466,60,120.0,0,1,311,210,71,0,0,0,250,250,0,,,,,,,,,,,,
66403,1560694229645,4,2.22,2.24,3.26,2.0,5.05,0.54,0.31,0.58,1,4,2,0.63,8911,28,65,33,36,1071,0.0,657,462,60,120.0,0,1,311,210,71,0,0,0,250,250,0,,,,,,,,,,,,
66423,1560694229665,2,2.22,2.24,3.26,1.99,5.06,0.38,0.48,0.51,1,3,1,0.61,8932,28,65,33,37,1072,0.0,656,460,60,120.0,0,1,314,213,70,0,0,0,250,250,0,,,,,,,,,,,,
66443,1560694229685,6,2.22,2.24,3.25,2.0,5.04,0.27,0.6,0.47,1,5,-0,0.66,8962,28,65,33,36,1073,0.0,656,462,60,120.0,0,1,311,210,70,0,0,0,250,250,0,45.700253,4.90941,0.0,189.3,0,0.0,-1,0.0,0.0,0,0.0,1.1074
66463,1560694229704,3,2.22,2.25,3.25,2.01,5.04,0.16,0.69,0.43,0,2,-2,0.7,8988,28,65,33,37,1075,0.0,663,458,60,120.0,0,1,314,213,70,0,0,0,250,250,0,,,,,,,,,,,,
66483,1560694229724,2,2.22,2.24,3.26,1.99,5.06,0.12,0.71,0.45,0,3,-3,0.72,8984,28,65,33,37,1077,0.0,659,459,60,120.0,0,1,314,213,70,0,0,0,250,250,0,,,,,,,,,,,,
66503,1560694229744,3,2.22,2.24,3.25,2.01,5.06,0.06,0.73,0.47,-0,1,-4,0.73,9018,28,65,33,37,1079,0.0,663,463,60,120.0,0,1,314,213,70,0,0,0,250,250,0,,,,,,,,,,,,
66523,1560694229764,4,2.22,2.24,3.26,1.99,5.06,0.01,0.73,0.5,-0,2,-4,0.73,9036,28,65,33,37,1080,0.0,657,464,60,120.0,0,1,314,213,72,0,0,0,250,250,0,,,,,,,,,,,,
66543,1560694229784,3,2.22,2.24,3.25,2.0,5.07,-0.06,0.77,0.49,-0,0,-5,0.77,9044,28,65,33,37,1080,0.0,668,453,60,120.0,0,1,314,213,72,0,0,0,250,250,0,45.700253,4.90941,0.0,189.3,0,0.0,-1,0.0,0.0,0,0.0,1.1091
66563,1560694229804,6,2.22,2.25,3.25,2.0,5.04,-0.14,0.82,0.51,-0,2,-5,0.83,9044,29,65,33,37,1081,0.0,660,460,60,120.0,0,1,314,213,72,0,0,0,250,250,0,,,,,,,,,,,,
66583,1560694229824,4,2.22,2.24,3.25,2.0,5.07,-0.23,0.9,0.51,-1,1,-6,0.93,9040,29,65,33,37,1081,0.0,667,462,60,120.0,0,1,314,213,72,0,0,0,250,250,0,,,,,,,,,,,,
66603,1560694229844,4,2.21,2.24,3.25,1.99,5.05,-0.3,1.01,0.48,-0,3,-6,1.05,9023,29,65,33,37,1081,0.0,659,458,60,120.0,0,1,314,213,72,0,0,0,250,250,0,,,,,,,,,,,,
66623,1560694229864,5,2.21,2.24,3.24,2.0,5.04,-0.38,1.06,0.41,-1,1,-6,1.13,9005,29,65,33,37,1079,0.0,657,452,60,120.0,0,1,314,213,72,0,0,0,250,250,0,,,,,,,,,,,,
66643,1560694229884,2,2.22,2.24,3.25,2.0,5.05,-0.41,1.08,0.42,-0,4,-6,1.16,8958,29,65,33,37,1077,0.0,653,463,60,120.0,0,1,314,213,72,0,0,0,250,250,0,45.700253,4.90941,0.0,189.3,0,0.0,-1,0.0,0.0,0,0.0,1.1107
66663,1560694229904,4,2.21,2.24,3.25,2.0,5.03,-0.4,1.02,0.38,-1,1,-7,1.1,8945,29,65,33,37,1075,0.0,656,460,60,120.0,0,1,314,213,72,0,0,0,250,250,0,,,,,,,,,,,,
66683,1560694229924,3,2.22,2.24,3.25,2.0,5.07,-0.31,0.85,0.4,-1,3,-7,0.91,8907,29,65,33,37,1073,0.0,658,459,60,120.0,0,1,314,213,72,0,0,0,250,250,0,,,,,,,,,,,,
66703,1560694229944,3,2.21,2.24,3.25,2.0,5.03,-0.15,0.6,0.48,-1,0,-7,0.62,8848,29,65,33,37,1070,0.0,654,459,60,120.0,0,1,314,213,72,0,0,0,250,250,0,,,,,,,,,,,,
66723,1560694229964,1,2.22,2.24,3.25,2.0,5.08,0.02,0.35,0.46,-1,1,-7,0.35,8819,29,65,33,38,1067,0.0,651,457,60,120.0,0,1,314,213,71,0,0,0,250,250,0,,,,,,,,,,,,
66743,1560694229984,-1,2.22,2.24,3.24,1.99,5.06,0.12,0.18,0.58,-1,-0,-6,0.22,8778,29,65,33,38,1066,0.0,650,456,60,119.0,0,1,317,218,71,0,0,0,250,250,0,45.700253,4.90941,0.0,189.3,0,0.0,-1,0.0,0.0,0,0.0,1.1124
66763,1560694229998,6,2.21,2.24,3.25,2.0,5.08,0.09,0.23,0.59,-1,1,-5,0.25,8704,29,65,33,38,1065,0.0,653,457,60,119.0,0,1,317,218,71,0,0,0,250,250,0,,,,,,,,,,,,
66783,1560694230018,4,2.21,2.25,3.25,1.99,5.06,0.04,0.32,0.54,-0,1,-5,0.32,8656,29,65,33,38,1069,0.0,650,463,60,120.0,0,1,317,218,71,0,0,0,250,250,0,,,,,,,,,,,,
66803,1560694230038,3,2.21,2.24,3.24,2.01,5.08,0.16,0.23,0.52,-0,-0,-4,0.28,8632,29,65,33,38,1073,0.0,653,466,60,120.0,0,1,317,218,71,0,0,0,250,250,0,,,,,,,,,,,,
66823,1560694230058,1,2.21,2.24,3.24,2.01,5.04,0.3,0.13,0.59,-0,-1,-4,0.33,8612,30,65,33,39,1078,0.0,658,460,60,120.0,0,1,320,222,71,0,0,0,250,250,0,,,,,,,,,,,,
66843,1560694230078,4,2.21,2.25,3.23,2.01,5.04,0.34,0.14,0.59,0,-2,-3,0.37,8573,30,65,33,39,1085,0.0,648,458,60,119.0,0,1,320,222,71,0,0,0,250,250,0,45.700253,4.90941,0.0,189.3,0,0.0,-1,0.0,0.0,0,0.0,1.1141
66863,1560694230104,4,2.2,2.25,3.24,2.01,5.04,0.37,0.23,0.6,-0,0,-3,0.43,8596,30,65,33,39,1088,0.0,648,459,60,120.0,0,1,320,222,71,0,0,0,250,250,0,,,,,,,,,,,,
66883,1560694230124,2,2.2,2.25,3.24,2.01,5.06,0.44,0.17,0.63,-0,-2,-3,0.47,8553,30,65,33,40,1091,0.0,649,458,60,120.0,0,1,326,223,71,0,0,0,250,250,0,,,,,,,,,,,,
66903,1560694230144,1,2.21,2.25,3.23,2.02,5.06,0.42,0.15,0.58,0,2,-2,0.44,8499,30,65,33,39,1091,0.0,646,461,60,120.0,0,1,319,221,71,0,0,0,250,250,0,,,,,,,,,,,,
66923,1560694230164,4,2.2,2.26,3.23,2.02,5.05,0.39,0.17,0.63,-0,-0,-3,0.42,8381,31,65,33,40,1089,0.0,641,461,60,120.0,0,1,323,222,71,0,0,0,250,250,0,,,,,,,,,,,,
66943,1560694230184,0,2.2,2.27,3.22,2.02,5.04,0.49,0.07,0.64,-0,0,-1,0.5,8281,31,65,33,41,1083,0.0,650,457,60,119.0,0,1,328,223,71,0,0,0,250,250,0,45.700253,4.90941,0.0,189.3,0,0.0,-1,0.0,0.0,0,0.0,1.1157
66963,1560694230206,3,2.19,2.28,3.21,2.04,5.06,0.52,0.14,0.68,-0,0,-2,0.53,8177,31,65,33,40,1074,0.0,643,459,60,120.0,0,1,320,223,71,0,0,0,250,250,0,,,,,,,,,,,,
66983,1560694230226,5,2.19,2.3,3.21,2.05,5.05,0.47,0.07,0.69,-1,-1,-2,0.47,7999,31,65,33,41,1067,0.0,643,458,60,120.0,0,1,325,221,71,0,0,0,250,250,0,,,,,,,,,,,,
67003,1560694230246,4,2.19,2.32,3.2,2.07,5.07,0.4,0.07,0.73,0,0,-1,0.4,7789,31,65,33,43,1061,0.0,642,460,60,119.0,0,1,340,225,71,0,0,0,250,250,0,,,,,,,,,,,,
67023,1560694230266,5,2.18,2.33,3.19,2.08,5.08,0.42,0.03,0.86,1,-0,-1,0.43,7609,31,65,33,44,1048,0.0,633,461,60,121.0,0,1,347,226,65,0,0,0,250,250,0,,,,,,,,,,,,
67043,1560694230286,4,2.17,2.34,3.18,2.1,5.05,0.41,0.02,0.85,1,1,-1,0.41,7341,31,65,33,45,1036,13.0,628,457,60,121.0,0,1,355,228,65,0,0,0,-1,250,0,45.700253,4.90941,0.0,189.3,0,0.0,-1,0.0,0.0,0,0.0,1.1174
67063,1560694230306,1,2.17,2.36,3.17,2.11,5.05,0.32,0.03,0.76,2,2,-0,0.32,7107,31,65,33,47,1029,13.0,628,463,60,120.0,0,1,370,233,65,0,0,22,-1,250,0,,,,,,,,,,,,
67083,1560694230326,5,2.16,2.37,3.17,2.12,5.05,0.35,0.11,0.78,0,1,-1,0.37,6883,31,65,33,49,1025,13.0,620,461,60,120.0,0,1,374,242,65,0,0,22,-1,250,0,,,,,,,,,,,,
67103,1560694230346,-2,2.15,2.38,3.17,2.11,5.05,0.45,0.08,0.86,0,1,-1,0.46,6597,31,65,33,51,1021,24.0,612,461,60,120.0,0,1,377,252,65,0,0,22,-1,-1,24,,,,,,,,,,,,
67123,1560694230366,1,2.15,2.37,3.17,2.12,5.07,0.51,0.05,0.94,-0,0,-1,0.51,6399,31,65,33,53,1020,31.0,596,457,60,121.0,2666,1,382,264,64,0,0,22,-1,-1,24,,,,,,,,,,,,
67143,1560694230386,2,2.15,2.37,3.17,2.13,5.08,0.45,0.01,1.02,-0,-2,-2,0.45,6186,31,65,33,56,1021,31.0,586,463,60,120.0,2666,1,385,270,64,0,0,36,-1,-1,24,45.700268,4.909419,1.64,196.0,0,0.0,-1,0.0,0.0,0,0.0,1.1191
67163,1560694230406,2,2.14,2.38,3.17,2.13,5.05,0.44,0.0,1.08,-0,-4,-3,0.44,5933,31,65,33,58,1024,38.0,569,454,60,121.0,2666,1,377,265,64,0,0,36,-1,24067,38,,,,,,,,,,,,
67183,1560694230426,0,2.13,2.38,3.16,2.13,5.04,0.57,-0.0,1.16,-1,-7,-3,0.57,5739,31,65,33,60,1027,43.0,550,451,60,121.0,2666,1,359,265,64,0,0,36,-235,24067,38,,,,,,,,,,,,
67203,1560694230446,3,2.13,2.37,3.15,2.14,5.06,0.68,-0.03,1.15,-3,-6,-2,0.68,5509,31,65,33,61,1029,43.0,536,462,60,120.0,2666,1,339,277,64,0,0,47,-235,24067,38,,,,,,,,,,,,
67223,1560694230466,-0,2.13,2.37,3.15,2.14,5.03,0.56,-0.01,1.1,-2,-5,-3,0.56,5374,31,65,33,64,1031,52.0,514,465,60,119.0,1234,1,321,297,58,0,0,47,-1,-1,47,,,,,,,,,,,,
67243,1560694230486,2,2.12,2.38,3.15,2.14,5.04,0.69,-0.01,1.09,-3,-5,-2,0.69,5079,31,65,33,66,1029,52.0,498,451,60,121.0,1234,1,293,317,58,0,0,55,-1,-1,47,45.700268,4.90942,2.86,195.9,0,0.0,-1,0.0,0.0,0,0.0,1.1207
67263,1560694230506,2,2.13,2.37,3.15,2.14,5.05,0.65,0.03,1.05,-2,-5,-3,0.65,4805,31,65,33,69,1028,59.0,460,465,60,121.0,1234,1,287,329,58,0,0,55,-1,-1,55,,,,,,,,,,,,
67283,1560694230526,1,2.12,2.37,3.14,2.14,5.06,0.63,0.09,1.0,-2,-5,-2,0.64,4570,32,65,33,71,1032,59.0,439,468,60,121.0,1234,1,291,335,58,0,0,63,-1,-1,55,,,,,,,,,,,,
67303,1560694230546,-1,2.11,2.38,3.14,2.15,5.04,0.61,0.12,1.01,-1,-3,-2,0.62,4386,32,65,33,73,1036,66.0,418,466,60,122.0,1234,1,293,337,58,0,0,63,14054,-6656,62,,,,,,,,,,,,
67323,1560694230566,0,2.11,2.37,3.13,2.15,5.07,0.63,0.1,1.05,-1,-5,-2,0.64,4127,32,65,33,75,1042,66.0,392,465,60,122.0,854,1,297,332,53,0,0,69,14054,-6656,62,,,,,,,,,,,,
67343,1560694230586,5,2.11,2.37,3.13,2.15,5.03,0.59,0.07,1.07,-2,-5,-3,0.59,4008,33,65,34,76,1047,72.0,379,458,60,119.0,854,1,298,333,53,0,0,75,250,-24064,68,45.700268,4.90942,4.4,195.8,0,0.0,-1,0.0,0.0,0,0.0,1.1224
67363,1560694230608,-1,2.11,2.37,3.13,2.16,5.07,0.59,0.06,1.05,-2,-4,-4,0.59,3970,33,65,34,78,1061,72.0,365,465,60,122.0,854,1,294,354,53,0,0,75,250,250,68,,,,,,,,,,,,
67383,1560694230628,4,2.11,2.37,3.13,2.18,5.04,0.63,0.02,1.04,-2,-4,-3,0.63,3827,33,65,34,79,1073,78.0,360,452,60,120.0,854,1,277,353,53,0,0,80,14256,250,73,,,,,,,,,,,,
67403,1560694230648,-2,2.11,2.37,3.12,2.19,5.05,0.63,0.03,1.04,-2,-4,-3,0.63,3738,33,65,34,80,1081,83.0,349,462,60,121.0,854,1,267,354,53,0,0,80,-1481,-16896,79,,,,,,,,,,,,
67423,1560694230668,1,2.1,2.36,3.12,2.19,5.04,0.62,0.03,1.05,-2,-2,-4,0.62,3543,33,65,34,81,1090,83.0,343,460,60,120.0,607,1,244,343,48,0,0,85,-1481,-16896,79,,,,,,,,,,,,
67443,1560694230688,5,2.1,2.37,3.11,2.2,5.04,0.61,0.04,1.03,-3,-5,-4,0.62,3427,33,65,34,83,1103,88.0,325,469,60,120.0,607,1,237,345,48,0,0,90,250,-13312,83,45.700272,4.909421,5.91,195.8,0,0.0,-1,0.0,0.0,0,0.0,1.1241
67463,1560694230707,0,2.1,2.37,3.11,2.19,5.07,0.58,0.05,1.01,-3,-7,-3,0.58,3327,33,65,34,85,1117,92.0,315,461,60,122.0,607,1,233,334,48,0,0,94,250,-1481,87,,,,,,,,,,,,
67483,1560694230727,1,2.09,2.36,3.08,2.21,5.04,0.58,0.1,1.02,-3,-4,-4,0.59,3250,33,65,34,85,1121,92.0,309,460,60,121.0,607,1,230,330,48,0,0,94,250,-22528,87,,,,,,,,,,,,
67503,1560694230747,-1,2.09,2.37,3.07,2.2,5.04,0.62,0.17,1.01,-3,-2,-5,0.65,3127,33,65,34,86,1127,96.0,297,457,60,121.0,607,1,225,320,48,0,0,99,250,-22528,92,,,,,,,,,,,,
67523,1560694230767,5,2.09,2.36,3.07,2.2,5.07,0.63,0.19,1.02,-3,-3,-6,0.66,2842,33,65,34,87,1138,100.0,282,460,60,122.0,333,1,213,306,32,0,0,102,250,250,96,,,,,,,,,,,,
67543,1560694230787,-1,2.09,2.35,3.07,2.21,5.04,0.64,0.18,1.01,-3,-6,-4,0.66,2493,34,65,34,88,1144,104.0,260,466,60,122.0,333,1,199,295,32,0,0,106,250,-1482,99,45.700272,4.909422,7.71,195.7,0,0.0,-1,0.0,0.0,0,0.0,1.1257
67563,1560694230807,3,2.09,2.36,3.07,2.21,5.05,0.54,0.13,1.03,-3,-5,-6,0.56,2389,34,65,34,91,1149,108.0,247,462,60,120.0,333,1,201,321,32,0,0,109,250,250,99,,,,,,,,,,,,
67583,1560694230827,-0,2.08,2.35,3.07,2.22,5.08,0.61,0.15,0.96,-3,-2,-7,0.63,2170,34,65,34,92,1152,111.0,233,466,60,122.0,333,1,201,337,32,0,0,109,-1482,13844,103,,,,,,,,,,,,
67603,1560694230847,-1,2.08,2.35,3.07,2.22,5.07,0.62,0.13,0.95,-4,-4,-7,0.63,2092,34,65,34,94,1165,111.0,223,465,60,121.0,333,1,207,371,32,0,0,112,13850,-1482,105,,,,,,,,,,,,
67623,1560694230867,1,2.07,2.34,3.07,2.22,5.06,0.58,0.13,0.92,-4,-3,-8,0.6,1887,34,65,34,94,1174,114.0,216,455,60,118.0,250,1,204,366,27,0,0,114,13850,13850,108,,,,,,,,,,,,
67643,1560694230887,-2,2.08,2.32,3.07,2.21,5.06,0.66,0.11,0.86,-4,-3,-8,0.67,1831,35,65,34,94,1181,116.0,206,465,60,121.0,250,1,199,361,27,0,0,116,250,13850,110,45.700275,4.909424,8.98,195.7,0,0.0,-1,0.0,0.0,0,0.0,1.1274
67663,1560694230907,0,2.07,2.3,3.09,2.18,5.06,0.67,0.09,0.89,-5,-4,-8,0.67,1964,38,65,34,96,1188,117.0,208,460,60,122.0,250,1,210,397,27,0,0,118,8192,5120,109,,,,,,,,,,,,
67683,1560694230927,4,2.06,2.28,3.11,2.17,5.04,0.68,0.08,0.86,-5,-3,-8,0.68,2063,42,65,34,95,1197,119.0,212,468,60,120.0,250,1,214,403,27,0,0,118,-1482,250,109,,,,,,,,,,,,
67703,1560694230947,0,2.05,2.28,3.13,2.16,5.04,0.69,0.1,0.82,-5,-2,-9,0.69,2196,48,65,34,96,1205,119.0,213,461,60,121.0,250,1,218,393,27,0,0,118,-1482,5120,109,,,,,,,,,,,,
67723,1560694230967,3,2.04,2.29,3.14,2.15,5.04,0.62,0.09,0.81,-6,-4,-9,0.63,2198,53,65,34,97,1210,119.0,218,463,60,121.0,321,1,222,428,35,0,0,119,-1482,13844,109,,,,,,,,,,,,
67743,1560694230987,0,2.04,2.28,3.13,2.13,5.04,0.68,0.09,0.74,-6,-2,-8,0.69,2179,57,65,34,97,1213,120.0,219,462,60,121.0,321,1,222,427,35,0,0,120,250,-1482,109,45.700279,4.909425,10.33,195.7,0,0.0,-1,0.0,0.0,0,0.0,1.1291
67763,1560694231001,2,2.05,2.29,3.13,2.13,5.05,0.63,0.09,0.78,-6,-1,-9,0.63,2206,59,65,34,98,1230,120.0,220,458,60,122.0,321,1,228,449,35,0,0,120,250,-1482,110,,,,,,,,,,,,
67783,1560694231021,-0,2.04,2.29,3.13,2.12,5.04,0.66,0.08,0.72,-7,0,-9,0.66,2271,60,65,34,97,1250,121.0,221,462,60,122.0,321,1,225,434,35,0,0,120,9728,-1482,110,,,,,,,,,,,,
67803,1560694231041,4,2.04,2.29,3.13,2.12,5.04,0.61,0.07,0.74,-7,-0,-9,0.61,2329,60,65,34,98,1269,122.0,227,462,60,122.0,321,1,233,458,35,0,0,122,13862,6656,110,,,,,,,,,,,,
67823,1560694231061,-2,2.05,2.3,3.14,2.12,5.05,0.66,0.07,0.73,-7,-0,-9,0.67,2313,60,65,34,98,1292,124.0,226,465,60,122.0,342,1,227,436,38,0,0,122,250,-1482,111,,,,,,,,,,,,
67843,1560694231081,5,2.05,2.31,3.13,2.13,5.04,0.63,0.05,0.77,-8,-1,-10,0.63,2301,60,65,34,98,1326,125.0,226,462,60,121.0,342,1,232,452,38,0,0,124,11264,8192,113,45.700279,4.909426,10.9,195.6,0,0.0,-1,0.0,0.0,0,0.0,1.1307
67863,1560694231105,-2,2.05,2.31,3.13,2.13,5.05,0.68,0.06,0.72,-8,-1,-10,0.68,2263,60,65,34,98,1370,127.0,224,471,60,122.0,342,1,230,453,38,0,0,126,-202,-1482,115,,,,,,,,,,,,
67883,1560694231125,1,2.05,2.31,3.13,2.13,5.04,0.61,0.06,0.73,-8,-3,-9,0.61,2308,60,65,34,98,1406,128.0,226,463,60,120.0,342,1,232,456,38,0,0,127,-1,-1482,116,,,,,,,,,,,,
67903,1560694231145,-0,2.06,2.32,3.14,2.12,5.04,0.7,0.07,0.76,-8,-0,-9,0.71,2374,60,65,34,98,1439,129.0,227,463,60,122.0,342,1,234,461,38,0,0,128,-1,250,117,,,,,,,,,,,,
67923,1560694231165,-1,2.05,2.32,3.14,2.13,5.04,0.67,0.05,0.76,-8,-4,-8,0.67,2429,60,65,34,97,1465,131.0,233,460,60,121.0,352,1,232,444,42,0,0,129,-1,-1482,119,,,,,,,,,,,,
67943,1560694231185,2,2.06,2.32,3.13,2.12,5.06,0.58,0.03,0.77,-8,0,-10,0.58,2420,60,65,34,98,1492,133.0,235,462,60,121.0,352,1,236,465,42,0,0,132,-1,11264,121,45.700283,4.909427,11.12,195.6,0,0.0,-1,0.0,0.0,0,0.0,1.1324
67963,1560694231207,0,2.05,2.32,3.11,2.14,5.06,0.67,0.04,0.72,-9,-1,-9,0.67,2435,61,65,34,97,1498,135.0,232,467,60,122.0,352,1,232,444,42,0,0,134,-1,-202,124,,,,,,,,,,,,
67983,1560694231227,-1,2.07,2.32,3.1,2.13,5.04,0.61,0.04,0.78,-9,-6,-8,0.61,2477,62,65,34,97,1498,135.0,236,455,60,119.0,352,1,234,448,42,0,0,136,-1,-1,124,,,,,,,,,,,,
68003,1560694231247,0,2.07,2.31,3.11,2.12,5.05,0.63,0.07,0.77,-7,2,-10,0.64,2480,64,65,34,98,1498,136.0,238,460,60,121.0,352,1,239,469,42,0,0,137,-1,-1,126,,,,,,,,,,,,
68023,1560694231267,-1,2.07,2.31,3.11,2.11,5.04,0.64,0.06,0.74,-8,-3,-9,0.64,2503,65,65,34,97,1498,138.0,237,466,60,122.0,349,1,235,450,44,0,0,138,-1,-1,128,,,,,,,,,,,,
68043,1560694231287,-2,2.07,2.32,3.11,2.11,5.05,0.54,0.03,0.8,-8,-6,-8,0.54,2628,67,65,34,97,1498,141.0,246,458,60,119.0,349,1,235,469,44,0,0,140,5120,-1,129,45.700287,4.909428,11.45,195.5,0,0.0,-1,0.0,0.0,0,0.0,1.1341
68063,1560694231307,0,2.08,2.31,3.11,2.13,5.07,0.61,0.04,0.79,-8,3,-11,0.61,2693,69,65,34,97,1498,141.0,250,460,60,121.0,349,1,235,484,44,0,0,142,5120,-1,132,,,,,,,,,,,,
68083,1560694231327,2,2.07,2.33,3.11,2.14,5.04,0.71,0.07,0.8,-7,4,-11,0.71,2654,71,65,34,98,1497,144.0,248,457,60,121.0,349,1,240,497,44,0,0,145,-1,-1281,133,,,,,,,,,,,,
68103,1560694231347,-0,2.08,2.33,3.11,2.13,5.05,0.64,0.06,0.78,-8,-4,-9,0.65,2556,71,65,34,98,1491,145.0,248,466,60,122.0,349,1,235,457,44,0,0,146,-1,250,135,,,,,,,,,,,,
68123,1560694231367,-1,2.08,2.33,3.12,2.13,5.07,0.64,0.02,0.8,-8,-3,-9,0.64,2524,72,65,34,97,1486,146.0,245,455,60,119.0,313,1,240,474,43,0,0,146,-1,-1281,137,,,,,,,,,,,,
68143,1560694231387,0,2.09,2.32,3.13,2.13,5.04,0.65,0.07,0.75,-8,5,-11,0.65,2598,72,66,34,98,1481,148.0,246,462,60,122.0,313,1,240,483,43,0,0,147,-1,-1,137,45.700287,4.909429,12.35,195.5,0,0.0,-1,0.0,0.0,0,0.0,1.1357
68163,1560694231407,3,2.09,2.3,3.17,2.11,5.08,0.73,0.1,0.74,-8,3,-12,0.74,2752,73,66,34,98,1475,149.0,255,461,60,122.0,313,1,236,484,43,0,0,149,-1,-1,137,,,,,,,,,,,,
68183,1560694231427,0,2.09,2.3,3.15,2.09,5.06,0.72,0.08,0.77,-9,-4,-10,0.72,2723,73,66,34,97,1467,150.0,258,465,60,120.0,313,1,236,480,43,0,0,150,-1,250,138,,,,,,,,,,,,
68203,1560694231447,-1,2.09,2.3,3.14,2.1,5.08,0.64,0.07,0.73,-8,-4,-9,0.65,2623,73,66,34,97,1462,151.0,252,460,60,121.0,313,1,235,464,43,0,0,151,-1281,5140,139,,,,,,,,,,,,
68223,1560694231467,-2,2.1,2.31,3.13,2.1,5.07,0.7,0.05,0.71,-8,1,-11,0.7,2612,73,66,34,98,1458,151.0,254,459,60,120.0,335,1,240,482,47,0,0,150,-1281,5120,140,,,,,,,,,,,,
68243,1560694231487,-1,2.09,2.3,3.15,2.1,5.06,0.77,0.11,0.64,-8,5,-12,0.78,2713,74,66,34,98,1459,151.0,256,459,60,122.0,335,1,240,502,47,0,0,151,-1281,-1281,140,45.700291,4.90943,13.09,195.5,0,0.0,-1,0.0,0.0,0,0.0,1.1374
68263,1560694231507,4,2.09,2.3,3.16,2.1,5.07,0.81,0.12,0.68,-8,1,-12,0.82,2814,75,66,34,97,1464,151.0,259,462,60,122.0,335,1,236,495,47,0,0,150,-1281,250,140,,,,,,,,,,,,
68283,1560694231527,-1,2.1,2.31,3.16,2.11,5.07,0.75,0.09,0.69,-9,-4,-10,0.75,2693,75,66,34,97,1467,151.0,260,467,60,120.0,335,1,235,475,47,0,0,151,-1281,5120,141,,,,,,,,,,,,
68303,1560694231547,0,2.09,2.31,3.17,2.11,5.07,0.67,0.09,0.68,-8,-5,-10,0.68,2626,75,66,34,97,1475,151.0,254,457,60,120.0,335,1,235,465,47,0,0,151,-1281,5120,141,,,,,,,,,,,,
68323,1560694231567,0,2.09,2.3,3.17,2.09,5.08,0.68,0.08,0.67,-8,0,-11,0.69,2769,75,66,34,98,1485,152.0,257,459,60,119.0,347,1,240,512,49,0,0,150,250,250,141,,,,,,,,,,,,
68343,1560694231587,0,2.1,2.3,3.17,2.09,5.08,0.73,0.11,0.65,-8,5,-12,0.74,2858,75,66,34,97,1490,151.0,263,456,60,122.0,347,1,236,527,49,0,0,151,-1281,250,141,45.700294,4.909432,13.93,195.5,0,0.0,-1,0.0,0.0,0,0.0,1.1391
68363,1560694231605,-2,2.1,2.31,3.17,2.1,5.04,0.75,0.14,0.61,-8,7,-13,0.76,2846,75,66,34,97,1498,152.0,263,457,60,122.0,347,1,236,499,49,0,0,151,250,5140,141,,,,,,,,,,,,
68383,1560694231625,3,2.11,2.31,3.17,2.08,5.05,0.84,0.14,0.65,-8,4,-13,0.86,2767,75,66,34,98,1498,153.0,261,460,60,122.0,347,1,240,487,49,0,0,152,-23552,-236,141,,,,,,,,,,,,
68403,1560694231645,4,2.11,2.31,3.17,2.08,5.03,0.9,0.15,0.67,-8,0,-12,0.91,2837,75,66,34,98,1498,153.0,265,465,60,122.0,347,1,236,497,49,0,0,153,-23552,5140,142,,,,,,,,,,,,
68423,1560694231665,3,2.12,2.32,3.17,2.07,5.04,0.89,0.16,0.72,-8,-5,-11,0.91,2996,75,66,34,97,1498,155.0,266,465,60,122.0,412,1,237,522,59,0,0,155,-165,-1,143,,,,,,,,,,,,
68443,1560694231685,3,2.12,2.33,3.16,2.09,5.04,0.91,0.17,0.74,-9,-7,-10,0.92,2921,76,66,34,97,1498,156.0,273,465,60,120.0,412,1,237,510,59,0,0,156,-1,-1,143,45.700298,4.909433,14.18,195.5,0,0.0,-1,0.0,0.0,0,0.0,1.1407
68463,1560694231706,3,2.13,2.33,3.16,2.1,5.04,0.92,0.17,0.74,-9,-10,-9,0.93,2940,76,66,34,97,1498,156.0,270,465,60,121.0,412,1,237,513,59,0,0,156,-1,250,146,,,,,,,,,,,,
68483,1560694231726,2,2.15,2.32,3.16,2.1,5.03,0.92,0.15,0.77,-9,-13,-7,0.93,2931,76,66,34,97,1498,158.0,270,466,60,121.0,412,1,237,511,59,0,0,159,-1,-165,150,,,,,,,,,,,,
68503,1560694231746,2,2.16,2.32,3.16,2.13,5.04,0.89,0.11,0.8,-9,-16,-6,0.9,2947,76,66,34,97,1498,159.0,272,465,60,120.0,412,1,237,514,59,0,0,161,-1281,-1,152,,,,,,,,,,,,
68523,1560694231766,2,2.17,2.33,3.15,2.16,5.04,0.88,0.08,0.82,-9,-20,-4,0.89,3058,76,66,34,97,1498,161.0,274,465,60,122.0,376,1,237,540,58,0,0,161,3072,-1281,154,,,,,,,,,,,,
68543,1560694231786,4,2.17,2.32,3.16,2.2,5.05,0.85,0.08,0.84,-9,-21,-3,0.85,3058,76,66,34,97,1498,162.0,277,464,60,120.0,376,1,237,540,58,0,0,163,10764,-1494,156,45.700302,4.909434,14.13,195.5,0,0.0,-1,0.0,0.0,0,0.0,1.1424
68563,1560694231806,-1,2.19,2.32,3.11,2.25,5.07,0.82,0.09,0.83,-8,-19,-4,0.83,3167,76,66,34,97,1498,165.0,283,460,60,122.0,376,1,238,570,58,0,0,165,30720,250,158,,,,,,,,,,,,
68583,1560694231826,-0,2.2,2.31,3.07,2.23,5.08,0.81,0.13,0.82,-8,-17,-4,0.82,3298,76,66,34,97,1498,166.0,292,456,60,121.0,376,1,238,606,58,0,0,169,888,-253,161,,,,,,,,,,,,
68603,1560694231846,1,2.19,2.31,3.05,2.21,5.04,0.73,0.13,0.83,-7,-13,-4,0.74,3381,76,66,34,97,1498,167.0,305,457,60,119.0,376,1,239,631,58,0,0,170,-253,10620,165,,,,,,,,,,,,
68623,1560694231866,4,2.2,2.32,3.05,2.22,5.05,0.76,0.1,0.89,-7,-13,-4,0.77,3446,76,66,34,97,1498,170.0,304,463,60,120.0,494,1,239,649,83,0,0,174,31744,5134,168,,,,,,,,,,,,
68643,1560694231886,-0,2.22,2.33,3.05,2.25,5.05,0.72,0.1,0.9,-6,-13,-5,0.73,3425,76,66,34,97,1498,176.0,313,462,60,121.0,494,1,239,643,83,0,0,180,250,-1,173,45.700306,4.909435,14.72,195.5,0,0.0,-1,0.0,0.0,0,0.0,1.144
68663,1560694231906,1,2.21,2.34,3.06,2.28,5.03,0.73,0.12,0.93,-6,-11,-4,0.74,3469,76,66,34,97,1495,177.0,310,448,60,121.0,494,1,239,655,83,0,0,182,3584,-1,176,,,,,,,,,,,,
68683,1560694231926,4,2.22,2.36,3.06,2.28,5.06,0.7,0.04,0.95,-5,-12,-4,0.7,3504,76,66,34,97,1489,183.0,317,465,60,121.0,494,1,240,665,83,0,0,187,-1,-1,179,,,,,,,,,,,,
68703,1560694231946,0,2.22,2.38,3.06,2.28,5.08,0.62,0.09,0.9,-5,-10,-5,0.63,3553,76,66,34,97,1485,186.0,314,459,60,122.0,494,1,246,666,83,0,0,191,-1,250,185,,,,,,,,,,,,
68723,1560694231966,2,2.22,2.41,3.06,2.3,5.03,0.62,0.1,0.92,-4,-9,-4,0.62,3681,76,66,34,97,1479,191.0,326,459,60,119.0,484,1,260,669,91,0,0,195,-1281,-1481,188,,,,,,,,,,,,
68743,1560694231986,0,2.23,2.46,3.06,2.29,5.06,0.6,0.14,0.92,-3,-8,-4,0.62,3773,76,66,34,97,1459,193.0,332,464,60,122.0,484,1,271,671,91,0,0,199,-2560,14412,190,45.70031,4.909436,15.98,195.4,0,0.0,-1,0.0,0.0,0,0.0,1.1457
68763,1560694232000,5,2.23,2.46,3.08,2.28,5.05,0.63,0.11,0.93,-3,-10,-4,0.64,3911,76,66,34,97,1428,198.0,345,453,60,119.0,484,1,287,673,91,0,0,206,14412,-1482,194,,,,,,,,,,,,
68783,1560694232020,1,2.24,2.44,3.08,2.28,5.04,0.58,0.08,0.98,-4,-8,-3,0.59,3997,76,66,34,97,1393,201.0,350,444,60,120.0,484,1,296,675,91,0,0,206,12800,-14848,200,,,,,,,,,,,,
68803,1560694232040,-1,2.26,2.44,3.08,2.28,5.06,0.57,0.07,0.99,-4,-6,-3,0.58,4084,77,66,34,97,1373,208.0,366,473,60,121.0,484,1,296,676,91,0,0,216,250,-1532,204,,,,,,,,,,,,
68823,1560694232060,-0,2.26,2.47,3.07,2.29,5.05,0.55,0.05,0.97,-4,-6,-3,0.55,4117,77,66,34,97,1339,210.0,365,452,60,120.0,502,1,296,671,104,0,0,219,966,250,210,,,,,,,,,,,,
68843,1560694232080,5,2.26,2.49,3.09,2.29,5.05,0.51,0.01,1.0,-4,-7,-2,0.51,4175,77,66,34,97,1299,216.0,374,446,60,120.0,502,1,295,672,104,0,0,221,250,250,215,45.700314,4.909437,17.41,195.4,0,0.0,-1,0.0,0.0,0,0.01,1.1474
68863,1560694232106,4,2.27,2.52,3.15,2.28,5.04,0.51,0.02,1.0,-4,-4,-1,0.51,4208,77,66,34,97,1265,221.0,380,443,60,120.0,502,1,294,672,104,0,0,229,15360,250,218,,,,,,,,,,,,
68883,1560694232126,2,2.29,2.53,3.15,2.29,5.08,0.53,0.03,0.98,-4,-4,-2,0.53,4259,78,66,34,97,1255,225.0,382,466,60,122.0,502,1,293,672,104,0,0,233,-1496,13468,223,,,,,,,,,,,,
68903,1560694232146,2,2.29,2.53,3.09,2.28,5.05,0.55,0.07,0.96,-3,-5,-1,0.56,4382,78,66,34,97,1221,230.0,391,468,60,121.0,502,1,291,673,104,0,0,235,10824,-1483,229,,,,,,,,,,,,
68923,1560694232166,1,2.32,2.52,3.11,2.29,5.06,0.56,0.09,0.96,-2,-3,-0,0.56,4510,78,66,34,96,1193,233.0,404,461,60,121.0,495,1,289,645,114,0,0,239,250,250,233,,,,,,,,,,,,
68943,1560694232186,4,2.31,2.49,3.14,2.27,5.06,0.55,0.09,1.01,-2,-4,-1,0.56,4659,78,66,34,97,1154,236.0,420,465,60,120.0,495,1,286,648,114,0,0,243,13602,250,236,45.700321,4.909438,19.23,195.4,0,0.0,-1,0.0,0.0,0,0.01,1.149
68963,1560694232206,-0,2.33,2.49,3.14,2.28,5.04,0.53,0.11,1.02,-1,-5,-1,0.54,4767,78,66,34,96,1137,241.0,422,462,60,120.0,495,1,284,650,114,0,0,253,250,10818,241,,,,,,,,,,,,
68983,1560694232226,-1,2.33,2.48,3.13,2.29,5.07,0.45,0.04,0.97,-0,-3,-1,0.45,4895,78,66,34,96,1096,246.0,437,452,60,119.0,495,1,281,651,114,0,0,257,250,506,246,,,,,,,,,,,,
69003,1560694232246,1,2.34,2.49,3.11,2.36,5.06,0.36,0.11,0.92,1,-1,0,0.38,4990,78,66,34,95,1047,252.0,445,456,60,122.0,495,1,280,628,114,0,0,262,10818,-1,252,,,,,,,,,,,,
69023,1560694232266,0,2.34,2.49,3.06,2.36,5.04,0.4,0.08,1.03,1,-0,0,0.41,5071,78,66,34,95,1014,258.0,455,461,60,121.0,468,1,281,623,119,0,0,266,-1281,28160,258,,,,,,,,,,,,
69043,1560694232286,3,2.34,2.49,3.03,2.38,5.08,0.41,0.05,1.06,2,-2,-1,0.41,5214,78,66,34,95,983,264.0,476,449,60,121.0,468,1,287,615,119,0,0,270,14337,250,264,45.700325,4.909439,21.27,195.3,0,0.0,-1,0.0,0.0,0,0.01,1.1507
69063,1560694232306,-1,2.35,2.49,3.03,2.37,5.04,0.4,0.03,1.08,2,-2,-1,0.4,5293,78,66,34,94,961,269.0,483,461,60,121.0,468,1,290,590,119,0,0,276,-1,-1534,269,,,,,,,,,,,,
69083,1560694232326,4,2.35,2.49,3.09,2.38,5.05,0.39,-0.02,1.12,2,-2,0,0.39,5355,78,66,34,94,919,274.0,487,453,60,121.0,468,1,292,588,119,0,0,296,-1,1886,274,,,,,,,,,,,,
69103,1560694232346,1,2.35,2.49,3.08,2.39,5.05,0.34,0.01,1.01,4,1,2,0.34,5488,78,66,34,94,890,278.0,494,456,60,119.0,468,1,295,584,119,0,0,310,2414,0,280,,,,,,,,,,,,
69123,1560694232366,-1,2.36,2.5,3.1,2.38,5.04,0.47,0.04,1.1,3,-5,4,0.48,5598,78,66,34,94,884,285.0,506,461,60,121.0,429,1,301,576,122,0,0,301,1886,21760,285,,,,,,,,,,,,
69143,1560694232386,1,2.36,2.56,3.12,2.38,5.03,0.52,-0.08,1.14,1,-2,4,0.52,5740,78,66,34,94,874,291.0,517,458,60,121.0,429,1,307,554,122,0,0,310,250,28160,291,45.700329,4.90944,23.08,195.2,0,0.0,-1,0.0,0.0,0,0.01,1.1524
69163,1560694232406,-1,2.37,2.56,3.12,2.36,5.04,0.48,-0.12,1.16,1,0,3,0.5,5879,78,66,34,94,867,296.0,528,450,60,120.0,429,1,312,563,122,0,0,306,20480,-29696,296,,,,,,,,,,,,
69183,1560694232426,-2,2.36,2.56,3.13,2.36,5.05,0.42,-0.1,1.13,2,2,4,0.43,5982,78,66,34,93,859,303.0,538,452,60,120.0,429,1,316,557,122,0,0,317,25600,-27136,306,,,,,,,,,,,,
69203,1560694232446,-1,2.37,2.56,3.12,2.4,5.03,0.41,-0.21,1.15,3,6,5,0.46,6038,78,66,34,94,859,311.0,548,448,60,120.0,429,1,318,557,122,0,0,320,105,150,311,,,,,,,,,,,,
69223,1560694232466,1,2.37,2.56,3.12,2.42,5.07,0.5,-0.31,1.23,2,6,6,0.59,6060,78,66,34,94,859,315.0,550,452,60,121.0,406,1,320,556,128,0,0,326,115,-12032,319,,,,,,,,,,,,
69243,1560694232486,0,2.37,2.55,3.11,2.42,5.04,0.53,-0.45,1.3,2,4,6,0.7,6097,78,66,34,94,862,322.0,546,450,60,120.0,406,1,321,556,128,0,0,329,135,-32559,322,45.700336,4.909441,25.99,195.2,0,0.0,-1,0.0,0.0,0,0.01,1.154
69263,1560694232506,-1,2.38,2.54,3.09,2.42,5.05,0.59,-0.5,1.32,2,3,6,0.77,6169,78,66,34,94,864,328.0,555,449,60,121.0,406,1,325,556,128,0,0,328,-28416,3327,328,,,,,,,,,,,,
69283,1560694232526,4,2.37,2.54,3.09,2.42,5.04,0.68,-0.54,1.38,2,2,6,0.87,6260,78,66,34,94,867,335.0,563,462,60,120.0,406,1,330,555,128,0,0,338,155,6668,335,,,,,,,,,,,,
69303,1560694232546,4,2.37,2.53,3.09,2.46,5.04,0.64,-0.48,1.29,3,0,5,0.81,6353,78,66,34,94,867,336.0,575,457,60,119.0,406,1,335,555,128,0,0,337,165,-10554,337,,,,,,,,,,,,
69323,1560694232566,-0,2.37,2.53,3.09,2.53,5.04,0.56,-0.41,1.24,4,1,6,0.69,6510,78,66,34,94,857,342.0,588,463,60,119.0,397,1,343,554,135,0,0,350,170,28553,342,,,,,,,,,,,,
69343,1560694232586,5,2.37,2.41,3.1,2.37,5.07,0.56,-0.37,1.3,5,1,7,0.67,6634,78,66,34,93,848,347.0,594,457,60,120.0,397,1,350,551,135,0,0,350,-12032,3302,347,45.700344,4.909442,28.52,195.2,0,0.0,-1,0.0,0.0,0,0.01,1.1557
69363,1560694232606,-0,2.37,2.36,3.13,2.17,5.04,0.42,-0.3,1.29,8,5,7,0.52,6768,78,66,34,93,836,353.0,605,457,60,119.0,397,1,358,551,135,0,0,356,6668,-6458,357,,,,,,,,,,,,
69383,1560694232626,1,2.37,2.38,3.2,2.2,5.04,0.48,-0.25,1.28,7,2,6,0.55,6870,78,66,34,93,820,357.0,611,461,60,120.0,397,1,363,552,135,0,0,375,-30438,2790,360,,,,,,,,,,,,
69403,1560694232646,4,2.36,2.48,3.23,2.22,5.07,0.46,-0.27,1.29,7,4,6,0.53,7025,78,66,34,92,803,358.0,616,452,60,121.0,397,1,372,556,135,0,0,392,28553,-6405,358,,,,,,,,,,,,
69423,1560694232666,3,2.35,2.46,3.28,2.2,5.05,0.27,-0.23,1.19,8,5,5,0.36,7167,78,66,34,92,786,359.0,618,459,60,120.0,425,1,384,563,152,0,0,396,4104,486,359,,,,,,,,,,,,
69443,1560694232686,3,2.35,2.39,3.29,2.23,5.04,0.23,-0.21,1.12,6,4,8,0.31,7367,78,66,34,91,780,367.0,620,459,60,119.0,425,1,399,572,152,0,0,380,-6458,770,367,45.700348,4.909444,31.51,195.2,0,0.0,-1,0.0,0.0,0,0.01,1.1574
69463,1560694232707,3,2.35,2.48,3.17,2.31,5.05,0.28,-0.31,1.11,6,4,10,0.41,7452,78,66,34,91,774,373.0,632,460,60,119.0,425,1,407,576,152,0,0,380,0,11545,373,,,,,,,,,,,,
69483,1560694232727,3,2.35,2.64,3.21,2.4,5.06,0.17,-0.29,1.04,7,2,11,0.34,7584,77,66,34,90,766,377.0,627,460,60,119.0,425,1,413,579,152,0,0,410,486,9517,378,,,,,,,,,,,,
69503,1560694232747,5,2.36,2.72,2.99,2.47,5.05,-0.04,-0.19,0.88,8,6,12,0.2,7703,77,66,34,89,757,381.0,632,462,60,119.0,425,1,425,577,152,0,0,413,-6656,-3856,383,,,,,,,,,,,,
69523,1560694232767,17,2.36,2.7,2.73,2.53,5.04,0.05,-0.22,0.99,11,12,9,0.23,7868,76,66,34,88,754,385.0,632,460,60,119.0,441,1,436,563,170,0,0,391,8200,11545,385,,,,,,,,,,,,
69543,1560694232787,-0,2.35,2.55,2.76,2.58,5.04,0.09,-0.28,1.09,12,8,10,0.3,7871,72,66,34,85,749,396.0,632,453,60,120.0,441,1,431,543,170,0,0,411,-992,13040,396,45.700359,4.909446,33.47,195.1,0,0.0,-1,0.0,0.0,0,0.01,1.159
69563,1560694232805,1,2.35,2.49,2.88,2.63,5.07,0.2,-0.2,1.18,12,8,7,0.29,7878,67,66,34,82,747,404.0,636,452,60,120.0,441,1,430,514,170,0,0,461,-18948,-18341,404,,,,,,,,,,,,
69583,1560694232825,3,2.33,2.49,3.02,2.65,5.06,0.15,-0.16,1.1,11,3,9,0.21,7999,64,66,34,80,743,412.0,639,460,60,119.0,441,1,437,497,170,0,0,474,-992,-21944,412,,,,,,,,,,,,
69603,1560694232845,3,2.33,2.52,3.06,2.63,5.08,0.18,-0.1,0.96,9,1,11,0.21,8162,63,66,34,76,742,412.0,642,457,60,120.0,441,1,435,477,170,0,0,404,-18948,2131,412,,,,,,,,,,,,
69623,1560694232865,13,2.33,2.58,3.11,2.61,5.04,0.16,-0.06,0.92,7,-3,15,0.17,8359,63,66,34,74,742,414.0,641,454,60,120.0,342,1,432,450,141,0,0,422,19125,-9203,414,,,,,,,,,,,,
69643,1560694232885,3,2.34,2.58,3.23,2.52,5.06,0.1,-0.09,0.91,9,0,13,0.14,8553,62,66,34,71,741,416.0,648,460,60,120.0,342,1,428,433,141,0,0,455,9517,-32768,416,45.700367,4.909449,35.61,195.1,0,0.0,-1,0.0,0.0,0,0.01,1.1607
69663,1560694232907,2,2.34,2.55,3.29,2.51,5.05,0.21,-0.11,0.96,10,1,11,0.24,8869,60,66,34,70,740,423.0,653,461,60,120.0,342,1,418,413,141,0,0,489,-9166,-16384,424,,,,,,,,,,,,
69683,1560694232927,3,2.33,2.52,3.29,2.56,5.05,0.23,-0.26,1.06,9,0,10,0.35,9119,62,66,34,68,739,428.0,658,465,60,120.0,342,1,413,393,141,0,0,492,-26615,23400,428,,,,,,,,,,,,
69703,1560694232947,4,2.33,2.5,3.27,2.57,5.05,0.23,-0.23,0.97,8,5,9,0.32,9218,61,66,34,67,737,434.0,656,462,60,120.0,342,1,412,389,141,0,0,513,-8165,-23623,434,,,,,,,,,,,,
69723,1560694232967,2,2.31,2.5,3.15,2.54,5.04,0.02,-0.12,0.92,8,3,14,0.12,9236,61,66,34,66,740,438.0,657,464,60,119.0,308,1,412,389,135,0,0,470,3826,16383,440,,,,,,,,,,,,
69743,1560694232987,3,2.31,2.51,3.07,2.51,5.07,-0.05,0.06,0.93,8,6,16,0.07,9236,61,66,33,66,747,444.0,660,460,60,119.0,308,1,411,384,135,0,0,451,-3322,1780,444,45.700378,4.909452,39.27,195.0,0,0.0,-1,0.0,0.0,0,0.01,1.1624
