"Interval"|"ms"|0|0|1,"Utc"|"ms"|0|0|1,"FB_p"|"bar"|0|300|50,"Volant"|"F"|0.0|300.0|50,"xFR"|"mm"|0.0|5.0|50,"xRR"|"mm"|0.0|5.0|50,"xFL"|"mm"|0.0|5.0|50,"xRL"|"mm"|0.0|5.0|50,"AccelX"|"G"|-3.0|3.0|50,"AccelY"|"G"|-3.0|3.0|50,"AccelZ"|"G"|-3.0|3.0|50,"Yaw"|"Deg/Sec"|-120|120|50,"Pitch"|"Deg/Sec"|-120|120|50,"Roll"|"Deg/Sec"|-120|120|50,"Gsum"|"G"|0.0|3.0|50,"RPM"|""|0|14000|50,"TPS"|"%"|0|100|50,"WaterTemp"|"?C"|0|300|50,"AirTemp"|"?C"|-1000|1000|50,"MAP"|"KPa"|0|255|50,"Lambda"|""|0|1024|50,"WheelSpeed"|"MPH"|0.0|150.0|50,"OilPress"|"PSI"|0|150|50,"FuelPress"|"PSI"|0|150|50,"OilTemp"|"F"|0|300|50,"Battery"|"Volts"|0.0|20.0|50,"FuelCon"|"L/h"|-1000|1000|50,"Gear"|""|0|10|50,"Advance"|"Deg"|-360|360|50,"Injection"|"ms"|-1000|1000|50,"FuelCon"|"L/100km"|-1000|1000|50,"LC_But_Pres"|""|-1000|1000|50,"LC_Active"|""|-1000|1000|50,"RD_Speed"|""|-1000|1000|50,"RUD_Speed"|""|-1000|1000|50,"LD_Speed"|""|-1000|1000|50,"LUD_Speed"|""|-1000|1000|50,"Latitude"|"Degrees"|-180.0|180.0|10,"Longitude"|"Degrees"|-180.0|180.0|10,"Speed"|"kph"|0.0|150.0|10,"Altitude"|"m"|0.0|4000.0|10,"LapCount"|""|0|0|10,"LapTime"|"Min"|0.0|0.0|10,"Sector"|""|0|0|10,"SectorTime"|"Min"|0.0|0.0|10,"ElapsedTime"|"Min"|0.0|0.0|10,"CurrentLap"|""|0|0|10,"Distance"|"km"|0.0|0.0|10,"SessionTime"|"Min"|0.0|0.0|10
368963,1560692897052,17,2.25,1.89,3.51,1.64,5.04,1.4,-0.28,0.07,1,-2,-3,1.42,7205,6,86,34,21,961,594.0,495,450,60,118.0,90,1,262,156,55,0,0,486,-13043,-1818,588,,,,,,,,,,,,
368983,1560692897072,16,2.25,1.89,3.52,1.64,5.04,1.18,-0.15,-0.11,0,-0,-3,1.19,7121,6,86,34,21,966,587.0,508,455,60,118.0,90,1,261,149,55,0,0,448,-25872,23400,580,,,,,,,,,,,,
369003,1560692897098,15,2.26,1.88,3.5,1.64,5.08,1.11,-0.05,-0.1,-1,1,-7,1.11,7284,6,86,34,21,965,581.0,509,455,60,118.0,69,1,262,149,40,0,0,414,10432,18584,573,,,,,,,,,,,,
369023,1560692897118,15,2.27,1.89,3.5,1.64,5.04,1.2,-0.07,0.05,-2,-4,-6,1.2,7312,6,86,34,21,964,577.0,508,452,60,117.0,69,1,263,149,40,0,0,376,30208,11560,567,,,,,,,,,,,,
369043,1560692897138,19,2.26,1.89,3.49,1.63,5.04,1.28,-0.22,0.06,-3,-2,-6,1.3,7264,6,86,34,21,955,568.0,516,456,60,117.0,69,1,262,149,40,0,0,368,-8186,-29302,563,45.700802,4.90967,60.13,197.6,3,1.6,0,0.0,0.0383,4,0.06,6.1507
369063,1560692897158,18,2.27,1.89,3.48,1.63,5.04,1.26,-0.31,0.1,-2,-2,-6,1.3,7161,6,86,34,21,946,563.0,509,454,60,117.0,69,1,261,149,40,0,0,403,2211,486,553,,,,,,,,,,,,
369083,1560692897178,13,2.28,1.92,3.48,1.63,5.05,1.26,-0.24,-0.11,-2,-0,-6,1.28,7088,6,86,34,21,946,557.0,506,453,60,118.0,69,1,260,149,40,0,0,413,-9072,18584,543,,,,,,,,,,,,
369103,1560692897198,13,2.28,1.92,3.48,1.65,5.05,1.15,-0.1,-0.2,-3,-2,-7,1.16,7099,6,86,34,21,945,546.0,505,453,60,118.0,71,1,260,149,39,0,0,378,2524,1504,538,,,,,,,,,,,,
369123,1560692897218,19,2.28,1.92,3.49,1.64,5.07,1.24,-0.21,0.0,-5,-2,-7,1.26,7172,6,86,34,21,954,543.0,503,457,60,117.0,71,1,261,149,39,0,0,348,1779,-14707,531,,,,,,,,,,,,
369143,1560692897238,15,2.28,1.94,3.48,1.64,5.05,1.23,-0.2,-0.08,-4,-2,-6,1.25,7083,6,86,34,21,963,537.0,517,451,60,117.0,71,1,260,149,39,0,0,363,-30064,2811,527,45.700813,4.90968,57.14,197.6,3,1.6,0,0.0,0.04,4,0.06,6.1524
369163,1560692897258,13,2.29,1.97,3.47,1.66,5.06,1.25,-0.17,-0.14,-4,-1,-6,1.26,6908,6,86,34,21,972,531.0,499,456,60,118.0,71,1,260,148,39,0,0,400,-22519,-6656,518,,,,,,,,,,,,
369183,1560692897278,18,2.28,1.96,3.46,1.64,5.04,1.29,-0.2,-0.02,-5,-2,-7,1.3,6838,6,86,34,21,980,524.0,497,455,60,117.0,71,1,260,147,39,0,0,418,10408,1,512,,,,,,,,,,,,
369203,1560692897299,14,2.29,1.94,3.46,1.6,5.07,1.3,-0.19,-0.13,-5,-2,-6,1.32,6906,6,86,34,21,981,517.0,491,448,60,118.0,74,1,260,148,38,0,0,381,15679,3302,508,,,,,,,,,,,,
369223,1560692897319,17,2.29,1.92,3.47,1.59,5.04,1.16,-0.06,-0.2,-5,-0,-6,1.16,6890,6,86,34,21,981,515.0,510,458,60,117.0,74,1,260,148,38,0,0,321,-14,3327,504,,,,,,,,,,,,
369243,1560692897339,14,2.29,1.92,3.49,1.59,5.04,1.25,-0.1,-0.11,-6,0,-5,1.25,6773,6,86,34,22,977,513.0,489,455,60,117.0,74,1,260,150,38,0,0,317,26178,6870,500,45.700825,4.909689,53.99,197.5,3,1.6,0,0.0,0.0417,4,0.06,6.154
369263,1560692897359,18,2.3,1.99,3.49,1.63,5.04,1.22,-0.07,-0.13,-6,0,-5,1.22,6651,6,86,34,22,974,505.0,495,457,60,117.0,74,1,261,149,38,0,0,333,6274,-6644,489,,,,,,,,,,,,
369283,1560692897379,14,2.31,2.05,3.45,1.7,5.04,1.24,0.01,-0.19,-6,2,-5,1.24,6508,6,86,34,22,971,495.0,482,452,60,118.0,74,1,261,148,38,0,0,372,771,-18948,485,,,,,,,,,,,,
369303,1560692897398,15,2.31,2.07,3.38,1.69,5.04,1.32,0.04,-0.14,-7,1,-4,1.32,6379,6,86,34,23,968,487.0,469,443,60,118.0,75,1,263,151,36,0,0,427,505,31796,475,,,,,,,,,,,,
369323,1560692897418,18,2.31,2.05,3.36,1.65,5.04,1.35,0.06,-0.04,-7,-2,-5,1.35,6340,6,86,34,23,964,477.0,472,431,60,117.0,75,1,263,151,36,0,0,418,10305,-6656,470,,,,,,,,,,,,
369343,1560692897438,12,2.33,2.01,3.38,1.6,5.04,1.32,0.11,-0.13,-6,-1,-5,1.33,6514,6,86,34,23,961,475.0,466,411,60,119.0,75,1,262,152,36,0,0,412,-17956,230,467,45.70084,4.909698,50.99,197.5,3,1.6,0,0.0,0.0433,4,0.06,6.1557
369363,1560692897458,14,2.33,1.99,3.4,1.58,5.04,1.37,0.03,-0.05,-5,-4,-6,1.37,6606,6,86,34,23,958,469.0,468,437,60,118.0,75,1,262,152,36,0,0,354,-16384,-30438,463,,,,,,,,,,,,
369383,1560692897478,16,2.33,1.97,3.46,1.61,5.04,1.38,0.07,-0.06,-4,-3,-7,1.38,6665,6,86,34,23,958,461.0,481,432,60,118.0,75,1,262,152,36,0,0,312,2211,3327,459,,,,,,,,,,,,
369403,1560692897498,9,2.34,1.96,3.49,1.64,5.04,1.45,0.07,-0.08,-4,-4,-5,1.45,6542,6,86,34,23,957,457.0,473,447,60,119.0,82,1,262,152,38,0,0,302,-9160,-6524,454,,,,,,,,,,,,
369423,1560692897518,11,2.33,1.95,3.46,1.64,5.04,1.45,-0.01,0.02,-4,-3,-3,1.45,6421,6,86,34,24,956,451.0,473,448,60,118.0,82,1,264,155,38,0,0,318,3571,3826,449,,,,,,,,,,,,
369443,1560692897538,13,2.34,1.94,3.44,1.63,5.05,1.39,-0.01,-0.02,-3,-2,-2,1.39,6394,6,86,34,24,957,445.0,473,446,60,117.0,82,1,265,155,38,0,0,357,23400,1504,445,45.700848,4.909706,47.97,197.5,3,1.6,0,0.0,0.045,4,0.06,6.1574
369463,1560692897558,9,2.35,1.92,3.38,1.63,5.03,1.38,0.03,-0.06,-3,0,2,1.38,6458,6,86,34,24,958,441.0,465,443,60,119.0,82,1,264,155,38,0,0,387,5600,-22016,441,,,,,,,,,,,,
369483,1560692897578,12,2.36,1.93,3.36,1.65,5.04,1.37,-0.02,-0.02,-1,0,4,1.37,6542,6,86,34,24,959,437.0,471,430,60,118.0,82,1,263,155,38,0,0,392,3635,145,435,,,,,,,,,,,,
369503,1560692897600,12,2.37,1.93,3.39,1.67,5.06,1.33,-0.05,0.03,1,-1,4,1.34,6627,6,86,34,24,960,433.0,484,440,60,118.0,87,1,263,155,38,0,0,361,-3414,120,433,,,,,,,,,,,,
369523,1560692897620,6,2.37,1.92,3.41,1.77,5.05,1.34,-0.03,-0.07,2,1,5,1.34,6606,6,86,34,24,962,432.0,487,440,60,118.0,87,1,263,155,38,0,0,363,-4059,-29696,429,,,,,,,,,,,,
369543,1560692897640,8,2.39,1.9,3.43,1.82,5.06,1.34,-0.07,0.04,3,-1,5,1.34,6496,6,86,34,24,963,427.0,480,445,60,118.0,87,1,264,155,38,0,0,371,10392,2278,425,45.700859,4.909713,44.99,197.5,3,1.6,0,0.0,0.0467,4,0.07,6.159
369563,1560692897660,10,2.38,1.87,3.44,1.84,5.08,1.35,-0.08,0.02,5,-1,6,1.36,6501,6,86,34,24,965,421.0,489,438,60,117.0,87,1,263,155,38,0,0,365,6512,17144,421,,,,,,,,,,,,
369583,1560692897680,5,2.37,1.85,3.44,1.85,5.04,1.33,-0.15,0.03,5,-2,6,1.33,6599,6,86,34,24,967,414.0,471,443,60,118.0,87,1,263,155,38,0,0,356,-1818,-19019,414,,,,,,,,,,,,
369603,1560692897700,6,2.38,1.82,3.49,1.82,5.07,1.29,-0.14,0.1,6,-3,5,1.3,6751,6,86,34,24,968,409.0,492,447,60,117.0,94,1,262,156,39,0,0,353,-1562,-6656,409,,,,,,,,,,,,
369623,1560692897720,2,2.39,1.83,3.51,1.82,5.06,1.37,-0.26,0.03,7,-5,6,1.39,6823,6,86,34,24,970,405.0,495,447,60,118.0,94,1,261,156,39,0,0,349,-31744,-29302,405,,,,,,,,,,,,
369643,1560692897740,5,2.38,1.84,3.51,1.83,5.06,1.16,-0.23,-0.03,9,-2,7,1.19,6833,6,86,35,24,969,403.0,507,453,60,117.0,94,1,261,155,39,0,0,366,19125,-6644,401,45.700867,4.909719,42.41,197.5,3,1.6,0,0.0,0.0483,4,0.07,6.1607
369663,1560692897760,2,2.39,1.84,3.55,1.88,5.05,1.25,-0.36,0.13,9,-4,7,1.3,6845,6,86,35,23,969,398.0,492,446,60,117.0,94,1,261,152,39,0,0,354,-18948,8200,401,,,,,,,,,,,,
369683,1560692897780,-1,2.39,1.85,3.57,1.94,5.04,1.09,-0.32,0.01,11,-1,8,1.14,6840,6,86,35,23,968,397.0,495,453,60,118.0,94,1,261,152,39,0,0,356,-6656,-19126,397,,,,,,,,,,,,
369703,1560692897797,1,2.41,1.84,3.53,2.02,5.05,1.18,-0.44,0.14,10,-3,9,1.26,6820,6,86,35,23,965,394.0,495,451,60,117.0,98,1,261,152,39,0,0,364,742,-992,394,,,,,,,,,,,,
369723,1560692897817,0,2.39,1.84,3.54,2.03,5.05,1.06,-0.37,-0.0,12,-0,11,1.12,6860,6,86,35,23,963,390.0,499,452,60,118.0,98,1,261,152,39,0,0,357,486,-6656,389,,,,,,,,,,,,
369743,1560692897837,4,2.4,1.84,3.53,2.03,5.05,1.08,-0.42,0.17,11,-2,11,1.16,6929,6,86,35,23,958,388.0,502,451,60,117.0,98,1,260,152,39,0,0,355,-6656,1,386,45.700878,4.909725,39.51,197.4,3,1.6,0,0.0,0.05,4,0.07,6.1624
369763,1560692897857,2,2.41,1.85,3.53,2.03,5.03,1.12,-0.45,0.09,11,-2,10,1.21,6918,6,86,35,23,955,384.0,503,453,60,118.0,98,1,260,149,39,0,0,361,230,770,383,,,,,,,,,,,,
369783,1560692897877,-0,2.41,1.86,3.53,2.02,5.06,0.94,-0.39,0.01,12,-1,11,1.02,6865,6,86,35,22,952,382.0,500,447,60,118.0,98,1,260,149,39,0,0,356,-1268,1,382,,,,,,,,,,,,
369803,1560692897899,3,2.4,1.86,3.52,2.03,5.04,1.05,-0.54,0.14,12,-4,12,1.18,6840,6,86,35,22,951,380.0,496,454,60,118.0,99,1,260,149,38,0,0,355,2790,-6656,381,,,,,,,,,,,,
369823,1560692897919,0,2.41,1.88,3.52,2.02,5.04,0.92,-0.47,0.04,13,0,14,1.04,6793,6,86,35,22,950,379.0,506,448,60,118.0,99,1,260,149,38,0,0,356,-6458,257,379,,,,,,,,,,,,
369843,1560692897939,2,2.4,1.91,3.51,2.02,5.07,1.02,-0.54,0.17,12,-2,15,1.15,6732,6,86,35,23,950,377.0,502,444,60,117.0,99,1,261,149,38,0,0,357,-14707,-6656,377,45.700886,4.909732,37.6,197.4,3,1.6,0,0.0,0.0517,4,0.07,6.1641
369863,1560692897959,1,2.4,1.91,3.5,2.03,5.08,0.97,-0.44,0.14,13,-1,17,1.06,6670,6,86,35,22,952,374.0,486,450,60,118.0,99,1,261,151,38,0,0,353,-29978,-6656,374,,,,,,,,,,,,
369883,1560692897979,2,2.4,1.92,3.5,1.99,5.05,1.03,-0.49,0.32,12,-2,16,1.14,6641,6,86,35,23,953,372.0,481,452,60,118.0,99,1,262,148,38,0,0,352,-6640,3082,372,,,,,,,,,,,,
369903,1560692897993,4,2.4,1.93,3.5,1.99,5.04,0.98,-0.42,0.31,12,-1,14,1.07,6648,6,86,35,23,955,370.0,487,453,60,117.0,102,1,262,151,38,0,0,349,2060,-29978,370,,,,,,,,,,,,
369923,1560692898013,-2,2.4,1.94,3.49,1.99,5.05,1.05,-0.43,0.26,12,-1,14,1.13,6623,6,86,35,23,956,369.0,484,455,60,118.0,102,1,262,151,38,0,0,345,-6644,-29302,369,,,,,,,,,,,,
369943,1560692898033,4,2.4,1.95,3.49,1.99,5.08,0.95,-0.42,0.32,12,-1,14,1.04,6581,6,86,35,23,956,368.0,482,454,60,117.0,102,1,262,151,38,0,0,345,28553,-14707,368,45.700893,4.909739,35.91,197.4,3,1.6,0,0.0,0.0533,4,0.07,6.1657
369963,1560692898053,-0,2.4,1.94,3.48,1.99,5.07,0.95,-0.37,0.21,13,2,14,1.02,6558,6,86,35,23,957,366.0,471,448,60,119.0,102,1,262,151,38,0,0,346,2811,-29302,366,,,,,,,,,,,,
369983,1560692898073,1,2.38,1.95,3.46,2.0,5.04,1.04,-0.45,0.33,12,-1,16,1.13,6544,6,86,35,23,958,363.0,470,443,60,118.0,102,1,262,151,38,0,0,346,-1246,4104,363,,,,,,,,,,,,
370003,1560692898099,3,2.39,1.96,3.45,2.01,5.07,0.97,-0.4,0.36,13,-2,16,1.05,6533,6,86,35,24,958,361.0,475,457,60,117.0,101,1,263,154,37,0,0,340,-10554,-6644,361,,,,,,,,,,,,
370023,1560692898119,-1,2.37,1.96,3.45,2.01,5.04,0.94,-0.31,0.25,12,-0,17,0.99,6490,6,86,35,23,960,360.0,472,443,60,119.0,101,1,263,154,37,0,0,341,-10554,2060,360,,,,,,,,,,,,
370043,1560692898139,-2,2.36,1.96,3.43,2.01,5.05,1.01,-0.37,0.32,11,-1,16,1.08,6447,6,86,35,24,959,358.0,478,450,60,118.0,101,1,264,154,37,0,0,342,-14714,-6644,357,45.700901,4.909746,35.27,197.4,3,1.6,0,0.0,0.055,4,0.07,6.1674
370063,1560692898159,2,2.33,1.97,3.4,1.99,5.04,1.08,-0.35,0.38,11,-2,15,1.14,6408,6,86,35,24,964,356.0,481,447,60,117.0,101,1,264,154,37,0,0,339,-31206,2811,356,,,,,,,,,,,,
370083,1560692898179,3,2.31,2.0,3.39,1.98,5.07,0.98,-0.26,0.34,11,-1,15,1.02,6358,6,86,35,24,968,353.0,473,441,60,118.0,101,1,265,154,37,0,0,337,6668,-30438,353,,,,,,,,,,,,
370103,1560692898199,-0,2.28,2.03,3.38,1.97,5.04,0.98,-0.23,0.24,10,1,16,1.01,6304,6,86,35,24,973,350.0,471,450,60,118.0,105,1,265,158,37,0,0,337,-31206,-31206,350,,,,,,,,,,,,
370123,1560692898219,-0,2.25,2.06,3.37,1.95,5.05,1.02,-0.29,0.26,8,0,16,1.06,6285,6,86,35,25,977,348.0,460,451,60,118.0,105,1,268,158,37,0,0,337,-31206,-14714,348,,,,,,,,,,,,
370143,1560692898239,2,2.24,2.07,3.34,1.95,5.05,1.05,-0.32,0.33,7,-1,15,1.1,6285,6,86,35,25,980,343.0,467,448,60,117.0,105,1,268,158,37,0,0,339,-31206,-32559,341,45.700909,4.909753,34.36,197.4,3,1.6,0,0.0,0.0567,4,0.07,6.1691
370163,1560692898259,3,2.21,2.1,3.32,1.93,5.04,1.05,-0.27,0.36,6,-2,15,1.09,6270,6,86,35,25,984,341.0,467,450,60,117.0,105,1,268,158,37,0,0,338,6668,4838,338,,,,,,,,,,,,
370183,1560692898279,2,2.19,2.14,3.32,1.9,5.04,0.96,-0.05,0.33,6,0,15,0.96,6245,6,86,35,25,987,342.0,465,447,60,118.0,105,1,268,158,37,0,0,334,-31206,-6528,338,,,,,,,,,,,,
370203,1560692898299,4,2.17,2.19,3.3,1.88,5.03,0.94,0.15,0.19,4,3,15,0.96,6208,6,86,35,26,988,342.0,461,457,60,118.0,110,1,271,159,37,0,0,338,-14714,-22016,333,,,,,,,,,,,,
370223,1560692898319,0,2.14,2.22,3.23,1.86,5.04,1.01,0.23,0.15,2,4,15,1.04,6204,6,86,35,26,986,340.0,454,446,60,119.0,110,1,271,159,37,0,0,338,3327,-24576,329,,,,,,,,,,,,
370243,1560692898339,-2,2.12,2.25,3.2,1.83,5.05,1.1,0.14,0.22,-0,3,13,1.11,6167,6,86,35,26,983,342.0,455,437,60,119.0,110,1,272,159,37,0,0,336,-31206,-23296,327,45.700916,4.90976,33.31,197.4,3,1.6,0,0.0,0.0583,4,0.07,6.1707
370263,1560692898359,0,2.09,2.29,3.19,1.81,5.07,1.2,0.05,0.33,-3,2,9,1.2,6111,6,86,35,26,980,342.0,443,415,60,119.0,110,1,272,159,37,0,0,335,-31206,-27136,324,,,,,,,,,,,,
370283,1560692898379,0,2.06,2.32,3.18,1.79,5.04,1.27,0.02,0.4,-5,1,5,1.27,6067,6,86,35,27,976,342.0,447,432,60,118.0,110,1,275,159,37,0,0,335,-31206,-32256,321,,,,,,,,,,,,
370303,1560692898399,1,2.05,2.33,3.17,1.78,5.07,1.27,0.04,0.42,-7,-1,1,1.27,6073,6,86,35,27,970,341.0,447,452,60,118.0,112,1,275,160,36,0,0,333,6668,-30976,318,,,,,,,,,,,,
370323,1560692898419,-1,2.05,2.34,3.17,1.78,5.07,1.26,0.05,0.46,-8,-1,-2,1.26,6040,6,86,35,27,964,341.0,450,452,60,118.0,112,1,275,160,36,0,0,334,6668,32000,312,,,,,,,,,,,,
370343,1560692898439,-2,2.03,2.36,3.15,1.77,5.06,1.28,0.1,0.49,-9,-1,-6,1.29,6001,6,86,35,27,960,341.0,446,451,60,117.0,112,1,275,160,36,0,0,336,6668,110,310,45.700924,4.909767,32.9,197.4,3,1.6,0,0.0,0.06,4,0.07,6.1724
370363,1560692898459,-1,2.04,2.36,3.17,1.77,5.08,1.31,0.2,0.5,-11,-1,-10,1.33,5950,7,86,35,27,957,340.0,437,458,60,119.0,112,1,274,160,36,0,0,331,-122,100,308,,,,,,,,,,,,
370383,1560692898479,0,2.04,2.37,3.17,1.78,5.08,1.36,0.23,0.45,-12,-1,-14,1.38,5911,7,86,35,28,954,340.0,437,452,60,119.0,112,1,277,161,36,0,0,330,3327,105,305,,,,,,,,,,,,
370403,1560692898499,-2,2.04,2.37,3.16,1.78,5.07,1.43,0.21,0.48,-15,-2,-17,1.44,5890,7,86,35,28,950,338.0,437,455,60,119.0,114,1,276,161,35,0,0,329,-31222,100,305,,,,,,,,,,,,
370423,1560692898519,-0,2.03,2.37,3.16,1.79,5.06,1.49,0.18,0.49,-18,-2,-20,1.5,5872,7,86,35,29,947,335.0,439,448,60,119.0,114,1,278,162,35,0,0,331,3346,95,303,,,,,,,,,,,,
370443,1560692898539,4,2.03,2.36,3.16,1.79,5.08,1.52,0.16,0.39,-20,-2,-22,1.53,5812,8,86,35,29,946,333.0,437,454,60,118.0,114,1,278,162,35,0,0,327,-6528,85,301,45.700928,4.909773,31.94,197.4,3,1.6,0,0.0,0.0617,4,0.08,6.174
370463,1560692898559,3,2.03,2.37,3.16,1.79,5.05,1.4,0.21,0.35,-21,-0,-23,1.42,5760,11,86,35,30,946,332.0,438,451,60,117.0,114,1,279,163,35,0,0,326,-12032,20480,300,,,,,,,,,,,,
370483,1560692898579,0,2.04,2.35,3.16,1.77,5.06,1.22,0.25,0.38,-19,1,-24,1.25,5755,14,86,35,32,947,330.0,434,455,60,117.0,114,1,285,165,35,0,0,324,175,20480,299,,,,,,,,,,,,
370503,1560692898599,-1,2.04,2.34,3.16,1.78,5.06,1.13,0.39,0.4,-17,1,-24,1.2,5709,16,86,35,35,949,328.0,425,450,60,118.0,120,1,293,181,36,0,0,320,170,20480,298,,,,,,,,,,,,
370523,1560692898619,0,2.04,2.34,3.16,1.77,5.07,1.2,0.4,0.4,-18,-2,-24,1.27,5680,17,86,35,37,951,327.0,417,450,60,118.0,120,1,299,193,36,0,0,323,-22016,0,295,,,,,,,,,,,,
370543,1560692898639,18,2.04,2.34,3.16,1.78,5.08,1.28,0.27,0.46,-21,-3,-26,1.31,5685,18,86,35,39,952,325.0,421,456,60,119.0,120,1,306,205,36,0,0,316,-24576,0,294,45.700935,4.909779,31.15,197.5,3,1.6,0,0.0,0.0633,4,0.08,6.1757
370563,1560692898659,1,2.03,2.34,3.16,1.78,5.05,1.19,0.23,0.42,-22,-1,-26,1.21,5693,19,86,35,42,952,323.0,420,447,60,119.0,120,1,319,209,36,0,0,316,-24576,10686,292,,,,,,,,,,,,
370583,1560692898679,1,2.03,2.33,3.16,1.78,5.07,1.01,0.31,0.47,-21,2,-26,1.06,5719,20,86,35,44,952,319.0,428,456,60,117.0,120,1,330,212,36,0,0,317,155,41,291,,,,,,,,,,,,
370603,1560692898699,1,2.03,2.33,3.16,1.79,5.04,0.95,0.47,0.49,-18,2,-26,1.06,5712,21,86,35,46,949,320.0,428,461,60,117.0,158,1,339,215,46,0,0,318,150,0,291,,,,,,,,,,,,
370623,1560692898719,0,2.03,2.33,3.15,1.82,5.05,1.03,0.51,0.47,-19,1,-26,1.16,5751,21,86,35,48,943,319.0,420,447,60,118.0,158,1,348,222,46,0,0,317,-27136,-16896,289,,,,,,,,,,,,
370643,1560692898739,0,2.03,2.34,3.15,1.83,5.03,1.13,0.44,0.47,-20,-1,-27,1.21,5776,22,86,35,50,926,318.0,423,453,60,118.0,158,1,354,227,46,0,0,313,145,0,290,45.700943,4.909783,30.48,197.5,3,1.6,0,0.0,0.065,4,0.08,6.1774
370663,1560692898759,1,2.03,2.34,3.16,1.81,5.06,1.16,0.37,0.43,-22,1,-28,1.22,5837,22,86,35,51,910,319.0,420,450,60,119.0,158,1,361,236,46,0,0,315,-28416,10686,289,,,,,,,,,,,,
370683,1560692898779,3,2.03,2.33,3.13,1.81,5.04,1.07,0.36,0.32,-23,3,-28,1.13,5886,22,86,35,52,896,318.0,421,447,60,118.0,158,1,368,242,46,0,0,316,145,1886,287,,,,,,,,,,,,
370703,1560692898799,4,2.04,2.33,3.13,1.81,5.08,0.98,0.37,0.25,-23,5,-27,1.05,5958,22,86,35,52,882,317.0,425,445,60,119.0,187,1,373,249,54,0,0,314,-28416,41,287,,,,,,,,,,,,
370723,1560692898819,2,2.04,2.33,3.12,1.82,5.07,0.89,0.42,0.17,-22,7,-27,0.99,6056,23,86,35,53,873,316.0,434,445,60,118.0,187,1,380,250,54,0,0,311,140,41,287,,,,,,,,,,,,
370743,1560692898839,-0,2.05,2.33,3.12,1.83,5.04,0.81,0.47,0.06,-21,9,-27,0.93,6161,23,86,35,53,864,315.0,441,444,60,118.0,187,1,380,250,54,0,0,314,-29696,-16896,286,45.700947,4.909787,29.76,197.5,3,1.6,0,0.0,0.0667,4,0.08,6.179
370763,1560692898859,0,2.04,2.34,3.12,1.85,5.04,0.82,0.46,0.03,-21,9,-28,0.94,6252,23,86,35,52,870,314.0,441,448,60,118.0,187,1,378,250,54,0,0,313,130,-16896,286,,,,,,,,,,,,
370783,1560692898879,-1,2.07,2.34,3.12,1.85,5.04,0.85,0.36,0.09,-21,9,-28,0.92,6302,23,86,35,52,874,314.0,450,443,60,118.0,187,1,378,244,54,0,0,313,135,41,286,,,,,,,,,,,,
370803,1560692898896,-0,2.09,2.33,3.11,1.87,5.05,0.87,0.36,0.17,-21,9,-28,0.94,6188,23,86,35,53,877,315.0,454,451,60,117.0,202,1,380,250,58,0,0,315,135,110,287,,,,,,,,,,,,
370823,1560692898916,1,2.09,2.35,3.09,1.92,5.07,0.84,0.39,0.24,-20,9,-27,0.92,5992,23,86,35,53,880,317.0,439,449,60,117.0,202,1,374,248,58,0,0,318,-28416,145,292,,,,,,,,,,,,
370843,1560692898936,-0,2.12,2.39,3.07,1.99,5.03,0.88,0.4,0.25,-19,9,-26,0.97,5794,23,86,35,54,878,317.0,431,456,60,117.0,202,1,366,251,58,0,0,318,-28416,145,296,45.700954,4.909791,29.48,197.5,3,1.6,0,0.0,0.0683,4,0.08,6.1807
370863,1560692898956,-2,2.15,2.4,3.07,2.05,5.05,0.97,0.33,0.29,-20,8,-25,1.02,5661,23,86,35,55,875,317.0,412,453,60,118.0,202,1,354,249,58,0,0,319,-28416,115,299,,,,,,,,,,,,
370883,1560692898976,3,2.19,2.38,3.08,2.06,5.04,0.89,0.18,0.28,-20,9,-25,0.91,5613,24,86,35,56,889,318.0,410,447,60,118.0,202,1,350,249,58,0,0,318,145,26880,301,,,,,,,,,,,,
370903,1560692898992,-0,2.21,2.36,3.15,2.07,5.07,0.74,0.17,0.34,-17,8,-25,0.76,5618,24,86,35,58,905,315.0,408,451,60,116.0,176,1,350,251,53,0,0,316,-29696,28160,303,,,,,,,,,,,,
370923,1560692899012,-0,2.23,2.33,3.22,2.07,5.08,0.84,0.16,0.44,-15,4,-23,0.86,5637,23,86,35,59,922,314.0,400,457,60,118.0,176,1,351,252,53,0,0,313,135,26880,303,,,,,,,,,,,,
370943,1560692899032,0,2.26,2.3,3.26,2.09,5.05,0.96,0.13,0.43,-15,1,-21,0.97,5702,24,86,35,59,936,313.0,403,457,60,118.0,176,1,356,251,53,0,0,315,-30976,105,303,45.700962,4.909794,29.64,197.5,3,1.6,0,0.0,0.07,4,0.08,6.1824
370963,1560692899052,-1,2.28,2.29,3.29,2.07,5.05,0.99,0.08,0.44,-17,2,-19,0.99,5762,24,86,35,60,976,312.0,402,453,60,119.0,176,1,361,251,53,0,0,313,130,30720,306,,,,,,,,,,,,
370983,1560692899072,2,2.32,2.28,3.27,2.09,5.07,0.88,0.03,0.38,-16,3,-17,0.88,5779,24,86,35,60,1017,311.0,412,446,60,119.0,176,1,363,251,53,0,0,312,-32256,32000,306,,,,,,,,,,,,
371003,1560692899098,2,2.35,2.27,3.26,2.09,5.07,0.7,-0.01,0.41,-14,5,-15,0.7,5890,24,86,35,60,1046,309.0,421,446,60,118.0,179,1,372,250,55,0,0,309,32000,32000,308,,,,,,,,,,,,
371023,1560692899118,3,2.39,2.25,3.28,2.09,5.05,0.6,0.03,0.43,-9,8,-14,0.6,5971,24,86,35,59,1071,310.0,425,445,60,118.0,179,1,379,250,55,0,0,307,30720,130,310,,,,,,,,,,,,
371043,1560692899138,2,2.44,2.23,3.34,2.12,5.06,0.5,0.02,0.47,-5,9,-12,0.5,5980,24,86,35,58,1090,313.0,433,446,60,118.0,179,1,381,250,55,0,0,308,29440,-32256,313,45.70097,4.909796,30.07,197.6,3,1.6,0,0.0,0.0717,4,0.08,6.1841
371063,1560692899158,3,2.48,2.2,3.35,2.16,5.04,0.41,0.01,0.53,-2,10,-10,0.41,5927,24,86,35,58,1109,318.0,427,448,60,117.0,179,1,376,251,55,0,0,311,110,145,318,,,,,,,,,,,,
371083,1560692899178,2,2.52,2.18,3.37,2.2,5.04,0.33,-0.0,0.6,3,11,-8,0.33,5846,24,86,35,58,1109,322.0,429,453,60,117.0,179,1,369,251,55,0,0,310,28160,150,322,,,,,,,,,,,,
371103,1560692899198,2,2.59,2.17,3.41,2.26,5.06,0.33,-0.04,0.7,6,8,-6,0.33,5801,24,86,35,58,1102,324.0,426,455,60,116.0,170,1,365,251,55,0,0,311,26880,145,324,,,,,,,,,,,,
371123,1560692899218,-0,2.64,2.14,3.44,2.28,5.08,0.47,-0.12,0.77,9,5,-3,0.49,5852,24,86,35,58,1095,324.0,422,458,60,117.0,170,1,369,251,55,0,0,307,100,-24576,324,,,,,,,,,,,,
371143,1560692899238,0,2.68,2.14,3.47,2.31,5.04,0.6,-0.21,0.73,10,1,1,0.64,5901,24,86,35,58,1088,326.0,419,456,60,118.0,170,1,374,251,55,0,0,306,95,-22016,326,45.700977,4.909799,29.8,197.6,3,1.6,0,0.0,0.0733,4,0.08,6.1857
371163,1560692899258,-1,2.73,2.14,3.53,2.3,5.06,0.67,-0.36,0.72,11,-2,6,0.76,5944,24,86,35,58,1084,328.0,428,462,60,118.0,170,1,378,251,55,0,0,307,23040,160,328,,,,,,,,,,,,
371183,1560692899278,-1,2.75,2.14,3.58,2.34,5.04,0.78,-0.46,0.71,12,-4,10,0.91,5990,24,86,35,58,1085,330.0,432,460,60,118.0,170,1,382,251,55,0,0,307,85,175,330,,,,,,,,,,,,
371203,1560692899298,-0,2.76,2.12,3.58,2.37,5.04,0.87,-0.6,0.71,13,-6,14,1.05,5980,24,86,35,58,1099,330.0,432,457,60,118.0,169,1,381,251,56,0,0,311,0,-22016,333,,,,,,,,,,,,
371223,1560692899318,-1,2.75,2.1,3.59,2.36,5.08,0.98,-0.72,0.7,14,-7,18,1.22,6036,24,86,35,58,1119,334.0,422,458,60,118.0,169,1,383,251,56,0,0,313,21760,-32559,334,,,,,,,,,,,,
371243,1560692899338,-0,2.77,2.09,3.59,2.37,5.07,1.0,-0.77,0.78,15,-9,21,1.26,6060,24,86,35,57,1139,333.0,432,457,60,118.0,169,1,384,253,56,0,0,313,0,-12032,337,45.700985,4.909802,30.0,197.6,3,1.6,0,0.0,0.075,4,0.08,6.1874
371263,1560692899358,-0,2.76,2.07,3.59,2.36,5.07,1.04,-0.88,0.74,17,-10,25,1.36,6083,24,86,35,57,1157,336.0,434,455,60,117.0,169,1,384,254,56,0,0,305,20480,-12032,336,,,,,,,,,,,,
371283,1560692899378,-2,2.77,2.06,3.6,2.36,5.06,1.11,-0.99,0.8,18,-11,28,1.49,6058,25,86,35,57,1171,338.0,431,458,60,117.0,169,1,384,253,56,0,0,315,20480,13,338,,,,,,,,,,,,
371303,1560692899398,-1,2.76,2.05,3.61,2.36,5.07,1.11,-1.08,0.85,20,-12,31,1.55,6040,25,86,35,57,1181,339.0,421,458,60,118.0,168,1,384,253,57,0,0,332,0,3346,339,,,,,,,,,,,,
371323,1560692899418,1,2.76,2.05,3.63,2.36,5.05,1.0,-1.17,0.89,22,-13,34,1.54,6111,25,86,35,57,1183,339.0,430,458,60,117.0,168,1,384,254,57,0,0,331,0,3346,339,,,,,,,,,,,,
371343,1560692899438,4,2.77,2.03,3.65,2.37,5.04,0.92,-1.25,0.88,25,-12,36,1.56,6171,25,86,35,57,1175,342.0,438,458,60,116.0,168,1,386,256,57,0,0,321,0,-32559,342,45.700993,4.909805,29.65,197.6,3,1.6,0,0.0,0.0767,4,0.08,6.1891
371363,1560692899458,3,2.77,2.03,3.64,2.37,5.04,0.92,-1.23,0.84,27,-11,39,1.54,6198,25,86,35,57,1166,342.0,435,461,60,117.0,168,1,386,256,57,0,0,307,0,6668,342,,,,,,,,,,,,
371383,1560692899478,3,2.77,2.03,3.63,2.38,5.04,0.9,-1.1,0.79,28,-11,40,1.42,6179,25,86,35,56,1155,344.0,440,450,60,118.0,168,1,385,256,57,0,0,316,0,-122,344,,,,,,,,,,,,
371403,1560692899500,5,2.77,2.03,3.63,2.39,5.04,0.84,-0.94,0.64,30,-8,42,1.26,6101,25,86,35,56,1147,345.0,437,449,60,119.0,173,1,384,255,60,0,0,325,41,2560,345,,,,,,,,,,,,
371423,1560692899520,-1,2.79,2.03,3.63,2.39,5.05,0.88,-0.87,0.46,31,-8,44,1.23,6125,25,86,35,57,1145,345.0,431,453,60,119.0,173,1,384,255,60,0,0,342,0,2560,345,,,,,,,,,,,,
371443,1560692899540,1,2.78,2.03,3.61,2.41,5.06,0.92,-0.91,0.42,31,-6,46,1.29,6151,25,86,35,56,1144,345.0,436,449,60,118.0,173,1,384,256,60,0,0,312,41,-31222,345,45.701,4.90981,29.55,197.6,3,1.6,0,0.0,0.0783,4,0.08,6.1907
371463,1560692899560,0,2.79,2.03,3.61,2.44,5.07,0.94,-1.01,0.46,32,-6,47,1.38,6196,25,86,35,57,1144,343.0,437,459,60,118.0,173,1,386,256,60,0,0,300,41,-31222,342,,,,,,,,,,,,
371483,1560692899580,-0,2.78,2.03,3.62,2.43,5.04,1.05,-1.09,0.6,33,-8,48,1.51,6169,26,86,35,57,1143,343.0,442,463,60,117.0,173,1,386,256,60,0,0,321,0,-31222,343,,,,,,,,,,,,
371503,1560692899598,1,2.77,2.01,3.62,2.43,5.04,1.11,-1.15,0.73,34,-10,49,1.6,6121,26,86,35,57,1145,345.0,437,463,60,118.0,174,1,384,255,60,0,0,337,0,13,345,,,,,,,,,,,,
371523,1560692899618,2,2.77,1.98,3.62,2.43,5.04,1.06,-1.21,0.75,36,-11,51,1.61,6173,27,86,35,58,1148,346.0,439,457,60,117.0,174,1,387,255,60,0,0,350,0,2560,345,,,,,,,,,,,,
371543,1560692899638,2,2.77,1.97,3.63,2.43,5.06,0.93,-1.18,0.66,37,-11,53,1.5,6291,29,86,35,58,1151,347.0,450,451,60,118.0,174,1,389,258,60,0,0,327,0,2560,347,45.701004,4.909815,29.83,197.6,3,1.6,0,0.0,0.08,4,0.08,6.1924
371563,1560692899658,-0,2.77,1.97,3.62,2.42,5.05,0.89,-1.12,0.56,38,-10,55,1.43,6377,32,86,35,59,1155,346.0,450,450,60,118.0,174,1,393,261,60,0,0,305,41,-31222,346,,,,,,,,,,,,
371583,1560692899678,-0,2.74,1.97,3.62,2.42,5.07,0.91,-1.14,0.52,38,-7,57,1.45,6340,33,86,35,61,1155,347.0,445,453,60,118.0,174,1,395,262,60,0,0,315,0,-122,346,,,,,,,,,,,,
371603,1560692899700,1,2.71,2.0,3.62,2.42,5.07,0.99,-1.14,0.6,38,-8,58,1.51,6277,34,86,35,62,1155,345.0,448,458,60,117.0,179,1,389,266,62,0,0,355,0,-31206,345,,,,,,,,,,,,
371623,1560692899720,1,2.68,2.03,3.6,2.43,5.04,0.97,-1.13,0.67,38,-7,58,1.49,6200,35,86,35,63,1155,345.0,443,453,60,118.0,179,1,382,269,62,0,0,341,0,-31222,345,,,,,,,,,,,,
371643,1560692899740,5,2.65,2.04,3.61,2.42,5.04,0.92,-1.08,0.76,39,-8,57,1.41,6204,35,86,35,64,1155,344.0,447,456,60,117.0,179,1,379,279,62,0,0,324,21760,2560,343,45.701012,4.909822,30.15,197.6,3,1.6,0,0.0,0.0817,4,0.09,6.194
371663,1560692899760,4,2.61,2.04,3.65,2.42,5.04,0.87,-1.0,0.72,40,-9,56,1.32,6155,35,86,35,65,1155,344.0,445,458,60,117.0,179,1,374,284,62,0,0,320,21760,-31222,344,,,,,,,,,,,,
371683,1560692899780,3,2.58,2.04,3.61,2.38,5.05,0.74,-0.9,0.59,39,-8,55,1.17,6163,36,86,35,66,1155,343.0,445,459,60,117.0,179,1,371,292,62,0,0,317,85,3327,343,,,,,,,,,,,,
371703,1560692899800,1,2.55,2.07,3.54,2.36,5.08,0.68,-0.86,0.48,38,-5,54,1.09,6153,37,86,35,67,1159,342.0,437,454,60,119.0,198,1,367,300,68,0,0,306,25600,3327,341,,,,,,,,,,,,
371723,1560692899820,-0,2.51,2.12,3.49,2.34,5.04,0.71,-0.88,0.47,37,-3,52,1.13,6087,37,86,35,67,1164,339.0,438,451,60,119.0,198,1,364,297,68,0,0,311,26880,-6528,339,,,,,,,,,,,,
371743,1560692899840,-0,2.48,2.16,3.46,2.32,5.05,0.77,-0.9,0.52,35,-0,50,1.18,5967,37,86,35,68,1168,338.0,429,448,60,118.0,198,1,355,306,68,0,0,315,110,3346,337,45.701019,4.90983,30.58,197.5,3,1.6,0,0.0,0.0833,4,0.09,6.1957
371763,1560692899860,-1,2.46,2.19,3.42,2.31,5.04,0.83,-0.88,0.53,32,0,48,1.21,5967,38,86,35,69,1172,335.0,423,451,60,119.0,198,1,354,321,68,0,0,313,115,-6528,335,,,,,,,,,,,,
371783,1560692899880,1,2.42,2.2,3.39,2.27,5.07,0.88,-0.89,0.55,30,1,46,1.25,5956,38,86,35,69,1205,335.0,425,451,60,119.0,198,1,353,321,68,0,0,312,125,4838,335,,,,,,,,,,,,
371803,1560692899899,-1,2.4,2.22,3.37,2.25,5.04,0.91,-0.91,0.57,28,4,44,1.29,6025,39,86,35,70,1240,335.0,428,453,60,118.0,226,1,356,336,76,0,0,315,-30976,-6528,335,,,,,,,,,,,,
371823,1560692899919,-2,2.38,2.23,3.35,2.23,5.06,0.92,-0.91,0.59,26,5,42,1.29,6121,40,86,35,71,1271,331.0,428,453,60,119.0,226,1,358,338,76,0,0,317,135,4838,331,,,,,,,,,,,,
371843,1560692899939,1,2.36,2.24,3.34,2.24,5.06,0.92,-0.9,0.72,25,3,39,1.29,6206,41,86,35,72,1301,332.0,432,455,60,118.0,226,1,360,356,76,0,0,321,145,4838,331,45.701023,4.909839,31.13,197.5,3,1.6,0,0.0,0.085,4,0.09,6.1974
371863,1560692899959,2,2.33,2.24,3.32,2.22,5.07,0.92,-0.85,0.83,23,2,35,1.25,6233,41,86,35,72,1333,332.0,438,453,60,117.0,226,1,361,372,76,0,0,326,-27136,4838,332,,,,,,,,,,,,
371883,1560692899979,2,2.31,2.27,3.29,2.22,5.07,0.92,-0.73,0.86,21,1,31,1.18,6241,42,86,35,73,1366,332.0,446,454,60,116.0,226,1,360,387,76,0,0,330,155,2560,332,,,,,,,,,,,,
371903,1560692899993,3,2.3,2.3,3.27,2.21,5.06,0.85,-0.53,0.8,19,2,29,1.0,6256,42,86,35,73,1376,331.0,445,451,60,118.0,274,1,360,387,91,0,0,334,-23296,4838,331,,,,,,,,,,,,
371923,1560692900013,8,2.28,2.3,3.25,2.22,5.08,0.8,-0.4,0.71,17,3,28,0.9,6220,42,86,35,73,1377,331.0,441,454,60,118.0,274,1,359,403,91,0,0,337,175,-31222,331,,,,,,,,,,,,
371943,1560692900033,0,2.26,2.32,3.23,2.2,5.04,0.81,-0.37,0.66,16,4,27,0.89,6279,43,86,35,74,1365,331.0,432,458,60,118.0,274,1,360,403,91,0,0,336,-12032,3346,331,45.701023,4.909848,31.5,197.5,3,1.6,0,0.0,0.0867,4,0.09,6.199
371963,1560692900053,1,2.24,2.34,3.21,2.19,5.07,0.78,-0.36,0.77,14,2,25,0.86,6325,44,86,35,75,1347,335.0,433,462,60,117.0,274,1,360,404,91,0,0,338,3346,-31222,332,,,,,,,,,,,,
371983,1560692900073,3,2.23,2.34,3.18,2.19,5.03,0.79,-0.29,0.86,11,1,22,0.85,6386,46,86,35,76,1329,336.0,441,457,60,116.0,274,1,360,435,91,0,0,340,13,-31206,334,,,,,,,,,,,,
372003,1560692900099,5,2.22,2.36,3.16,2.18,5.07,0.7,-0.1,0.71,10,2,20,0.71,6447,49,86,35,77,1311,340.0,445,451,60,118.0,317,1,362,442,106,0,0,340,3327,-31206,334,,,,,,,,,,,,
372023,1560692900119,-0,2.21,2.37,3.15,2.19,5.05,0.73,-0.15,0.75,9,3,18,0.74,6530,51,86,35,78,1289,340.0,445,455,60,118.0,317,1,364,449,106,0,0,346,3327,-14714,335,,,,,,,,,,,,
372043,1560692900139,4,2.21,2.38,3.14,2.19,5.06,0.77,-0.08,0.87,7,-0,14,0.77,6609,53,86,35,79,1265,345.0,461,460,60,117.0,317,1,367,456,106,0,0,351,6870,-10554,337,45.701031,4.909857,31.68,197.5,3,1.6,0,0.0,0.0883,4,0.09,6.2007
372063,1560692900159,0,2.19,2.39,3.14,2.19,5.04,0.65,-0.0,0.75,6,-1,11,0.65,6674,54,86,35,80,1252,347.0,461,454,60,118.0,317,1,368,464,106,0,0,353,8841,3302,340,,,,,,,,,,,,
372083,1560692900179,1,2.2,2.42,3.11,2.2,5.06,0.7,-0.01,0.85,5,-1,7,0.7,6684,54,86,35,81,1247,350.0,461,451,60,118.0,317,1,368,471,106,0,0,358,-30454,2811,342,,,,,,,,,,,,
372103,1560692900199,-0,2.2,2.42,3.1,2.21,5.07,0.7,0.01,0.74,3,-2,5,0.7,6773,55,86,35,82,1234,351.0,472,458,60,117.0,350,1,371,479,120,0,0,360,28553,3302,345,,,,,,,,,,,,
372123,1560692900219,4,2.21,2.44,3.1,2.21,5.07,0.73,-0.01,0.83,2,-2,4,0.73,6868,57,86,35,83,1216,354.0,467,459,60,117.0,350,1,373,488,120,0,0,362,3302,-14707,346,,,,,,,,,,,,
372143,1560692900239,3,2.21,2.46,3.1,2.21,5.04,0.7,-0.11,0.75,2,-1,4,0.71,6983,58,86,35,83,1199,358.0,476,455,60,118.0,350,1,377,490,120,0,0,369,-29302,-6656,352,45.701035,4.909866,32.14,197.5,3,1.6,0,0.0,0.09,4,0.09,6.2024
372163,1560692900259,-0,2.21,2.48,3.1,2.21,5.08,0.71,-0.0,0.73,0,-0,4,0.71,7030,59,86,35,84,1185,362.0,486,454,60,118.0,350,1,379,496,120,0,0,373,2790,742,354,,,,,,,,,,,,
372183,1560692900279,4,2.21,2.48,3.09,2.21,5.07,0.81,-0.05,0.85,-1,-2,4,0.81,7072,60,86,35,84,1163,368.0,498,459,60,116.0,350,1,384,497,120,0,0,379,0,8200,360,,,,,,,,,,,,
372203,1560692900299,3,2.22,2.48,3.07,2.22,5.04,0.77,-0.1,0.93,-1,-0,2,0.78,7172,61,86,35,85,1134,372.0,488,454,60,117.0,369,1,388,498,133,0,0,378,1,-18948,364,,,,,,,,,,,,
372223,1560692900319,1,2.24,2.48,3.06,2.21,5.06,0.59,-0.02,0.88,-1,-0,1,0.59,7231,62,86,35,85,1111,376.0,492,458,60,118.0,369,1,391,499,133,0,0,385,3,-6524,368,,,,,,,,,,,,
372243,1560692900339,1,2.25,2.48,3.08,2.24,5.08,0.54,0.11,0.79,-1,1,0,0.55,7335,63,86,35,84,1095,379.0,493,452,60,118.0,369,1,397,508,133,0,0,393,8200,-6656,373,45.701038,4.909876,33.19,197.5,3,1.6,0,0.0,0.0917,4,0.09,6.2041
372263,1560692900359,3,2.26,2.5,3.09,2.29,5.05,0.58,0.11,0.8,-2,2,-1,0.59,7390,64,86,35,84,1068,382.0,498,453,60,118.0,369,1,401,501,133,0,0,399,19125,1,378,,,,,,,,,,,,
372283,1560692900379,0,2.28,2.5,3.1,2.32,5.04,0.55,0.21,0.79,-2,1,-1,0.59,7524,65,86,35,84,1029,387.0,505,457,60,118.0,369,1,408,511,133,0,0,401,240,6384,383,,,,,,,,,,,,
372303,1560692900397,3,2.29,2.5,3.12,2.31,5.04,0.44,0.22,0.77,-2,1,-2,0.49,7631,66,86,35,85,994,390.0,515,453,60,118.0,373,1,416,513,143,0,0,406,-1562,10392,391,,,,,,,,,,,,
372323,1560692900417,4,2.3,2.5,3.11,2.3,5.06,0.47,0.25,0.8,-2,0,-2,0.53,7796,67,86,35,84,970,395.0,517,456,60,118.0,373,1,425,507,143,0,0,412,17144,2524,395,,,,,,,,,,,,
372343,1560692900437,4,2.31,2.5,3.11,2.33,5.07,0.46,0.22,0.84,-1,1,-0,0.51,7888,67,86,35,83,945,399.0,522,443,60,118.0,373,1,430,499,143,0,0,416,6384,-3414,400,45.701042,4.909886,35.17,197.5,3,1.6,0,0.0,0.0933,4,0.09,6.2057
372363,1560692900457,-0,2.33,2.5,3.1,2.35,5.06,0.42,0.16,0.9,-1,2,-1,0.45,8005,67,86,35,82,919,404.0,544,455,60,117.0,373,1,438,492,143,0,0,419,1504,3635,406,,,,,,,,,,,,
372383,1560692900477,3,2.33,2.5,3.1,2.38,5.05,0.42,0.13,0.9,-0,2,-1,0.44,8106,68,86,35,81,898,412.0,538,451,60,118.0,373,1,436,491,143,0,0,430,10392,-3314,412,,,,,,,,,,,,
372403,1560692900500,-1,2.34,2.5,3.13,2.42,5.06,0.44,-0.04,0.93,0,2,-1,0.44,8130,68,86,35,80,896,417.0,541,448,60,117.0,364,1,435,493,150,0,0,449,-9166,19477,417,,,,,,,,,,,,
372423,1560692900520,2,2.36,2.5,3.14,2.43,5.07,0.33,-0.04,0.88,1,3,-1,0.33,8267,68,86,35,80,894,424.0,564,459,60,117.0,364,1,432,492,150,0,0,450,-3414,19477,424,,,,,,,,,,,,
372443,1560692900540,2,2.36,2.5,3.15,2.43,5.08,0.42,-0.11,0.94,1,2,-0,0.44,8423,69,86,35,79,892,429.0,565,453,60,116.0,364,1,428,489,150,0,0,446,-4082,10305,430,45.70105,4.909897,36.73,197.4,3,1.6,0,0.0,0.095,4,0.09,6.2074
372463,1560692900560,5,2.36,2.53,3.14,2.43,5.05,0.36,-0.02,0.92,2,1,1,0.36,8546,70,86,35,77,889,435.0,568,452,60,117.0,364,1,425,466,150,0,0,450,31796,12552,435,,,,,,,,,,,,
372483,1560692900580,2,2.38,2.54,3.14,2.45,5.06,0.28,-0.08,0.84,3,1,1,0.29,8589,70,86,35,77,889,440.0,573,453,60,118.0,364,1,424,466,150,0,0,462,-3322,2211,440,,,,,,,,,,,,
372503,1560692900599,3,2.38,2.51,3.16,2.46,5.07,0.45,-0.22,0.9,4,0,1,0.5,8640,71,86,35,77,891,447.0,582,458,60,117.0,340,1,423,466,151,0,0,468,21580,-3210,449,,,,,,,,,,,,
372523,1560692900619,3,2.38,2.49,3.19,2.47,5.07,0.37,-0.21,1.01,4,-1,3,0.42,8798,72,86,35,77,903,454.0,573,451,60,117.0,340,1,419,452,151,0,0,479,20625,10432,454,,,,,,,,,,,,
372543,1560692900639,2,2.38,2.49,3.19,2.46,5.07,0.36,-0.15,1.1,5,-1,5,0.39,8869,72,86,34,77,915,457.0,583,465,60,117.0,340,1,417,470,151,0,0,476,16648,8488,461,45.701057,4.909909,39.76,197.4,3,1.6,0,0.0,0.0967,4,0.09,6.2091
372563,1560692900659,1,2.38,2.49,3.2,2.46,5.04,0.32,-0.12,1.12,5,-0,5,0.35,8971,73,86,34,76,928,465.0,581,460,60,117.0,340,1,413,456,151,0,0,476,-3267,8488,465,,,,,,,,,,,,
372583,1560692900679,0,2.38,2.49,3.18,2.47,5.05,0.24,-0.01,1.16,7,-2,7,0.24,9093,73,86,34,76,940,472.0,587,466,60,117.0,340,1,413,456,151,0,0,483,-9160,505,472,,,,,,,,,,,,
372603,1560692900699,1,2.38,2.49,3.2,2.49,5.07,0.32,0.06,1.21,7,-1,8,0.33,9241,74,86,34,77,979,475.0,589,455,60,116.0,343,1,414,470,162,0,0,493,-9160,2524,473,,,,,,,,,,,,
372623,1560692900719,2,2.39,2.48,3.19,2.49,5.05,0.34,-0.13,1.27,8,-3,9,0.37,9337,74,86,34,76,1018,479.0,598,458,60,117.0,343,1,415,470,162,0,0,499,-3210,-9216,479,,,,,,,,,,,,
372643,1560692900739,5,2.37,2.48,3.22,2.5,5.04,0.47,-0.31,1.34,8,-1,8,0.56,9460,74,86,34,77,1045,485.0,611,451,60,117.0,343,1,415,470,162,0,0,511,10432,10408,485,45.701061,4.909921,42.17,197.4,3,1.6,0,0.0,0.0983,4,0.09,6.2107
372663,1560692900759,1,2.37,2.48,3.2,2.5,5.07,0.4,-0.28,1.23,7,-3,10,0.49,9571,74,86,34,77,1071,489.0,617,457,60,117.0,343,1,414,460,162,0,0,504,3576,17136,490,,,,,,,,,,,,
372683,1560692900779,5,2.37,2.48,3.19,2.51,5.05,0.47,-0.26,1.26,8,-1,11,0.54,9610,75,86,34,76,1100,493.0,621,456,60,117.0,343,1,412,463,162,0,0,515,16648,-3856,496,,,,,,,,,,,,
372703,1560692900799,2,2.38,2.48,3.18,2.5,5.07,0.38,-0.37,1.27,9,-1,10,0.53,9650,75,86,34,76,1129,500.0,622,456,60,117.0,342,1,410,466,170,0,0,513,505,10408,502,,,,,,,,,,,,
372723,1560692900819,3,2.38,2.47,3.2,2.51,5.05,0.3,-0.38,1.25,10,-2,11,0.49,9745,75,86,34,75,1137,510.0,623,452,60,117.0,342,1,406,469,170,0,0,529,-6656,-32248,510,,,,,,,,,,,,
372743,1560692900839,2,2.38,2.46,3.21,2.5,5.05,0.33,-0.46,1.29,10,-0,11,0.57,9837,75,86,34,75,1139,512.0,621,447,60,117.0,342,1,402,471,170,0,0,533,998,-9072,512,45.701065,4.909934,44.9,197.4,3,1.6,0,0.0,0.1,4,0.1,6.2124
372763,1560692900859,5,2.39,2.45,3.22,2.51,5.04,0.38,-0.46,1.19,10,-2,12,0.6,9946,75,86,34,75,1138,516.0,635,456,60,117.0,342,1,398,478,170,0,0,532,-22519,-32248,516,,,,,,,,,,,,
372783,1560692900879,3,2.38,2.46,3.22,2.51,5.04,0.34,-0.38,1.17,10,-3,12,0.51,10053,75,86,34,75,1136,521.0,626,455,60,116.0,342,1,405,483,170,0,0,539,-32248,-28648,521,,,,,,,,,,,,
372803,1560692900898,2,2.39,2.45,3.26,2.52,5.08,0.34,-0.42,1.25,10,-0,12,0.54,10179,75,86,34,75,1134,527.0,621,455,60,117.0,354,1,409,483,185,0,0,552,-3414,-8962,528,,,,,,,,,,,,
372823,1560692900918,4,2.38,2.47,3.23,2.52,5.04,0.37,-0.47,1.21,11,-3,12,0.6,10257,75,86,34,74,1130,532.0,638,454,60,117.0,354,1,415,478,185,0,0,544,-3482,-32504,532,,,,,,,,,,,,
372843,1560692900938,1,2.38,2.46,3.22,2.51,5.07,0.25,-0.45,1.22,11,-3,13,0.51,10347,75,86,34,75,1128,534.0,627,462,60,116.0,354,1,421,484,185,0,0,550,-14,-32248,536,45.701073,4.909949,47.47,197.4,3,1.6,0,0.0,0.1017,4,0.1,6.214
372863,1560692900958,3,2.38,2.46,3.23,2.51,5.06,0.3,-0.41,1.16,11,0,13,0.51,10341,75,86,34,75,1126,538.0,628,450,60,116.0,354,1,420,484,185,0,0,560,-8187,6273,540,,,,,,,,,,,,
372883,1560692900978,1,2.39,2.45,3.23,2.51,5.04,0.33,-0.37,1.16,11,-1,13,0.5,10302,75,86,34,75,1127,545.0,647,460,60,119.0,354,1,418,484,185,0,0,561,-28648,6273,545,,,,,,,,,,,,
372903,1560692900994,-1,2.38,2.43,3.26,2.49,5.06,0.3,-0.31,1.01,11,-2,14,0.44,9796,75,86,34,77,1131,550.0,632,454,60,119.0,341,1,405,485,186,0,0,554,14504,2216,550,,,,,,,,,,,,
372923,1560692901014,1,2.38,2.41,3.3,2.48,5.06,0.4,-0.33,0.94,11,-1,14,0.52,9389,75,86,34,79,1131,550.0,627,460,60,117.0,341,1,416,497,186,0,0,539,2104,6274,550,,,,,,,,,,,,
372943,1560692901034,0,2.38,2.36,3.34,2.44,5.06,0.56,-0.47,1.04,11,-5,14,0.73,9209,75,86,34,81,1130,552.0,621,460,60,119.0,341,1,416,512,186,0,0,529,-32248,2524,553,45.70108,4.909964,49.44,197.4,3,1.6,0,0.0,0.1033,4,0.1,6.2157
372963,1560692901054,0,2.37,2.32,3.41,2.43,5.07,0.55,-0.62,1.06,12,-7,15,0.83,8979,79,86,34,82,1128,552.0,613,463,60,117.0,341,1,418,540,186,0,0,535,14504,2104,552,,,,,,,,,,,,
372983,1560692901074,3,2.38,2.3,3.44,2.43,5.06,0.64,-0.71,1.11,13,-1,15,0.95,8511,82,86,34,85,1126,554.0,603,458,60,118.0,341,1,430,1052,186,0,0,574,6274,1760,554,,,,,,,,,,,,
373003,1560692901098,4,2.38,2.31,3.39,2.44,5.08,0.65,-0.66,1.1,13,-2,15,0.93,7709,83,86,34,87,1154,560.0,563,447,60,118.0,574,1,423,887,319,0,0,629,1780,208,560,,,,,,,,,,,,
373023,1560692901118,4,2.37,2.33,3.34,2.49,5.04,0.57,-0.58,0.97,13,-0,15,0.82,7324,83,86,34,90,1210,563.0,533,455,60,118.0,574,1,397,808,319,0,0,586,-2934,1,563,,,,,,,,,,,,
373043,1560692901138,5,2.37,2.31,3.32,2.48,5.06,0.54,-0.53,0.96,13,-1,13,0.75,7678,83,86,34,91,1269,562.0,520,455,60,118.0,574,1,423,730,319,0,0,544,-506,2211,562,45.701084,4.90998,51.27,197.3,3,1.6,0,0.0,0.105,4,0.1,6.2174
373063,1560692901158,2,2.36,2.3,3.33,2.45,5.05,0.55,-0.49,0.96,13,-2,12,0.74,8130,83,86,34,90,1330,562.0,539,456,60,117.0,574,1,447,662,319,0,0,557,-506,-3190,562,,,,,,,,,,,,
373083,1560692901178,5,2.36,2.3,3.33,2.45,5.05,0.48,-0.56,0.95,13,-2,13,0.73,8396,83,86,34,87,1392,566.0,560,459,60,117.0,574,1,435,598,319,0,0,587,2104,10432,566,,,,,,,,,,,,
373103,1560692901200,2,2.37,2.31,3.31,2.46,5.08,0.54,-0.65,1.04,13,-2,15,0.85,8374,84,86,34,86,1453,571.0,581,452,60,116.0,333,1,434,575,189,0,0,625,2524,-768,571,,,,,,,,,,,,
373123,1560692901220,3,2.36,2.38,3.27,2.49,5.06,0.38,-0.64,1.0,13,2,16,0.74,8351,84,86,34,86,1498,578.0,570,456,60,118.0,333,1,435,573,189,0,0,629,-22263,28675,577,,,,,,,,,,,,
373143,1560692901240,1,2.37,2.43,3.2,2.52,5.05,0.52,-0.73,1.02,12,2,15,0.9,8348,84,86,34,86,1498,584.0,567,457,60,117.0,333,1,435,572,189,0,0,591,-28648,-30139,584,45.701092,4.909997,52.3,197.3,3,1.6,0,0.0,0.1067,4,0.1,6.219
373163,1560692901260,3,2.37,2.43,3.2,2.52,5.05,0.43,-0.65,1.07,12,1,15,0.78,8230,84,86,34,86,1463,587.0,563,458,60,117.0,333,1,437,559,189,0,0,606,-29984,17336,592,,,,,,,,,,,,
373183,1560692901280,0,2.36,2.43,3.2,2.52,5.06,0.45,-0.68,1.02,12,1,14,0.82,8191,84,86,34,87,1381,594.0,553,454,60,116.0,333,1,440,559,189,0,0,611,774,28675,594,,,,,,,,,,,,
373203,1560692901300,4,2.37,2.43,3.2,2.53,5.04,0.41,-0.57,0.93,12,-0,14,0.7,8274,83,86,34,86,1298,598.0,552,455,60,118.0,297,1,437,564,177,0,0,612,10432,-18357,598,,,,,,,,,,,,
373223,1560692901320,1,2.37,2.43,3.24,2.52,5.06,0.43,-0.59,0.97,12,-1,15,0.73,8426,83,86,34,86,1216,601.0,563,455,60,117.0,297,1,433,579,177,0,0,623,15649,3395,604,,,,,,,,,,,,
373243,1560692901340,2,2.36,2.42,3.26,2.52,5.06,0.41,-0.52,1.07,13,-0,15,0.66,8573,83,86,34,85,1135,607.0,567,452,60,116.0,297,1,429,576,177,0,0,620,-28648,771,607,45.701099,4.910015,53.27,197.3,3,1.6,0,0.0,0.1083,4,0.1,6.2207
373263,1560692901360,7,2.36,2.4,3.29,2.51,5.04,0.3,-0.52,1.1,12,-0,13,0.6,8644,82,86,34,84,1060,612.0,577,450,60,117.0,297,1,426,566,177,0,0,642,17344,-5120,611,,,,,,,,,,,,
373283,1560692901380,4,2.37,2.41,3.26,2.51,5.04,0.36,-0.57,1.09,12,-0,14,0.67,8745,82,86,34,84,1000,617.0,586,458,60,117.0,297,1,424,566,177,0,0,639,243,-2580,620,,,,,,,,,,,,
373303,1560692901400,2,2.38,2.42,3.25,2.51,5.05,0.4,-0.66,1.08,12,-0,12,0.77,8786,79,86,34,83,1008,621.0,598,455,60,117.0,298,1,423,555,185,0,0,646,5344,11566,621,,,,,,,,,,,,
373323,1560692901420,3,2.37,2.43,3.25,2.5,5.06,0.55,-0.74,1.03,11,-1,11,0.93,8798,77,86,34,81,1016,627.0,598,455,60,117.0,298,1,421,526,185,0,0,652,19621,31988,627,,,,,,,,,,,,
373343,1560692901440,-0,2.38,2.43,3.25,2.52,5.06,0.64,-0.79,1.12,12,-1,11,1.02,8778,75,86,34,80,1025,633.0,597,454,60,117.0,298,1,421,512,185,0,0,647,16529,479,633,45.701103,4.910034,53.59,197.3,3,1.6,0,0.0,0.11,4,0.1,6.2224
373363,1560692901460,3,2.38,2.42,3.25,2.52,5.04,0.54,-0.74,1.21,12,-2,11,0.91,8794,71,86,34,78,1034,636.0,593,450,60,116.0,298,1,420,483,185,0,0,663,3403,31988,636,,,,,,,,,,,,
373383,1560692901480,2,2.39,2.42,3.28,2.52,5.04,0.45,-0.68,1.24,12,-1,11,0.81,8873,68,86,34,76,1035,640.0,603,457,60,117.0,298,1,417,456,185,0,0,662,-18357,-2826,640,,,,,,,,,,,,
373403,1560692901500,-1,2.39,2.4,3.32,2.51,5.06,0.33,-0.67,1.19,13,-0,12,0.74,8984,66,86,34,73,1036,645.0,598,451,60,117.0,233,1,414,436,150,0,0,663,-16046,-388,646,,,,,,,,,,,,
373423,1560692901520,2,2.38,2.39,3.32,2.5,5.03,0.27,-0.53,1.12,13,-2,13,0.59,9079,65,86,34,71,1041,650.0,591,459,60,117.0,233,1,413,417,150,0,0,660,3,-10348,650,,,,,,,,,,,,
373443,1560692901540,2,2.38,2.39,3.33,2.51,5.04,0.2,-0.42,1.15,14,-2,14,0.47,9146,64,86,34,70,1046,656.0,592,457,60,117.0,233,1,413,407,150,0,0,681,3,-26892,658,45.701107,4.910053,58.24,197.3,3,1.6,0,0.0,0.1117,4,0.11,6.2241
373463,1560692901560,3,2.39,2.38,3.35,2.5,5.07,0.3,-0.37,1.23,14,-3,15,0.48,9191,64,86,34,69,1050,659.0,598,455,60,116.0,233,1,414,388,150,0,0,685,16599,-26892,659,,,,,,,,,,,,
373483,1560692901580,3,2.39,2.38,3.34,2.53,5.08,0.33,-0.42,1.17,14,-3,14,0.53,9241,64,86,34,68,1054,660.0,595,457,60,117.0,233,1,414,388,150,0,0,673,-2580,-26380,660,,,,,,,,,,,,
373503,1560692901598,4,2.4,2.38,3.33,2.54,5.08,0.49,-0.58,1.21,14,-3,13,0.76,9245,63,86,34,68,1052,664.0,613,457,60,117.0,205,1,414,379,136,0,0,679,-2830,24845,664,,,,,,,,,,,,
373523,1560692901618,3,2.4,2.38,3.31,2.54,5.04,0.56,-0.72,1.2,14,-5,13,0.91,9222,60,86,34,67,1049,669.0,607,457,60,117.0,205,1,412,375,136,0,0,678,4909,6208,671,,,,,,,,,,,,
373543,1560692901638,0,2.39,2.36,3.32,2.54,5.04,0.52,-0.76,1.13,15,-2,13,0.92,9209,56,86,34,65,1044,673.0,621,457,60,117.0,205,1,409,366,136,0,0,692,-6006,-2830,674,45.701111,4.910074,60.49,197.3,3,1.6,0,0.0,0.1133,4,0.11,6.2257
373563,1560692901658,2,2.4,2.35,3.34,2.54,5.08,0.34,-0.57,1.07,15,-4,15,0.66,9250,53,86,34,63,1037,676.0,614,462,60,117.0,205,1,408,357,136,0,0,686,-3488,-10448,675,,,,,,,,,,,,
373583,1560692901678,4,2.39,2.34,3.4,2.53,5.04,0.31,-0.47,0.97,15,-1,15,0.56,9375,52,86,34,61,1022,676.0,619,468,60,117.0,205,1,409,348,136,0,0,693,-2830,3543,680,,,,,,,,,,,,
373603,1560692901698,4,2.4,2.31,3.4,2.53,5.07,0.43,-0.61,0.99,15,-3,16,0.74,9450,52,86,34,60,1008,683.0,630,456,60,117.0,180,1,410,343,123,0,0,687,-3038,24,683,,,,,,,,,,,,
373623,1560692901718,1,2.4,2.31,3.43,2.54,5.08,0.53,-0.71,0.92,15,-1,18,0.88,9479,51,86,34,58,998,688.0,629,447,60,117.0,180,1,407,334,123,0,0,705,-2345,11069,688,,,,,,,,,,,,
373643,1560692901738,1,2.41,2.32,3.43,2.54,5.05,0.38,-0.52,0.92,15,-3,20,0.65,9474,51,86,34,58,989,687.0,627,459,60,117.0,180,1,407,333,123,0,0,695,-26380,11069,687,45.701118,4.910095,63.21,197.3,3,1.6,0,0.0,0.115,4,0.11,6.2274
373663,1560692901758,2,2.41,2.3,3.42,2.55,5.05,0.48,-0.61,0.9,15,-2,18,0.78,9479,51,86,34,57,974,687.0,620,460,60,116.0,180,1,405,329,123,0,0,704,-2345,11069,687,,,,,,,,,,,,
373683,1560692901778,1,2.4,2.27,3.42,2.54,5.08,0.52,-0.75,0.94,16,-4,18,0.91,9479,51,86,33,57,956,692.0,626,454,60,117.0,180,1,405,329,123,0,0,700,3543,-10448,692,,,,,,,,,,,,
373703,1560692901800,2,2.4,2.24,3.43,2.54,5.04,0.37,-0.7,0.92,16,-3,19,0.79,9537,51,86,33,56,944,693.0,620,460,60,117.0,170,1,404,325,118,0,0,708,-2830,15647,697,,,,,,,,,,,,
373723,1560692901820,3,2.4,2.23,3.46,2.53,5.08,0.43,-0.65,0.83,16,-1,18,0.78,9561,50,86,33,55,934,698.0,620,465,60,117.0,170,1,402,326,118,0,0,705,8958,-30694,698,,,,,,,,,,,,
373743,1560692901840,1,2.4,2.23,3.47,2.53,5.06,0.52,-0.67,0.8,15,-2,19,0.85,9620,50,86,33,55,910,701.0,629,461,60,117.0,170,1,401,322,118,0,0,704,-388,11069,699,45.701122,4.910118,63.41,197.3,3,1.6,0,0.0,0.1167,4,0.11,6.2291
373763,1560692901860,4,2.4,2.23,3.45,2.54,5.04,0.4,-0.58,0.81,16,-2,19,0.71,9620,50,86,33,54,880,697.0,637,454,60,117.0,170,1,400,322,118,0,0,709,8958,687,699,,,,,,,,,,,,
373783,1560692901880,1,2.4,2.23,3.45,2.54,5.04,0.56,-0.72,0.78,17,-0,19,0.91,9620,49,86,33,54,855,702.0,622,460,60,117.0,170,1,400,317,118,0,0,705,-10344,-30694,702,,,,,,,,,,,,
373803,1560692901899,2,2.39,2.23,3.46,2.54,5.06,0.4,-0.69,0.82,17,-2,21,0.8,9650,49,86,33,54,836,704.0,626,457,60,116.0,164,1,400,317,115,0,0,710,-10344,11069,701,,,,,,,,,,,,
373823,1560692901919,4,2.4,2.22,3.46,2.53,5.05,0.5,-0.71,0.77,16,2,20,0.87,9650,49,86,33,54,819,703.0,633,452,60,117.0,164,1,400,317,115,0,0,723,-2345,-13312,703,,,,,,,,,,,,
373843,1560692901939,4,2.38,2.23,3.48,2.53,5.04,0.58,-0.61,0.83,16,-3,21,0.84,9684,47,86,33,53,803,705.0,628,461,60,117.0,164,1,397,306,115,0,0,717,-10346,-3450,706,45.701122,4.91014,63.62,197.3,3,1.6,0,0.0,0.1183,4,0.11,6.2307
373863,1560692901959,4,2.38,2.22,3.5,2.51,5.05,0.55,-0.67,0.85,16,-4,20,0.87,9694,46,86,33,52,797,708.0,627,453,60,117.0,164,1,394,295,115,0,0,705,24845,-31068,708,,,,,,,,,,,,
373883,1560692901979,2,2.38,2.21,3.51,2.52,5.07,0.62,-0.74,0.81,16,-3,19,0.97,9709,46,86,33,51,801,709.0,624,460,60,117.0,164,1,391,284,115,0,0,717,24845,-23490,710,,,,,,,,,,,,
373903,1560692901993,4,2.36,2.22,3.49,2.52,5.06,0.49,-0.83,0.81,16,-3,20,0.96,9750,46,86,33,51,805,710.0,624,452,60,117.0,146,1,391,284,104,0,0,712,-10399,-3888,710,,,,,,,,,,,,
373923,1560692902013,0,2.36,2.22,3.48,2.51,5.07,0.57,-0.88,0.82,16,-3,20,1.05,9755,45,86,33,50,809,712.0,634,454,60,117.0,146,1,388,275,104,0,0,720,16599,31988,713,,,,,,,,,,,,
373943,1560692902033,4,2.35,2.22,3.45,2.51,5.04,0.69,-0.84,0.82,16,-3,21,1.09,9715,45,86,33,50,811,714.0,627,460,60,117.0,146,1,388,274,104,0,0,714,-3584,204,712,45.701126,4.910164,67.32,197.3,3,1.6,0,0.0,0.12,4,0.11,6.2324
373963,1560692902053,2,2.34,2.21,3.45,2.49,5.06,0.71,-0.82,0.87,16,-3,20,1.08,9689,45,86,33,50,810,715.0,622,463,60,117.0,146,1,388,274,104,0,0,728,14342,-3450,712,,,,,,,,,,,,
373983,1560692902073,5,2.33,2.22,3.44,2.49,5.04,0.58,-0.72,0.81,15,-0,20,0.92,9750,44,86,33,49,811,714.0,625,459,60,117.0,146,1,385,264,104,0,0,714,14342,-13312,714,,,,,,,,,,,,
374003,1560692902100,2,2.31,2.22,3.44,2.45,5.06,0.63,-0.66,0.74,13,-1,20,0.91,9770,43,86,33,49,811,710.0,637,457,60,117.0,134,1,385,264,96,0,0,720,6208,-2560,712,,,,,,,,,,,,
374023,1560692902120,4,2.3,2.23,3.41,2.43,5.05,0.69,-0.65,0.71,13,-2,19,0.94,9745,42,86,33,48,812,712.0,640,451,60,117.0,134,1,382,252,96,0,0,715,19188,-2560,712,,,,,,,,,,,,
374043,1560692902140,2,2.28,2.26,3.37,2.43,5.07,0.68,-0.66,0.66,13,-1,18,0.95,9735,41,86,33,47,814,712.0,635,452,60,117.0,134,1,380,242,96,0,0,720,11069,-2560,712,45.701126,4.910187,67.4,197.2,3,1.6,0,0.0,0.1217,4,0.12,6.234
374063,1560692902160,3,2.26,2.29,3.35,2.41,5.04,0.56,-0.6,0.66,11,-3,17,0.82,9740,39,86,33,46,817,712.0,631,457,60,117.0,134,1,372,238,96,0,0,720,15647,-3450,712,,,,,,,,,,,,
374083,1560692902180,0,2.26,2.32,3.32,2.39,5.04,0.7,-0.56,0.65,10,-0,15,0.9,9730,38,86,33,45,824,712.0,622,460,60,117.0,134,1,365,235,96,0,0,722,687,-2830,712,,,,,,,,,,,,
374103,1560692902199,4,2.24,2.33,3.26,2.36,5.06,0.73,-0.36,0.68,8,-6,15,0.82,9704,36,86,33,44,831,709.0,635,451,60,117.0,121,1,357,232,86,0,0,719,-13072,-2830,708,,,,,,,,,,,,
374123,1560692902219,1,2.24,2.35,3.26,2.33,5.07,0.83,-0.43,0.69,6,-4,13,0.94,9694,33,86,33,42,836,714.0,622,459,60,117.0,121,1,342,225,86,0,0,719,204,31988,711,,,,,,,,,,,,
374143,1560692902239,4,2.24,2.35,3.25,2.3,5.07,0.69,-0.24,0.64,5,-3,11,0.73,9735,32,85,33,40,843,713.0,626,458,60,117.0,121,1,327,219,86,0,0,719,-2560,-12152,709,45.70113,4.910212,69.81,197.3,3,1.6,0,0.0,0.1233,4,0.12,6.2357
374163,1560692902259,2,2.23,2.36,3.24,2.26,5.08,0.71,-0.31,0.5,3,-1,9,0.78,9725,31,85,33,39,854,715.0,635,455,60,117.0,121,1,320,216,86,0,0,715,-2560,-13312,708,,,,,,,,,,,,
374183,1560692902279,3,2.23,2.36,3.21,2.2,5.06,0.66,-0.12,0.6,2,-1,8,0.67,9669,30,85,33,37,865,718.0,638,455,60,117.0,121,1,314,211,86,0,0,725,16118,-13072,710,,,,,,,,,,,,
374203,1560692902299,1,2.22,2.36,3.21,2.16,5.05,0.59,-0.07,0.62,1,-1,6,0.59,9654,30,85,33,36,870,720.0,643,451,60,117.0,110,1,311,209,78,0,0,719,-2830,-2830,711,,,,,,,,,,,,
374223,1560692902319,0,2.23,2.37,3.2,2.13,5.05,0.57,0.05,0.64,0,-2,5,0.58,9669,30,85,33,35,875,718.0,635,459,60,117.0,110,1,308,209,78,0,0,721,-2830,-20693,707,,,,,,,,,,,,
374243,1560692902339,5,2.21,2.39,3.17,2.11,5.04,0.66,0.0,0.47,-1,1,4,0.66,9669,30,85,33,35,881,721.0,633,449,60,118.0,110,1,308,207,78,0,0,720,31988,-2830,705,45.701134,4.910236,70.31,197.3,3,1.6,0,0.0,0.125,4,0.12,6.2374
374263,1560692902359,3,2.2,2.41,3.12,2.08,5.05,0.68,0.2,0.57,-2,-1,2,0.71,9654,29,85,33,34,886,721.0,630,457,60,117.0,110,1,305,205,78,0,0,723,31988,-12152,703,,,,,,,,,,,,
374283,1560692902379,5,2.2,2.43,3.09,2.06,5.03,0.75,0.07,0.48,-3,-1,1,0.75,9580,29,85,33,34,886,719.0,626,456,60,117.0,110,1,305,204,78,0,0,722,-3450,-13312,705,,,,,,,,,,,,
374303,1560692902399,-0,2.2,2.44,3.09,2.04,5.04,0.67,0.23,0.57,-4,-2,-2,0.71,9551,29,85,33,34,886,717.0,623,455,60,117.0,104,1,305,203,74,0,0,720,-23490,-20693,702,,,,,,,,,,,,
374323,1560692902419,3,2.2,2.45,3.08,2.02,5.04,0.65,0.27,0.57,-4,-1,-2,0.7,9541,29,85,33,33,877,721.0,627,457,60,117.0,104,1,302,200,74,0,0,719,31988,687,702,,,,,,,,,,,,
374343,1560692902439,2,2.2,2.45,3.09,1.99,5.05,0.69,0.2,0.55,-5,-1,-5,0.72,9541,29,85,33,33,867,720.0,630,452,60,117.0,104,1,302,200,74,0,0,720,-2830,687,700,45.701134,4.910261,69.67,197.2,3,1.6,0,0.0,0.1267,4,0.12,6.239
374363,1560692902459,-0,2.2,2.45,3.1,1.98,5.07,0.6,0.39,0.58,-6,0,-6,0.71,9537,29,85,33,33,858,721.0,636,459,60,118.0,104,1,302,200,74,0,0,711,-3450,-20693,702,,,,,,,,,,,,
374383,1560692902479,1,2.19,2.47,3.11,1.96,5.05,0.74,0.44,0.55,-7,-1,-6,0.86,9532,29,85,33,33,849,720.0,636,452,60,117.0,104,1,302,200,74,0,0,721,-2830,16599,700,,,,,,,,,,,,
374403,1560692902499,4,2.17,2.47,3.09,1.95,5.04,0.77,0.34,0.55,-8,-2,-9,0.84,9484,29,85,33,33,835,717.0,649,460,60,117.0,103,1,302,199,72,0,0,720,-31068,8010,698,,,,,,,,,,,,
374423,1560692902519,1,2.17,2.48,3.07,1.94,5.04,0.62,0.51,0.53,-9,-2,-9,0.81,9479,29,85,32,32,822,718.0,623,461,60,117.0,103,1,300,197,72,0,0,718,-31068,-10448,696,,,,,,,,,,,,
374443,1560692902539,1,2.17,2.5,3.06,1.92,5.06,0.76,0.57,0.47,-10,-0,-9,0.95,9522,29,85,32,32,815,717.0,642,453,60,117.0,103,1,300,197,72,0,0,721,-3450,14342,694,45.701134,4.910286,68.88,197.2,3,1.6,0,0.0,0.1283,4,0.12,6.2407
374463,1560692902559,4,2.17,2.5,3.05,1.9,5.07,0.81,0.41,0.47,-11,-0,-11,0.91,9517,29,85,32,33,811,718.0,629,455,60,117.0,103,1,302,200,72,0,0,715,-31068,12333,695,,,,,,,,,,,,
374483,1560692902579,1,2.16,2.51,3.04,1.89,5.03,0.58,0.57,0.44,-12,4,-11,0.81,9503,29,85,32,32,809,719.0,628,456,60,117.0,103,1,300,198,72,0,0,715,-23490,1780,690,,,,,,,,,,,,
374503,1560692902599,1,2.17,2.53,3.02,1.87,5.06,0.72,0.56,0.45,-13,1,-13,0.91,9455,29,85,32,32,808,717.0,634,456,60,117.0,102,1,300,198,71,0,0,722,-23490,1780,693,,,,,,,,,,,,
374523,1560692902619,3,2.16,2.54,3.03,1.85,5.05,0.78,0.4,0.54,-14,-1,-13,0.88,9464,29,85,32,32,810,717.0,628,453,60,117.0,102,1,300,197,71,0,0,712,-23490,6208,690,,,,,,,,,,,,
374543,1560692902639,1,2.17,2.54,3.02,1.84,5.04,0.65,0.56,0.48,-13,1,-16,0.86,9464,29,85,32,32,813,716.0,625,457,60,117.0,102,1,300,197,71,0,0,717,16118,-2830,690,45.701138,4.91031,68.2,197.2,3,1.6,0,0.0,0.13,4,0.13,6.2424
374563,1560692902659,3,2.17,2.54,3.02,1.84,5.07,0.7,0.69,0.46,-14,0,-15,0.99,9498,29,85,32,32,820,715.0,623,456,60,117.0,102,1,300,197,71,0,0,716,-2560,-26892,690,,,,,,,,,,,,
374583,1560692902679,3,2.19,2.54,3.02,1.83,5.05,0.79,0.62,0.53,-15,0,-16,1.01,9508,29,85,32,32,829,715.0,634,449,60,117.0,102,1,300,198,71,0,0,713,-13312,24,687,,,,,,,,,,,,
374603,1560692902699,-1,2.19,2.55,3.01,1.85,5.06,0.61,0.76,0.52,-15,1,-17,0.98,9508,29,85,32,32,836,713.0,634,455,60,118.0,103,1,300,198,71,0,0,714,-13312,14342,688,,,,,,,,,,,,
374623,1560692902719,2,2.19,2.55,3.01,1.84,5.06,0.71,0.83,0.53,-15,-0,-17,1.09,9512,29,85,32,32,842,710.0,633,451,60,117.0,103,1,300,198,71,0,0,713,-3888,24845,686,,,,,,,,,,,,
374643,1560692902739,4,2.18,2.54,2.98,1.83,5.03,0.82,0.68,0.53,-15,-0,-18,1.06,9474,29,85,32,33,850,709.0,642,443,60,117.0,103,1,302,199,71,0,0,709,-3888,6208,689,45.701141,4.910334,67.36,197.2,3,1.6,0,0.0,0.1317,4,0.13,6.2441
374663,1560692902759,1,2.19,2.53,3.01,1.83,5.04,0.61,0.82,0.47,-15,-2,-18,1.02,9464,29,85,32,33,860,711.0,635,430,60,118.0,103,1,302,199,71,0,0,705,-13072,12333,688,,,,,,,,,,,,
374683,1560692902779,2,2.2,2.52,3.01,1.83,5.07,0.63,0.94,0.37,-15,2,-17,1.13,9522,29,85,32,33,868,711.0,632,447,60,117.0,103,1,302,199,71,0,0,705,687,1780,685,,,,,,,,,,,,
374703,1560692902799,5,2.19,2.55,3.02,1.84,5.05,0.76,0.7,0.41,-15,-2,-19,1.04,9537,29,85,32,33,872,707.0,627,456,60,117.0,103,1,302,200,71,0,0,704,6658,6208,683,,,,,,,,,,,,
374723,1560692902819,1,2.19,2.55,3.02,1.83,5.05,0.53,0.83,0.35,-14,2,-19,0.99,9541,29,85,32,33,878,705.0,626,441,60,118.0,103,1,302,200,71,0,0,709,-20693,-10399,684,,,,,,,,,,,,
374743,1560692902839,1,2.2,2.54,3.02,1.84,5.05,0.68,0.95,0.36,-14,-1,-19,1.17,9517,29,85,32,33,887,705.0,631,420,60,117.0,103,1,302,201,71,0,0,702,-20693,-2826,682,45.701141,4.910358,66.81,197.3,3,1.6,0,0.0,0.1333,4,0.13,6.2457
374763,1560692902859,5,2.2,2.53,3.02,1.82,5.07,0.74,0.73,0.37,-14,-2,-18,1.04,9532,29,85,32,33,894,703.0,637,418,60,117.0,103,1,302,200,71,0,0,711,-20693,-2345,685,,,,,,,,,,,,
374783,1560692902879,2,2.19,2.53,3.02,1.82,5.04,0.61,0.86,0.31,-14,1,-19,1.05,9546,29,85,32,33,898,706.0,631,433,60,118.0,103,1,302,200,71,0,0,704,687,16599,683,,,,,,,,,,,,
374803,1560692902899,1,2.19,2.53,3.01,1.84,5.06,0.72,0.71,0.42,-14,-1,-16,1.01,9615,29,85,32,33,907,704.0,637,412,60,117.0,105,1,302,201,72,0,0,706,11069,-2830,683,,,,,,,,,,,,
374823,1560692902919,4,2.18,2.53,3.01,1.83,5.08,0.69,0.66,0.45,-14,1,-17,0.95,9615,29,85,32,33,921,700.0,635,416,60,118.0,105,1,302,202,72,0,0,701,19188,-2345,682,,,,,,,,,,,,
374843,1560692902939,2,2.16,2.53,3.0,1.82,5.08,0.74,0.79,0.54,-14,2,-17,1.08,9615,29,85,32,33,934,698.0,631,427,60,118.0,105,1,302,202,72,0,0,701,24,24,680,45.701141,4.910381,66.22,197.3,3,1.6,0,0.0,0.135,4,0.13,6.2474
374863,1560692902959,4,2.17,2.52,2.98,1.81,5.04,0.87,0.62,0.63,-15,0,-16,1.07,9561,29,85,32,33,943,703.0,641,416,60,118.0,105,1,302,201,72,0,0,708,11069,-10399,681,,,,,,,,,,,,
374883,1560692902979,-1,2.17,2.53,3.01,1.82,5.06,0.72,0.66,0.65,-15,2,-18,0.97,9551,29,85,32,33,954,704.0,637,416,60,118.0,105,1,302,201,72,0,0,703,11069,-26380,678,,,,,,,,,,,,
374903,1560692902994,2,2.17,2.54,3.01,1.81,5.05,0.76,0.69,0.63,-14,2,-18,1.02,9537,29,85,32,33,967,702.0,631,425,60,117.0,106,1,302,200,72,0,0,704,-3584,11576,681,,,,,,,,,,,,
374923,1560692903014,4,2.17,2.56,2.99,1.84,5.04,0.8,0.43,0.72,-15,2,-19,0.91,9474,29,85,32,33,977,704.0,632,435,60,117.0,106,1,302,199,72,0,0,703,19188,-10399,676,,,,,,,,,,,,
374943,1560692903034,-1,2.18,2.62,2.97,1.89,5.04,0.66,0.59,0.63,-14,2,-20,0.88,9422,29,85,32,33,981,698.0,626,435,60,118.0,106,1,302,198,72,0,0,704,24,24,674,45.701149,4.910404,66.04,197.3,3,1.6,0,0.0,0.1367,4,0.13,6.2491
374963,1560692903054,2,2.18,2.63,2.99,1.89,5.06,0.71,0.73,0.68,-14,3,-19,1.02,9393,29,85,32,34,985,698.0,625,400,60,118.0,106,1,305,200,72,0,0,697,6208,1780,672,,,,,,,,,,,,
374983,1560692903074,3,2.19,2.62,3.04,1.88,5.08,0.84,0.6,0.71,-15,-2,-19,1.03,9323,29,85,32,34,993,696.0,632,394,60,117.0,106,1,305,196,72,0,0,693,16599,3543,673,,,,,,,,,,,,
375003,1560692903092,4,2.19,2.61,3.08,1.86,5.04,0.73,0.43,0.63,-14,-1,-20,0.85,9323,29,85,32,34,1000,696.0,624,407,60,118.0,103,1,305,199,70,0,0,696,24,-10344,677,,,,,,,,,,,,
375023,1560692903112,1,2.19,2.61,3.11,1.83,5.07,0.55,0.56,0.57,-13,0,-21,0.78,9323,29,85,32,34,1003,700.0,633,433,60,118.0,103,1,305,199,70,0,0,702,24,6208,675,,,,,,,,,,,,
375043,1560692903132,2,2.19,2.59,3.12,1.83,5.03,0.54,0.7,0.61,-14,1,-20,0.88,9309,29,85,32,34,1008,701.0,628,426,60,118.0,103,1,305,199,70,0,0,695,19188,14342,677,45.701153,4.910427,65.46,197.2,3,1.6,0,0.0,0.1383,4,0.14,6.2507
375063,1560692903152,2,2.18,2.57,3.1,1.81,5.08,0.69,0.76,0.58,-14,-0,-20,1.02,9305,29,85,32,34,1015,700.0,626,412,60,117.0,103,1,305,199,70,0,0,701,19188,-26562,678,,,,,,,,,,,,
375083,1560692903172,2,2.17,2.58,3.05,1.81,5.04,0.71,0.59,0.56,-14,1,-19,0.93,9328,29,85,32,34,1022,701.0,635,422,60,118.0,103,1,305,199,70,0,0,698,19188,-26562,673,,,,,,,,,,,,
375103,1560692903198,2,2.15,2.58,2.94,1.81,5.04,0.62,0.55,0.55,-14,2,-21,0.83,9328,29,85,32,34,1025,700.0,643,394,60,118.0,103,1,305,199,70,0,0,699,-2830,16599,675,,,,,,,,,,,,
375123,1560692903218,1,2.15,2.59,2.88,1.82,5.04,0.52,0.69,0.47,-14,5,-21,0.87,9309,29,85,32,34,1029,700.0,625,423,60,118.0,103,1,305,199,70,0,0,697,6208,-26562,669,,,,,,,,,,,,
375143,1560692903238,0,2.14,2.59,2.87,1.8,5.07,0.65,0.83,0.5,-14,3,-21,1.05,9272,29,85,32,34,1034,698.0,623,422,60,117.0,103,1,305,199,70,0,0,698,24,-388,670,45.70116,4.910449,65.21,197.2,3,1.6,0,0.0,0.14,4,0.14,6.2524
375163,1560692903258,-1,2.15,2.58,2.87,1.78,5.04,0.79,0.86,0.54,-16,1,-21,1.17,9254,29,85,32,34,1039,694.0,633,410,60,117.0,103,1,305,199,70,0,0,695,-10448,8958,671,,,,,,,,,,,,
375183,1560692903278,2,2.15,2.59,2.89,1.75,5.07,0.84,0.7,0.56,-16,-1,-21,1.09,9241,29,85,32,34,1042,695.0,622,406,60,117.0,103,1,305,199,70,0,0,695,-10448,-3038,671,,,,,,,,,,,,
375203,1560692903298,5,2.15,2.59,2.92,1.75,5.04,0.84,0.56,0.5,-16,1,-23,1.01,9245,29,85,32,34,1044,696.0,635,405,60,117.0,104,1,305,198,70,0,0,695,16599,8958,668,,,,,,,,,,,,
375223,1560692903318,3,2.16,2.59,2.99,1.76,5.05,0.69,0.68,0.43,-16,-0,-23,0.97,9254,29,85,32,34,1053,698.0,625,408,60,118.0,104,1,305,199,70,0,0,700,16599,-3038,665,,,,,,,,,,,,
375243,1560692903338,-0,2.16,2.59,2.98,1.77,5.07,0.67,0.81,0.31,-16,2,-23,1.05,9268,29,85,32,35,1063,696.0,632,410,60,118.0,104,1,308,202,70,0,0,699,6208,31988,665,45.701164,4.91047,64.52,197.2,3,1.6,0,0.0,0.1417,4,0.14,6.254
375263,1560692903358,0,2.15,2.62,2.98,1.8,5.07,0.68,0.93,0.41,-17,0,-22,1.16,9282,29,85,32,34,1070,696.0,630,418,60,117.0,104,1,305,199,70,0,0,696,16599,-2830,660,,,,,,,,,,,,
375283,1560692903378,1,2.15,2.67,2.97,1.84,5.05,0.81,0.88,0.47,-16,0,-21,1.2,9268,29,85,32,34,1077,689.0,622,400,60,117.0,104,1,305,198,70,0,0,696,-2830,8958,662,,,,,,,,,,,,
375303,1560692903398,4,2.13,2.69,2.97,1.82,5.04,0.85,0.73,0.52,-17,-2,-22,1.12,9241,30,85,32,34,1090,690.0,637,423,60,118.0,104,1,305,198,69,0,0,687,-2830,-26380,658,,,,,,,,,,,,
375323,1560692903418,2,2.14,2.67,2.98,1.78,5.07,0.8,0.64,0.47,-16,-0,-24,1.02,9231,30,85,32,34,1102,688.0,621,429,60,118.0,104,1,305,198,69,0,0,689,24,-2345,660,,,,,,,,,,,,
