"Interval"|"ms"|0|0|1,"Utc"|"ms"|0|0|1,"FB_p"|"bar"|0|300|50,"Volant"|"F"|0.0|300.0|50,"xFR"|"mm"|0.0|5.0|50,"xRR"|"mm"|0.0|5.0|50,"xFL"|"mm"|0.0|5.0|50,"xRL"|"mm"|0.0|5.0|50,"AccelX"|"G"|-3.0|3.0|50,"AccelY"|"G"|-3.0|3.0|50,"AccelZ"|"G"|-3.0|3.0|50,"Yaw"|"Deg/Sec"|-120|120|50,"Pitch"|"Deg/Sec"|-120|120|50,"Roll"|"Deg/Sec"|-120|120|50,"Gsum"|"G"|0.0|3.0|50,"RPM"|""|0|14000|50,"TPS"|"%"|0|100|50,"WaterTemp"|"?C"|0|300|50,"AirTemp"|"?C"|-1000|1000|50,"MAP"|"KPa"|0|255|50,"Lambda"|""|0|1024|50,"WheelSpeed"|"MPH"|0.0|150.0|50,"OilPress"|"PSI"|0|150|50,"FuelPress"|"PSI"|0|150|50,"OilTemp"|"F"|0|300|50,"Battery"|"Volts"|0.0|20.0|50,"FuelCon"|"L/h"|-1000|1000|50,"Gear"|""|0|10|50,"Advance"|"Deg"|-360|360|50,"Injection"|"ms"|-1000|1000|50,"FuelCon"|"L/100km"|-1000|1000|50,"LC_But_Pres"|""|-1000|1000|50,"LC_Active"|""|-1000|1000|50,"RD_Speed"|""|-1000|1000|50,"RUD_Speed"|""|-1000|1000|50,"LD_Speed"|""|-1000|1000|50,"LUD_Speed"|""|-1000|1000|50,"Latitude"|"Degrees"|-180.0|180.0|10,"Longitude"|"Degrees"|-180.0|180.0|10,"Speed"|"kph"|0.0|150.0|10,"Altitude"|"m"|0.0|4000.0|10,"LapCount"|""|0|0|10,"LapTime"|"Min"|0.0|0.0|10,"Sector"|""|0|0|10,"SectorTime"|"Min"|0.0|0.0|10,"ElapsedTime"|"Min"|0.0|0.0|10,"CurrentLap"|""|0|0|10,"Distance"|"km"|0.0|0.0|10,"SessionTime"|"Min"|0.0|0.0|10
51863,1560695546019,22,2.25,1.92,3.45,1.72,5.08,1.41,-0.13,0.23,-0,-6,-2,1.42,9957,5,83,34,21,725,556.0,650,461,60,120.0,120,1,270,176,68,0,0,538,-22359,-9072,555,,,,,,,,,,,,
51883,1560695546039,16,2.26,1.9,3.48,1.72,5.05,1.32,-0.13,0.15,-0,-3,-3,1.33,9878,5,83,34,21,730,553.0,642,460,60,120.0,120,1,270,175,68,0,0,519,-32248,10408,552,,,,,,,,,,,,
51903,1560695546059,22,2.25,1.89,3.48,1.7,5.07,1.39,-0.06,0.09,-1,-3,-3,1.39,9699,5,83,34,21,734,549.0,640,460,60,120.0,120,1,270,169,68,0,0,512,-22519,-28648,549,,,,,,,,,,,,
51923,1560695546079,22,2.24,1.9,3.48,1.71,5.04,1.39,-0.1,0.06,-1,-2,-2,1.4,9556,5,83,34,21,739,544.0,643,460,60,120.0,120,1,270,165,68,0,0,522,-506,6274,543,,,,,,,,,,,,
51943,1560695546103,18,2.24,1.9,3.48,1.71,5.04,1.23,-0.03,-0.0,-1,-0,-2,1.23,9441,5,83,34,21,748,539.0,639,463,60,120.0,109,1,270,164,59,0,0,507,1780,-3856,533,45.702084,4.91093,55.03,196.3,0,0.0,0,0.0,0.4683,1,0.34,0.8657
51963,1560695546123,18,2.25,1.9,3.45,1.71,5.04,1.31,0.03,-0.04,-1,0,-2,1.31,9360,5,83,34,20,755,534.0,642,456,60,120.0,109,1,270,157,59,0,0,509,-32248,10408,525,,,,,,,,,,,,
51983,1560695546143,21,2.25,1.9,3.46,1.71,5.03,1.38,-0.08,0.07,-1,-3,-2,1.38,9272,5,83,34,20,761,526.0,645,457,60,120.0,109,1,270,157,59,0,0,501,-32248,998,519,,,,,,,,,,,,
52003,1560695546163,20,2.25,1.9,3.47,1.71,5.04,1.44,-0.23,0.11,-2,-2,-3,1.46,9191,5,83,34,20,770,519.0,643,461,60,120.0,109,1,270,157,59,0,0,481,-8187,248,517,,,,,,,,,,,,
52023,1560695546183,18,2.25,1.88,3.46,1.7,5.06,1.5,-0.4,0.27,-3,-7,-5,1.56,9084,5,83,34,20,781,514.0,638,453,60,120.0,109,1,270,157,59,0,0,484,-3482,32033,511,,,,,,,,,,,,
52043,1560695546205,18,2.25,1.89,3.46,1.67,5.06,1.55,-0.53,0.33,-4,-7,-6,1.64,8958,5,83,34,19,800,510.0,635,460,60,121.0,103,1,270,157,53,0,0,487,10994,32033,504,45.702076,4.910944,52.15,196.3,0,0.0,0,0.0,0.47,1,0.34,0.8674
52063,1560695546225,20,2.24,1.89,3.45,1.67,5.06,1.6,-0.62,0.34,-3,-7,-8,1.72,8836,5,83,34,19,810,504.0,628,458,60,121.0,103,1,270,151,53,0,0,478,-32248,8488,500,,,,,,,,,,,,
52083,1560695546245,16,2.26,1.88,3.46,1.67,5.08,1.64,-0.56,0.34,-4,-8,-6,1.74,8733,5,83,34,19,817,497.0,630,458,60,120.0,103,1,270,151,53,0,0,476,-9216,6193,494,,,,,,,,,,,,
52103,1560695546265,20,2.26,1.89,3.47,1.68,5.04,1.56,-0.49,0.23,-4,-6,-5,1.64,8620,5,83,34,19,835,491.0,628,461,60,121.0,103,1,270,151,53,0,0,460,248,12552,486,,,,,,,,,,,,
52123,1560695546285,20,2.25,1.89,3.49,1.69,5.06,1.48,-0.54,0.25,-3,-5,-5,1.57,8503,5,83,35,19,855,485.0,629,461,60,121.0,103,1,270,156,53,0,0,435,-10483,-26615,485,,,,,,,,,,,,
52143,1560695546305,18,2.26,1.89,3.47,1.68,5.04,1.43,-0.41,0.25,-3,-3,-5,1.49,8344,5,83,35,20,869,479.0,628,457,60,120.0,102,1,270,153,49,0,0,442,10305,2211,478,45.702068,4.910957,49.37,196.2,0,0.0,0,0.0,0.4717,1,0.35,0.869
52163,1560695546325,19,2.25,1.89,3.45,1.68,5.05,1.41,-0.37,0.21,-3,-3,-6,1.46,8241,5,83,35,21,883,472.0,626,459,60,120.0,102,1,270,150,49,0,0,455,-1923,15649,470,,,,,,,,,,,,
52183,1560695546345,20,2.27,1.89,3.44,1.66,5.07,1.37,-0.26,0.16,-2,-4,-7,1.4,8148,5,83,35,21,902,469.0,619,457,60,120.0,102,1,270,152,49,0,0,449,10432,-3314,463,,,,,,,,,,,,
52203,1560695546365,18,2.26,1.87,3.44,1.66,5.05,1.36,-0.15,0.05,-2,-1,-4,1.37,8061,5,83,35,22,936,463.0,613,458,60,121.0,102,1,270,152,49,0,0,437,6193,-3414,460,,,,,,,,,,,,
52223,1560695546385,20,2.27,1.86,3.46,1.67,5.07,1.39,-0.11,0.11,-2,-2,-4,1.39,7961,5,83,35,22,955,455.0,610,461,60,120.0,102,1,270,150,49,0,0,411,14488,31796,455,,,,,,,,,,,,
52243,1560695546405,19,2.27,1.86,3.47,1.67,5.04,1.33,-0.03,0.07,-2,-2,-4,1.33,7874,5,83,35,22,972,449.0,606,458,60,121.0,99,1,268,150,45,0,0,405,10305,1779,449,45.702057,4.91097,46.73,196.2,0,0.0,0,0.0,0.4733,1,0.35,0.8707
52263,1560695546425,21,2.29,1.85,3.47,1.68,5.04,1.11,-0.01,-0.09,-1,1,-3,1.11,7719,5,83,35,22,989,445.0,597,460,60,121.0,99,1,267,150,45,0,0,410,23400,-3414,444,,,,,,,,,,,,
52283,1560695546445,18,2.29,1.86,3.46,1.68,5.04,0.99,-0.05,-0.16,0,1,-1,0.99,7625,5,83,35,22,1022,440.0,585,461,60,121.0,99,1,266,150,45,0,0,414,21580,2524,440,,,,,,,,,,,,
52303,1560695546465,19,2.29,1.86,3.46,1.68,5.05,0.95,-0.09,-0.26,1,-0,0,0.95,7509,5,83,35,22,1035,433.0,575,458,60,121.0,99,1,265,150,45,0,0,412,243,10541,433,,,,,,,,,,,,
52323,1560695546485,18,2.3,1.85,3.47,1.68,5.04,0.93,-0.13,-0.33,2,1,1,0.94,7452,5,83,35,22,1046,427.0,577,460,60,121.0,99,1,264,150,45,0,0,404,-3856,6512,425,,,,,,,,,,,,
52343,1560695546505,19,2.3,1.85,3.48,1.69,5.05,0.76,-0.17,-0.37,3,4,1,0.78,7367,5,83,35,22,1066,422.0,563,457,60,121.0,98,1,263,150,42,0,0,388,-3414,-1818,422,45.702053,4.910981,43.85,196.2,0,0.0,0,0.0,0.475,1,0.35,0.8724
52363,1560695546525,18,2.29,1.83,3.49,1.68,5.06,0.78,-0.04,-0.49,4,5,2,0.78,7307,5,83,35,21,1080,417.0,559,464,60,120.0,98,1,263,148,42,0,0,371,2524,-1818,417,,,,,,,,,,,,
52383,1560695546545,17,2.29,1.84,3.49,1.68,5.04,0.85,0.01,-0.48,3,2,2,0.85,7172,5,83,35,21,1096,414.0,555,456,60,120.0,98,1,261,148,42,0,0,378,-26615,-19019,414,,,,,,,,,,,,
52403,1560695546565,19,2.3,1.84,3.47,1.7,5.04,0.97,-0.11,-0.33,2,-1,4,0.97,7080,5,83,35,21,1106,407.0,550,458,60,120.0,98,1,260,148,42,0,0,390,11545,-6524,407,,,,,,,,,,,,
52423,1560695546585,18,2.29,1.84,3.46,1.69,5.04,0.9,-0.11,-0.35,3,2,5,0.91,7025,5,83,36,21,1113,401.0,544,459,60,121.0,98,1,260,148,42,0,0,380,17144,-19126,401,,,,,,,,,,,,
52443,1560695546604,13,2.3,1.82,3.46,1.68,5.05,0.89,-0.07,-0.3,4,2,3,0.9,6949,5,83,36,21,1122,397.0,540,462,60,120.0,95,1,260,147,38,0,0,371,-6524,486,397,45.702045,4.910992,41.12,196.2,0,0.0,0,0.0,0.4767,1,0.35,0.874
52463,1560695546624,21,2.29,1.82,3.47,1.69,5.04,0.97,-0.16,-0.1,3,1,0,0.98,6893,5,83,36,22,1131,389.0,538,455,60,121.0,95,1,260,149,38,0,0,363,-3866,0,389,,,,,,,,,,,,
52483,1560695546644,16,2.29,1.82,3.49,1.7,5.04,0.9,-0.1,-0.19,4,1,0,0.91,6823,5,83,36,22,1134,385.0,530,461,60,121.0,95,1,260,149,38,0,0,359,2278,-14707,384,,,,,,,,,,,,
52503,1560695546664,19,2.28,1.82,3.49,1.7,5.07,1.02,-0.21,-0.12,3,-1,0,1.04,6737,5,83,36,22,1133,380.0,530,458,60,120.0,95,1,261,149,38,0,0,355,-6656,0,380,,,,,,,,,,,,
52523,1560695546684,14,2.28,1.82,3.48,1.69,5.04,1.04,-0.12,-0.23,3,3,2,1.04,6609,5,83,36,22,1125,373.0,521,460,60,121.0,95,1,261,148,38,0,0,355,-6656,-29302,373,,,,,,,,,,,,
52543,1560695546706,17,2.26,1.81,3.48,1.68,5.05,1.13,-0.21,-0.14,3,1,5,1.15,6542,5,83,36,23,1116,370.0,512,461,60,121.0,97,1,261,148,36,0,0,349,2790,-6640,370,45.702038,4.911002,38.37,196.2,0,0.0,0,0.0,0.4783,1,0.35,0.8757
52563,1560695546726,19,2.26,1.81,3.48,1.67,5.07,1.13,-0.17,-0.05,2,-1,5,1.14,6492,5,83,36,23,1109,363.0,505,457,60,120.0,97,1,263,151,36,0,0,343,-14707,8841,363,,,,,,,,,,,,
52583,1560695546746,20,2.25,1.81,3.48,1.67,5.04,1.07,-0.07,-0.08,2,-1,3,1.08,6401,5,83,36,23,1095,357.0,504,458,60,122.0,97,1,263,151,36,0,0,341,-6640,3327,356,,,,,,,,,,,,
52603,1560695546766,16,2.26,1.82,3.48,1.67,5.03,1.09,-0.02,-0.15,3,2,2,1.09,6308,5,83,36,23,1085,351.0,499,458,60,121.0,97,1,263,150,36,0,0,339,28553,-31222,351,,,,,,,,,,,,
52623,1560695546786,16,2.26,1.81,3.48,1.66,5.07,1.12,-0.03,-0.16,2,3,-0,1.12,6218,5,83,36,24,1069,348.0,493,461,60,121.0,97,1,266,154,36,0,0,335,-30438,13,344,,,,,,,,,,,,
52643,1560695546806,15,2.27,1.82,3.49,1.67,5.08,1.19,-0.13,-0.16,2,3,-2,1.2,6139,5,83,36,24,1066,342.0,488,456,60,120.0,105,1,266,154,36,0,0,327,-31206,-6528,339,45.702034,4.911011,35.61,196.2,0,0.0,0,0.0,0.48,1,0.35,0.8774
52663,1560695546826,16,2.26,1.82,3.5,1.67,5.03,1.28,-0.28,-0.17,0,2,-2,1.31,6064,5,83,36,25,1056,335.0,479,459,60,120.0,105,1,270,158,36,0,0,320,3346,170,334,,,,,,,,,,,,
52683,1560695546846,15,2.26,1.84,3.51,1.66,5.04,1.35,-0.36,-0.14,-2,1,-1,1.4,5980,5,83,36,25,1047,329.0,473,461,60,122.0,105,1,269,158,36,0,0,313,-20736,-25856,327,,,,,,,,,,,,
52703,1560695546866,14,2.26,1.83,3.49,1.65,5.04,1.42,-0.41,-0.09,-3,1,-1,1.48,5879,5,83,36,25,1035,326.0,472,458,60,121.0,105,1,268,158,36,0,0,313,-23296,145,326,,,,,,,,,,,,
52723,1560695546886,20,2.25,1.84,3.48,1.64,5.07,1.4,-0.41,-0.09,-5,1,-1,1.46,5787,5,83,36,26,1027,321.0,465,457,60,122.0,105,1,269,159,36,0,0,310,-25856,-32256,318,,,,,,,,,,,,
52743,1560695546906,18,2.23,1.84,3.48,1.63,5.05,1.19,-0.38,-0.11,-5,6,-2,1.25,5695,5,83,36,26,1021,316.0,457,458,60,121.0,107,1,268,158,34,0,0,303,140,110,313,45.702026,4.91102,32.88,196.2,0,0.0,0,0.0,0.4817,1,0.35,0.879
52763,1560695546926,15,2.21,1.85,3.48,1.63,5.04,1.12,-0.22,-0.12,-2,4,-2,1.15,5605,5,83,36,27,1010,312.0,452,461,60,120.0,107,1,270,159,34,0,0,299,130,90,306,,,,,,,,,,,,
52783,1560695546946,14,2.2,1.86,3.46,1.62,5.06,1.21,-0.19,-0.08,-3,-1,-3,1.23,5524,5,83,36,28,1003,309.0,449,463,60,121.0,107,1,271,160,34,0,0,295,30720,80,301,,,,,,,,,,,,
52803,1560695546966,14,2.18,1.86,3.44,1.62,5.05,1.06,-0.22,-0.05,-5,5,-3,1.08,5426,5,83,36,29,1000,303.0,441,457,60,122.0,107,1,272,160,34,0,0,293,28160,0,298,,,,,,,,,,,,
52823,1560695546986,11,2.14,1.9,3.43,1.63,5.04,1.07,-0.13,-0.03,-3,1,-2,1.08,5334,5,83,36,30,999,300.0,434,461,60,119.0,107,1,272,160,34,0,0,291,100,10686,291,,,,,,,,,,,,
52843,1560695547000,13,2.1,1.95,3.39,1.63,5.05,1.11,-0.08,-0.02,-6,3,-4,1.11,5296,5,83,36,31,995,297.0,428,463,60,122.0,110,1,273,159,32,0,0,288,90,1886,285,45.702019,4.911028,30.55,196.1,0,0.0,0,0.0,0.4833,1,0.35,0.8807
52863,1560695547020,10,2.06,1.97,3.34,1.6,5.08,1.14,0.06,-0.01,-5,1,-5,1.14,5240,5,83,36,31,992,295.0,425,456,60,120.0,110,1,272,159,32,0,0,289,23040,-1527,280,,,,,,,,,,,,
52883,1560695547040,10,2.03,2.0,3.31,1.57,5.07,1.05,0.03,-0.05,-9,4,-5,1.05,5182,5,83,36,32,990,295.0,415,460,60,122.0,110,1,273,159,32,0,0,286,23040,-1,276,,,,,,,,,,,,
52903,1560695547060,10,1.99,2.06,3.26,1.58,5.04,1.15,0.2,-0.05,-8,2,-6,1.16,5145,5,83,36,33,989,293.0,413,462,60,120.0,110,1,276,165,32,0,0,286,21760,-1,271,,,,,,,,,,,,
52923,1560695547080,7,1.94,2.1,3.22,1.57,5.04,0.97,0.19,-0.07,-11,4,-7,0.99,5092,5,83,36,34,991,291.0,407,453,60,122.0,110,1,279,170,32,0,0,284,20480,-1,265,,,,,,,,,,,,
52943,1560695547106,6,1.9,2.16,3.19,1.57,5.04,1.07,0.26,-0.01,-13,1,-9,1.11,5017,5,83,36,35,992,290.0,400,471,60,121.0,125,1,282,177,33,0,0,286,0,-1281,259,45.702015,4.911036,28.18,196.1,0,0.0,0,0.0,0.485,1,0.35,0.8824
52963,1560695547126,8,1.87,2.2,3.17,1.56,5.06,1.12,0.4,-0.0,-13,0,-11,1.19,4925,5,83,36,36,996,290.0,397,455,60,119.0,125,1,282,181,33,0,0,281,0,10812,255,,,,,,,,,,,,
52983,1560695547146,5,1.84,2.22,3.17,1.55,5.04,0.95,0.4,0.01,-15,2,-14,1.03,4872,6,83,36,37,998,288.0,393,456,60,122.0,125,1,283,185,33,0,0,281,0,-17920,250,,,,,,,,,,,,
53003,1560695547166,6,1.81,2.25,3.17,1.56,5.04,0.9,0.37,0.06,-19,3,-17,0.98,4800,6,83,36,38,970,288.0,384,462,60,122.0,125,1,285,189,33,0,0,277,10686,-1483,244,,,,,,,,,,,,
53023,1560695547186,5,1.77,2.26,3.17,1.56,5.04,1.01,0.4,0.17,-21,0,-21,1.09,4751,7,83,36,39,940,285.0,380,462,60,121.0,125,1,287,193,33,0,0,277,-16896,13602,241,,,,,,,,,,,,
53043,1560695547206,3,1.75,2.26,3.16,1.55,5.05,1.11,0.55,0.25,-23,-4,-25,1.24,4699,7,83,36,40,917,283.0,373,460,60,120.0,143,1,286,193,34,0,0,275,-1529,-1496,235,45.702011,4.911043,26.56,196.1,0,0.0,0,0.0,0.4867,1,0.35,0.884
53063,1560695547226,4,1.73,2.26,3.16,1.54,5.06,1.21,0.64,0.24,-24,-5,-27,1.36,4644,8,83,37,41,884,282.0,370,456,60,120.0,143,1,286,194,34,0,0,274,1886,250,234,,,,,,,,,,,,
53083,1560695547246,3,1.72,2.25,3.14,1.55,5.08,1.24,0.64,0.23,-26,-7,-30,1.4,4582,8,83,37,41,840,280.0,365,452,60,119.0,143,1,284,192,34,0,0,272,250,1088,231,,,,,,,,,,,,
53103,1560695547266,3,1.71,2.26,3.12,1.56,5.04,1.26,0.65,0.24,-27,-8,-32,1.42,4497,9,83,37,42,804,281.0,355,458,60,119.0,143,1,282,192,34,0,0,271,24064,1088,229,,,,,,,,,,,,
53123,1560695547286,-0,1.73,2.26,3.09,1.56,5.07,1.24,0.73,0.19,-28,-8,-33,1.43,4452,9,83,37,43,793,280.0,354,451,60,120.0,143,1,284,194,34,0,0,271,630,250,226,,,,,,,,,,,,
53143,1560695547306,-1,1.74,2.26,3.09,1.55,5.07,1.25,0.75,0.2,-28,-9,-35,1.46,4410,10,83,37,44,789,277.0,351,455,60,121.0,141,1,286,196,32,0,0,265,30208,966,226,45.702007,4.91105,24.79,196.1,0,0.0,0,0.0,0.4883,1,0.36,0.8857
53163,1560695547326,1,1.76,2.24,3.1,1.56,5.07,1.33,0.73,0.31,-29,-12,-38,1.52,4406,10,83,37,44,787,275.0,351,457,60,121.0,141,1,285,196,32,0,0,267,-1527,13964,224,,,,,,,,,,,,
53183,1560695547346,-1,1.8,2.24,3.1,1.58,5.07,1.35,0.74,0.36,-30,-13,-40,1.54,4381,11,83,37,45,788,274.0,350,456,60,121.0,141,1,289,198,32,0,0,261,2414,13964,223,,,,,,,,,,,,
53203,1560695547366,-2,1.85,2.23,3.1,1.59,5.06,1.37,0.68,0.43,-30,-14,-42,1.52,4372,11,83,37,45,790,270.0,346,458,60,122.0,141,1,289,198,32,0,0,263,-1,-29696,221,,,,,,,,,,,,
53223,1560695547386,-0,1.88,2.23,3.1,1.64,5.05,1.36,0.62,0.49,-30,-12,-42,1.49,4347,11,83,37,46,795,268.0,345,462,60,122.0,141,1,291,200,32,0,0,260,-1,250,221,,,,,,,,,,,,
53243,1560695547406,-0,1.93,2.22,3.1,1.68,5.04,1.26,0.56,0.56,-30,-9,-44,1.38,4433,12,83,37,47,807,264.0,342,463,60,122.0,150,1,297,205,33,0,0,257,-1,16384,220,45.702004,4.911058,23.44,196.1,0,0.0,0,0.0,0.49,1,0.36,0.8874
53263,1560695547426,1,2.0,2.21,3.11,1.74,5.04,1.15,0.49,0.5,-30,-6,-44,1.25,4400,13,83,37,48,819,261.0,342,461,60,122.0,150,1,296,205,33,0,0,255,-1,-1533,221,,,,,,,,,,,,
53283,1560695547446,5,2.06,2.19,3.12,1.82,5.07,0.98,0.42,0.48,-28,-3,-44,1.07,4377,15,83,37,49,835,258.0,340,462,60,122.0,150,1,296,211,33,0,0,253,-10440,-1532,221,,,,,,,,,,,,
53303,1560695547466,5,2.12,2.16,3.15,1.87,5.08,0.93,0.33,0.46,-27,0,-42,0.99,4441,17,83,37,51,845,251.0,340,457,60,122.0,150,1,297,216,33,0,0,249,-214,250,223,,,,,,,,,,,,
53323,1560695547486,4,2.17,2.14,3.23,1.94,5.08,0.84,0.29,0.47,-25,2,-40,0.89,4408,19,83,37,52,855,248.0,340,456,60,122.0,150,1,297,223,33,0,0,245,250,1596,225,,,,,,,,,,,,
53343,1560695547504,4,2.21,2.12,3.24,1.98,5.06,0.82,0.23,0.44,-23,4,-38,0.85,4457,21,83,37,54,863,244.0,340,453,60,122.0,168,1,298,230,38,0,0,241,250,250,227,45.702004,4.911066,22.92,196.1,0,0.0,0,0.0,0.4917,1,0.36,0.889
53363,1560695547524,4,2.27,2.11,3.24,2.0,5.04,0.72,0.15,0.43,-21,5,-35,0.73,4491,23,83,37,57,866,238.0,343,456,60,120.0,168,1,296,244,38,0,0,237,13468,250,229,,,,,,,,,,,,
53383,1560695547544,3,2.31,2.1,3.29,2.0,5.06,0.71,0.08,0.46,-20,6,-33,0.72,4546,24,83,37,59,864,237.0,345,456,60,121.0,168,1,295,253,38,0,0,237,250,10824,230,,,,,,,,,,,,
53403,1560695547564,1,2.33,2.09,3.33,2.0,5.08,0.72,0.04,0.48,-18,7,-30,0.72,4610,26,83,37,61,862,235.0,346,455,60,122.0,168,1,294,264,38,0,0,235,-1483,-1494,231,,,,,,,,,,,,
53423,1560695547584,0,2.35,2.08,3.35,2.0,5.07,0.77,-0.03,0.52,-16,6,-28,0.77,4685,27,83,37,64,861,233.0,350,458,60,122.0,168,1,292,282,38,0,0,232,8704,-1494,232,,,,,,,,,,,,
53443,1560695547603,-0,2.38,2.08,3.35,2.01,5.08,0.83,-0.03,0.53,-14,5,-24,0.83,4709,28,83,37,67,861,234.0,352,465,60,122.0,219,1,290,295,51,0,0,230,10824,8704,236,45.702,4.911074,22.68,196.0,0,0.0,0,0.0,0.4933,1,0.36,0.8907
53463,1560695547623,0,2.39,2.08,3.34,2.0,5.06,0.91,0.01,0.52,-12,2,-19,0.91,4825,29,83,37,69,863,235.0,361,459,60,121.0,219,1,287,315,51,0,0,227,250,8704,235,,,,,,,,,,,,
53483,1560695547643,5,2.41,2.09,3.34,2.01,5.05,0.76,-0.07,0.56,-9,1,-16,0.76,4893,30,83,37,71,865,235.0,361,462,60,120.0,219,1,285,325,51,0,0,228,18432,-1483,235,,,,,,,,,,,,
53503,1560695547663,-0,2.43,2.09,3.35,2.0,5.06,0.68,-0.16,0.61,-8,2,-15,0.7,4990,30,83,37,72,868,236.0,369,453,60,122.0,219,1,284,333,51,0,0,227,-1496,-1483,236,,,,,,,,,,,,
53523,1560695547683,-1,2.45,2.09,3.32,2.07,5.06,0.77,-0.09,0.62,-6,0,-13,0.78,4969,30,83,37,74,870,238.0,375,464,60,121.0,219,1,284,337,51,0,0,232,-1496,-17920,238,,,,,,,,,,,,
53543,1560695547705,1,2.49,2.09,3.32,2.13,5.06,0.65,-0.1,0.58,-3,2,-9,0.66,4838,31,83,37,75,871,243.0,371,466,60,120.0,263,1,286,342,63,0,0,240,18432,15360,243,45.701996,4.911081,22.44,196.0,0,0.0,0,0.0,0.495,1,0.36,0.8924
53563,1560695547725,1,2.53,2.11,3.3,2.16,5.08,0.64,-0.14,0.57,-2,4,-6,0.65,4558,31,83,37,76,872,245.0,365,456,60,119.0,263,1,289,339,63,0,0,245,250,16896,247,,,,,,,,,,,,
53583,1560695547745,-1,2.56,2.12,3.29,2.22,5.04,0.66,-0.18,0.61,-0,2,-3,0.69,4445,31,83,37,76,887,250.0,358,454,60,119.0,263,1,291,331,63,0,0,244,13602,-1,252,,,,,,,,,,,,
53603,1560695547765,0,2.6,2.12,3.28,2.24,5.04,0.67,-0.22,0.6,2,0,-1,0.7,4346,31,83,37,77,896,254.0,346,462,60,120.0,263,1,293,339,63,0,0,241,13602,-1,254,,,,,,,,,,,,
53623,1560695547785,-1,2.63,2.1,3.32,2.22,5.08,0.66,-0.29,0.56,5,-2,2,0.72,4293,31,83,37,78,907,255.0,341,462,60,121.0,263,1,294,337,63,0,0,236,-1494,-1,255,,,,,,,,,,,,
53643,1560695547803,-1,2.65,2.05,3.4,2.23,5.04,0.7,-0.3,0.57,8,-3,5,0.76,4452,31,83,37,78,917,259.0,340,470,60,121.0,217,1,291,357,56,0,0,229,10824,506,259,45.701996,4.911089,23.17,196.0,0,0.0,0,0.0,0.4967,1,0.36,0.894
53663,1560695547823,-0,2.66,2.01,3.48,2.24,5.04,0.78,-0.3,0.64,11,-6,8,0.84,4497,31,83,37,79,957,262.0,340,470,60,122.0,217,1,290,371,56,0,0,227,-1496,506,264,,,,,,,,,,,,
53683,1560695547843,-1,2.69,1.98,3.5,2.25,5.08,0.85,-0.31,0.62,12,-7,11,0.91,4580,31,83,37,78,981,265.0,342,467,60,122.0,217,1,289,363,56,0,0,225,250,-1,266,,,,,,,,,,,,
53703,1560695547863,0,2.7,1.99,3.49,2.25,5.04,0.84,-0.32,0.6,15,-8,15,0.9,4663,31,83,37,79,1005,265.0,346,469,60,122.0,217,1,287,378,56,0,0,227,10318,-1,267,,,,,,,,,,,,
53723,1560695547883,3,2.73,1.98,3.49,2.27,5.05,0.79,-0.39,0.58,17,-6,18,0.88,4772,31,83,37,79,1027,268.0,355,456,60,120.0,217,1,285,383,56,0,0,229,250,-1,267,,,,,,,,,,,,
53743,1560695547905,5,2.76,1.98,3.48,2.32,5.06,0.79,-0.48,0.63,18,-5,20,0.93,4811,31,83,37,79,1065,270.0,358,442,60,121.0,259,1,285,386,70,0,0,235,-1496,-1,270,45.701996,4.911097,23.69,196.0,0,0.0,0,0.0,0.4983,1,0.36,0.8957
53763,1560695547925,-2,2.81,1.98,3.48,2.33,5.05,0.82,-0.51,0.64,19,-5,22,0.96,4778,30,83,37,79,1097,271.0,356,455,60,122.0,259,1,285,384,70,0,0,242,-1496,-1,271,,,,,,,,,,,,
53783,1560695547945,0,2.84,1.98,3.51,2.33,5.07,0.85,-0.54,0.64,21,-6,23,1.01,4820,30,83,37,79,1104,272.0,358,459,60,122.0,259,1,285,373,70,0,0,261,-1496,-1,272,,,,,,,,,,,,
53803,1560695547965,3,2.87,1.98,3.54,2.32,5.08,0.79,-0.54,0.58,23,-8,27,0.95,4827,29,83,37,79,1117,273.0,357,467,60,120.0,259,1,284,387,70,0,0,272,-1496,-1,273,,,,,,,,,,,,
53823,1560695547985,5,2.88,1.96,3.59,2.31,5.04,0.73,-0.66,0.53,25,-5,30,0.98,4939,29,83,37,78,1127,274.0,364,456,60,120.0,259,1,283,392,70,0,0,265,10318,-1,274,,,,,,,,,,,,
53843,1560695547999,-2,2.9,1.94,3.62,2.31,5.05,0.78,-0.66,0.57,26,-6,32,1.02,5055,29,83,37,78,1143,275.0,370,460,60,122.0,261,1,284,371,72,0,0,266,18432,-1,275,45.701992,4.911105,23.78,196.0,0,0.0,0,0.0,0.5,1,0.36,0.8974
53863,1560695548019,3,2.91,1.95,3.61,2.3,5.06,0.78,-0.68,0.6,29,-7,35,1.03,5079,29,83,37,77,1148,279.0,370,460,60,120.0,261,1,286,373,72,0,0,263,19968,-1281,279,,,,,,,,,,,,
53883,1560695548039,-1,2.91,1.95,3.62,2.31,5.04,0.7,-0.69,0.53,31,-5,36,0.99,5169,29,83,37,76,1150,281.0,376,461,60,121.0,261,1,292,367,72,0,0,468,10318,-1281,282,,,,,,,,,,,,
53903,1560695548059,3,2.92,1.95,3.61,2.32,5.04,0.81,-0.69,0.54,32,-7,41,1.06,5253,29,83,37,76,1141,283.0,381,467,60,121.0,261,1,297,374,72,0,0,172,19968,2414,283,,,,,,,,,,,,
53923,1560695548079,-2,2.94,1.94,3.61,2.32,5.05,0.66,-0.68,0.5,33,-5,43,0.95,5244,29,83,37,75,1131,284.0,384,450,60,122.0,261,1,298,365,72,0,0,172,10318,30208,284,,,,,,,,,,,,
53943,1560695548099,3,0.32,1.95,3.62,2.32,5.04,0.77,-0.69,0.51,35,-7,46,1.03,5214,29,83,37,75,1117,286.0,388,470,60,121.0,248,1,296,363,71,0,0,172,250,630,286,45.701988,4.911112,24.2,196.0,0,0.0,0,0.0,0.5017,1,0.36,0.899
53963,1560695548119,-2,0.34,1.94,3.61,2.32,5.05,0.66,-0.74,0.54,36,-5,47,0.99,5259,29,83,38,75,1108,288.0,391,454,60,119.0,248,1,299,363,71,0,0,172,10318,250,288,,,,,,,,,,,,
53983,1560695548139,4,0.33,1.94,3.63,2.32,5.06,0.77,-0.73,0.52,38,-6,49,1.06,5316,29,83,38,74,1091,288.0,396,468,60,120.0,248,1,304,359,71,0,0,172,250,-1534,289,,,,,,,,,,,,
54003,1560695548159,-0,0.33,1.94,3.64,2.33,5.04,0.74,-0.73,0.54,39,-6,51,1.04,5328,29,83,38,73,1068,291.0,398,447,60,121.0,248,1,305,351,71,0,0,27,250,41,291,,,,,,,,,,,,
54023,1560695548179,-0,2.93,1.95,3.64,2.32,5.04,0.72,-0.8,0.56,41,-7,53,1.08,5325,29,83,38,74,1060,293.0,399,467,60,121.0,248,1,304,351,71,0,0,293,18432,250,293,,,,,,,,,,,,
54043,1560695548205,3,2.91,1.95,3.64,2.33,5.04,0.73,-0.79,0.53,41,-5,53,1.07,5405,29,83,38,73,1053,294.0,402,462,60,122.0,244,1,310,354,72,0,0,288,18432,0,294,45.701984,4.911118,24.02,196.0,0,0.0,0,0.0,0.5033,1,0.36,0.9007
54063,1560695548225,-1,2.88,1.94,3.63,2.33,5.04,0.63,-0.88,0.48,43,-5,53,1.08,5456,29,83,38,72,1045,295.0,403,454,60,120.0,244,1,314,347,72,0,0,275,10824,0,296,,,,,,,,,,,,
54083,1560695548245,5,2.84,1.94,3.62,2.32,5.05,0.7,-0.87,0.47,44,-5,55,1.12,5476,29,83,38,72,1037,297.0,410,457,60,122.0,244,1,316,348,72,0,0,283,-1494,0,297,,,,,,,,,,,,
54103,1560695548265,1,2.78,1.93,3.61,2.34,5.08,0.72,-0.91,0.5,43,-3,57,1.16,5456,29,83,38,71,1029,298.0,413,453,60,122.0,244,1,315,347,72,0,0,303,-1483,0,298,,,,,,,,,,,,
54123,1560695548285,1,2.7,1.96,3.56,2.34,5.05,0.67,-0.9,0.58,44,-5,59,1.12,5488,29,83,38,71,1026,299.0,411,456,60,120.0,244,1,318,338,72,0,0,293,250,80,300,,,,,,,,,,,,
54143,1560695548305,2,2.64,2.02,3.47,2.34,5.04,0.72,-0.79,0.55,43,-5,59,1.07,5496,29,83,37,71,1018,298.0,415,458,60,121.0,234,1,318,341,70,0,0,275,-1484,85,298,45.701977,4.911124,24.8,195.9,0,0.0,0,0.0,0.505,1,0.36,0.9024
54163,1560695548325,-1,2.58,2.12,3.36,2.35,5.04,0.69,-0.73,0.6,40,-3,57,1.01,5433,29,83,37,70,1008,297.0,416,445,60,121.0,234,1,315,339,70,0,0,260,15360,90,297,,,,,,,,,,,,
54183,1560695548345,4,2.52,2.19,3.25,2.34,5.05,0.71,-0.68,0.65,38,-3,56,0.99,5307,29,83,37,71,995,295.0,412,466,60,120.0,234,1,305,337,70,0,0,267,-1,23040,295,,,,,,,,,,,,
54203,1560695548365,0,2.45,2.27,3.15,2.34,5.04,0.71,-0.64,0.62,35,-1,55,0.96,5195,29,83,37,71,988,293.0,403,455,60,122.0,234,1,297,334,70,0,0,275,-1,85,293,,,,,,,,,,,,
54223,1560695548385,3,2.39,2.35,3.08,2.32,5.04,0.74,-0.46,0.66,33,-4,53,0.87,5048,29,83,37,73,978,292.0,396,463,60,120.0,234,1,286,335,70,0,0,274,-1,80,292,,,,,,,,,,,,
54243,1560695548403,8,2.32,2.37,3.05,2.28,5.04,0.64,-0.4,0.61,31,-1,49,0.75,4981,29,83,37,73,966,289.0,391,453,60,120.0,216,1,284,338,63,0,0,272,-1,0,289,45.701977,4.91113,25.45,195.9,0,0.0,0,0.0,0.5067,1,0.36,0.904
54263,1560695548423,0,2.25,2.37,3.05,2.22,5.04,0.77,-0.33,0.61,27,-2,45,0.84,5010,31,83,37,75,958,288.0,387,457,60,122.0,216,1,282,344,63,0,0,273,28160,0,288,,,,,,,,,,,,
54283,1560695548443,2,2.21,2.37,3.06,2.16,5.06,0.79,-0.22,0.57,25,-5,42,0.82,5057,34,83,37,77,952,285.0,387,476,60,120.0,216,1,288,371,63,0,0,276,-1527,250,284,,,,,,,,,,,,
54303,1560695548463,-0,2.16,2.37,3.06,2.1,5.08,0.72,-0.26,0.6,21,-2,37,0.77,5218,36,83,37,77,944,281.0,391,447,60,121.0,216,1,295,382,63,0,0,279,630,250,281,,,,,,,,,,,,
54323,1560695548483,0,2.12,2.37,3.06,2.04,5.08,0.78,-0.12,0.57,19,-4,34,0.79,5375,37,83,37,78,933,282.0,395,468,60,120.0,216,1,307,405,63,0,0,283,1886,24064,277,,,,,,,,,,,,
54343,1560695548503,0,2.11,2.38,3.03,2.0,5.05,0.8,-0.13,0.55,15,-2,29,0.81,5530,39,83,37,78,922,286.0,407,457,60,122.0,303,1,316,414,84,0,0,286,0,24064,276,45.701969,4.911134,26.9,195.8,0,0.0,0,0.0,0.5083,1,0.36,0.9057
54363,1560695548523,3,2.09,2.43,3.01,2.02,5.08,0.7,-0.08,0.59,12,1,23,0.7,5668,39,83,37,77,917,291.0,413,456,60,120.0,303,1,325,414,84,0,0,294,20480,-16896,275,,,,,,,,,,,,
54383,1560695548543,-1,2.06,2.48,2.96,2.02,5.07,0.65,0.0,0.7,9,1,18,0.65,5740,40,83,37,77,911,295.0,422,458,60,120.0,303,1,330,416,84,0,0,299,23040,-16896,276,,,,,,,,,,,,
54403,1560695548563,0,2.04,2.53,2.9,2.03,5.05,0.64,0.1,0.79,8,-1,14,0.65,5751,41,83,37,77,906,298.0,431,470,60,121.0,303,1,331,420,84,0,0,303,95,90,278,,,,,,,,,,,,
54423,1560695548583,-0,2.03,2.56,2.86,2.03,5.05,0.68,0.14,0.77,5,-1,11,0.7,5763,41,83,37,76,902,302.0,436,464,60,122.0,303,1,332,414,84,0,0,305,28160,115,280,,,,,,,,,,,,
54443,1560695548602,4,2.0,2.56,2.86,2.02,5.06,0.72,0.1,0.72,2,-1,7,0.73,5771,42,83,37,76,905,306.0,437,464,60,121.0,319,1,332,414,90,0,0,310,115,150,283,45.701962,4.911139,27.69,195.7,0,0.0,0,0.0,0.51,1,0.36,0.9074
54463,1560695548622,2,1.99,2.58,2.89,2.04,5.07,0.74,0.11,0.7,-0,-0,3,0.75,5815,42,83,37,76,912,308.0,439,461,60,122.0,319,1,335,418,90,0,0,313,120,-24576,283,,,,,,,,,,,,
54483,1560695548642,3,1.98,2.58,2.94,2.05,5.04,0.71,0.15,0.63,-2,0,0,0.73,5894,45,83,37,77,924,313.0,439,457,60,122.0,319,1,340,429,90,0,0,317,-30976,120,287,,,,,,,,,,,,
54503,1560695548662,5,1.97,2.56,2.93,2.06,5.03,0.64,0.25,0.54,-4,1,-3,0.69,5978,52,83,37,78,939,318.0,450,451,60,121.0,319,1,345,441,90,0,0,323,145,130,289,,,,,,,,,,,,
54523,1560695548682,5,1.97,2.57,2.9,2.05,5.04,0.56,0.36,0.48,-6,2,-5,0.67,6060,59,83,37,81,953,322.0,453,460,60,122.0,319,1,347,461,90,0,0,325,-24576,-22016,293,,,,,,,,,,,,
54543,1560695548704,0,1.97,2.57,2.87,2.04,5.04,0.55,0.4,0.41,-7,2,-8,0.68,6159,65,83,37,85,966,326.0,459,453,60,121.0,370,1,342,480,109,0,0,328,165,-20736,296,45.701954,4.911145,28.77,195.7,0,0.0,0,0.0,0.5117,1,0.37,0.909
54563,1560695548724,-2,1.99,2.57,2.87,2.04,5.05,0.57,0.35,0.45,-9,2,-10,0.67,6266,70,83,37,88,967,332.0,463,454,60,122.0,370,1,337,493,109,0,0,335,-32559,-122,297,,,,,,,,,,,,
54583,1560695548744,4,1.98,2.57,2.87,2.04,5.04,0.55,0.28,0.6,-11,0,-13,0.62,6358,73,83,37,91,965,333.0,472,465,60,120.0,370,1,338,511,109,0,0,338,-6528,-30438,302,,,,,,,,,,,,
54603,1560695548764,3,2.0,2.57,2.86,2.03,5.07,0.56,0.38,0.64,-12,1,-15,0.68,6375,75,83,37,92,951,339.0,480,458,60,121.0,370,1,337,517,109,0,0,342,-122,-6528,304,,,,,,,,,,,,
54623,1560695548784,-1,2.0,2.57,2.87,2.03,5.06,0.52,0.48,0.57,-13,3,-18,0.71,6311,78,83,37,93,942,342.0,481,458,60,122.0,370,1,333,521,109,0,0,343,-31206,-32559,306,,,,,,,,,,,,
54643,1560695548804,0,2.01,2.57,2.88,2.04,5.04,0.54,0.47,0.61,-14,3,-18,0.72,6360,81,83,37,93,937,344.0,482,455,60,121.0,405,1,336,522,125,0,0,346,-10554,-31206,311,45.70195,4.911151,29.88,195.7,0,0.0,0,0.0,0.5133,1,0.37,0.9107
54663,1560695548824,1,2.03,2.57,2.89,2.04,5.06,0.6,0.45,0.71,-16,1,-19,0.75,6412,83,83,37,94,934,346.0,478,457,60,120.0,405,1,339,528,125,0,0,349,-30438,28553,313,,,,,,,,,,,,
54683,1560695548844,-0,2.04,2.57,2.92,2.04,5.04,0.55,0.53,0.73,-16,3,-21,0.76,6590,87,83,37,94,943,348.0,483,461,60,120.0,405,1,347,530,125,0,0,351,8841,3183,318,,,,,,,,,,,,
54703,1560695548864,4,2.06,2.57,2.93,2.05,5.06,0.6,0.4,0.84,-16,1,-23,0.72,6698,91,83,37,95,955,352.0,493,458,60,120.0,405,1,352,528,125,0,0,354,3183,-29978,321,,,,,,,,,,,,
54723,1560695548884,1,2.09,2.56,2.92,2.06,5.08,0.47,0.47,0.82,-16,1,-25,0.66,6959,96,83,37,95,987,353.0,499,453,60,120.0,405,1,366,525,125,0,0,357,-6644,-1246,325,,,,,,,,,,,,
54743,1560695548904,1,2.1,2.56,2.91,2.08,5.07,0.63,0.37,0.8,-18,-0,-25,0.73,7078,99,83,37,95,1029,357.0,508,463,60,121.0,423,1,374,528,139,0,0,365,-6640,0,329,45.701942,4.911159,32.22,195.6,0,0.0,0,0.0,0.515,1,0.37,0.9124
54763,1560695548924,5,2.13,2.56,2.85,2.1,5.07,0.62,0.3,0.92,-17,2,-23,0.69,7151,100,83,37,95,1067,360.0,516,452,60,121.0,423,1,380,532,139,0,0,369,-6458,17144,338,,,,,,,,,,,,
54783,1560695548944,2,2.15,2.57,2.83,2.11,5.05,0.36,0.38,0.98,-15,5,-21,0.53,7228,100,83,37,95,1107,364.0,528,456,60,121.0,423,1,386,536,139,0,0,375,-1268,6384,342,,,,,,,,,,,,
54803,1560695548964,4,2.16,2.55,2.85,2.14,5.04,0.21,0.41,1.03,-13,5,-22,0.46,7247,100,83,37,94,1125,370.0,528,456,60,121.0,423,1,388,537,139,0,0,379,486,-992,349,,,,,,,,,,,,
54823,1560695548984,1,2.16,2.56,2.85,2.19,5.05,0.32,0.4,1.03,-13,5,-24,0.51,7298,100,83,37,95,1136,373.0,525,458,60,119.0,423,1,391,540,139,0,0,388,-6656,3,358,,,,,,,,,,,,
54843,1560695548998,1,2.17,2.56,2.86,2.24,5.07,0.44,0.37,1.01,-14,3,-24,0.57,7256,100,83,37,95,1130,379.0,526,460,60,120.0,411,1,388,537,148,0,0,395,8200,-992,365,45.701935,4.911167,33.66,195.5,0,0.0,0,0.0,0.5167,1,0.37,0.914
54863,1560695549018,2,2.15,2.58,2.88,2.25,5.07,0.49,0.4,0.97,-14,4,-23,0.63,7287,100,83,37,95,1112,387.0,529,461,60,120.0,411,1,390,538,148,0,0,398,240,1,369,,,,,,,,,,,,
54883,1560695549038,-0,2.16,2.61,2.89,2.27,5.04,0.53,0.37,1.01,-15,5,-21,0.64,7344,100,83,37,94,1084,389.0,535,455,60,121.0,411,1,395,542,148,0,0,402,-6524,6512,376,,,,,,,,,,,,
54903,1560695549058,1,2.15,2.61,2.9,2.27,5.04,0.59,0.29,1.09,-15,1,-19,0.66,7479,100,83,37,94,1035,396.0,541,460,60,120.0,411,1,405,549,148,0,0,410,-32702,11545,380,,,,,,,,,,,,
54923,1560695549078,3,2.15,2.61,2.9,2.25,5.06,0.6,0.27,1.13,-15,0,-20,0.66,7744,100,83,37,94,985,401.0,547,461,60,120.0,411,1,426,561,148,0,0,412,11545,-4059,385,,,,,,,,,,,,
54943,1560695549106,6,2.16,2.62,2.89,2.26,5.04,0.62,0.34,1.12,-14,-0,-20,0.71,8009,100,83,37,93,962,406.0,556,456,60,120.0,436,1,447,574,168,0,0,416,2524,7154,388,45.701931,4.911176,36.21,195.5,0,0.0,0,0.0,0.5183,1,0.37,0.9157
54963,1560695549126,3,2.16,2.61,2.9,2.25,5.07,0.59,0.15,1.18,-13,-2,-20,0.61,8209,100,83,37,91,921,409.0,576,455,60,120.0,436,1,444,597,168,0,0,422,11560,-7939,394,,,,,,,,,,,,
54983,1560695549146,1,2.18,2.63,2.89,2.28,5.04,0.57,0.15,1.21,-13,0,-20,0.59,8404,100,83,37,90,895,416.0,593,453,60,120.0,436,1,439,605,168,0,0,438,-3414,-18341,398,,,,,,,,,,,,
55003,1560695549166,6,2.17,2.63,2.87,2.27,5.08,0.55,0.2,1.16,-13,0,-18,0.58,8542,100,84,37,89,866,423.0,602,451,60,120.0,436,1,434,617,168,0,0,445,3826,21432,406,,,,,,,,,,,,
55023,1560695549186,3,2.18,2.63,2.87,2.27,5.04,0.49,0.05,1.24,-12,-3,-20,0.49,8612,100,84,37,88,862,431.0,603,456,60,120.0,436,1,430,617,168,0,0,461,1779,2524,416,,,,,,,,,,,,
55043,1560695549204,2,2.2,2.63,2.86,2.29,5.07,0.5,0.08,1.23,-13,-0,-19,0.51,8624,100,84,37,88,861,437.0,602,452,60,120.0,480,1,430,606,201,0,0,472,20625,-26615,423,45.701923,4.911186,39.2,195.4,0,0.0,0,0.0,0.52,1,0.37,0.9174
55063,1560695549224,-0,2.21,2.66,2.86,2.29,5.06,0.52,0.24,1.11,-13,1,-17,0.57,8692,100,84,37,88,867,446.0,611,453,60,120.0,480,1,428,606,201,0,0,466,16648,16408,429,,,,,,,,,,,,
55083,1560695549244,2,2.22,2.67,2.87,2.28,5.03,0.27,0.28,1.08,-12,1,-15,0.39,8741,100,84,37,87,871,451.0,610,450,60,120.0,480,1,426,606,201,0,0,470,3571,-899,436,,,,,,,,,,,,
55103,1560695549264,9,2.23,2.71,2.87,2.3,5.04,0.16,0.28,1.06,-11,2,-16,0.32,8890,100,84,37,87,882,458.0,621,463,60,120.0,480,1,419,594,201,0,0,477,17628,-6656,441,,,,,,,,,,,,
55123,1560695549284,3,2.24,2.74,2.93,2.4,5.07,-0.05,0.35,0.99,-9,6,-16,0.35,9066,100,84,37,87,897,460.0,619,461,60,120.0,480,1,418,594,201,0,0,487,-23623,32033,447,,,,,,,,,,,,
55143,1560695549306,3,2.23,2.73,2.93,2.43,5.04,-0.14,0.38,0.95,-9,5,-15,0.41,9222,100,84,37,87,917,467.0,623,458,60,120.0,458,1,418,594,206,0,0,496,243,32033,454,45.701916,4.911197,42.14,195.4,0,0.0,0,0.0,0.5217,1,0.37,0.919
55163,1560695549326,4,2.23,2.72,2.94,2.43,5.04,-0.26,0.5,0.97,-8,5,-13,0.57,9314,100,84,37,86,933,471.0,620,460,60,120.0,458,1,418,583,206,0,0,501,32033,505,461,,,,,,,,,,,,
55183,1560695549346,6,2.24,2.71,2.92,2.41,5.06,-0.06,0.45,0.98,-9,6,-13,0.46,9403,100,84,37,87,948,477.0,627,451,60,120.0,458,1,418,583,206,0,0,502,2212,-3856,473,,,,,,,,,,,,
55203,1560695549366,2,2.24,2.72,2.88,2.4,5.06,0.03,0.47,0.95,-9,5,-12,0.47,9517,100,84,37,86,965,486.0,630,460,60,120.0,458,1,419,595,206,0,0,505,-1562,16383,477,,,,,,,,,,,,
55223,1560695549386,4,2.25,2.69,2.88,2.39,5.03,-0.0,0.45,1.0,-7,4,-12,0.45,9650,100,84,36,86,988,491.0,633,456,60,119.0,458,1,412,586,206,0,0,505,248,-9072,483,,,,,,,,,,,,
55243,1560695549406,4,2.25,2.66,3.0,2.4,5.07,0.01,0.43,0.99,-6,5,-13,0.43,9791,100,84,36,86,1006,496.0,643,455,60,120.0,449,1,406,591,218,0,0,540,3,2524,491,45.701912,4.911209,45.2,195.4,0,0.0,0,0.0,0.5233,1,0.37,0.9207
55263,1560695549426,1,2.24,2.63,3.03,2.41,5.04,0.08,0.3,1.09,-6,3,-12,0.31,10042,100,84,36,85,1020,501.0,643,459,60,119.0,449,1,398,577,218,0,0,542,2109,-32248,498,,,,,,,,,,,,
55283,1560695549446,6,2.27,2.63,3.02,2.43,5.04,0.1,0.32,1.11,-6,6,-11,0.34,10157,100,84,36,85,1029,505.0,644,456,60,120.0,449,1,405,577,218,0,0,542,-28648,2524,505,,,,,,,,,,,,
55303,1560695549466,5,2.26,2.64,2.97,2.42,5.07,0.07,0.3,1.2,-6,2,-9,0.31,10223,100,84,36,85,1029,512.0,645,459,60,120.0,449,1,414,577,218,0,0,540,17136,6274,512,,,,,,,,,,,,
55323,1560695549486,4,2.27,2.65,2.93,2.41,5.06,-0.01,0.35,1.27,-6,2,-7,0.35,10307,100,84,36,85,1028,520.0,646,456,60,120.0,449,1,416,577,218,0,0,542,1248,6273,517,,,,,,,,,,,,
55343,1560695549506,5,2.27,2.66,2.9,2.41,5.07,0.07,0.33,1.31,-5,3,-7,0.34,10307,100,84,36,85,1018,526.0,641,454,60,120.0,434,1,416,577,226,0,0,549,-28648,-22263,522,45.7019,4.911222,48.45,195.4,0,0.0,0,0.0,0.525,1,0.37,0.9224
55363,1560695549526,3,2.28,2.65,2.94,2.42,5.07,0.07,0.28,1.3,-4,3,-7,0.29,10399,100,84,36,85,1010,532.0,645,456,60,120.0,434,1,424,577,226,0,0,569,-22519,-22359,529,,,,,,,,,,,,
55383,1560695549546,4,2.27,2.65,2.96,2.42,5.05,0.09,0.23,1.29,-3,2,-6,0.25,10416,100,84,36,85,1001,537.0,647,457,60,119.0,434,1,425,577,226,0,0,573,1780,-30159,537,,,,,,,,,,,,
55403,1560695549566,5,2.29,2.62,2.96,2.41,5.04,0.16,0.26,1.36,-3,1,-7,0.31,10563,100,84,36,85,989,544.0,642,457,60,120.0,434,1,432,577,226,0,0,571,-506,-29984,544,,,,,,,,,,,,
55423,1560695549586,3,2.29,2.62,2.98,2.41,5.07,0.16,0.34,1.28,-3,4,-6,0.38,10647,100,84,36,85,990,549.0,646,455,60,119.0,434,1,434,577,226,0,0,575,2104,30208,547,,,,,,,,,,,,
55443,1560695549605,7,2.29,2.61,2.98,2.37,5.06,0.23,0.21,1.17,-2,1,-4,0.31,10844,100,84,36,85,992,555.0,657,455,60,120.0,425,1,439,577,234,0,0,577,-22263,10432,554,45.701897,4.911236,50.96,195.4,0,0.0,0,0.0,0.5267,1,0.37,0.924
55463,1560695549625,4,2.29,2.6,2.98,2.37,5.08,0.14,0.13,1.25,-2,0,-3,0.19,10945,100,84,36,85,991,559.0,656,456,60,120.0,425,1,442,577,234,0,0,583,-18032,-4035,561,,,,,,,,,,,,
55483,1560695549645,3,2.29,2.59,3.0,2.36,5.06,0.15,0.15,1.17,-1,1,-3,0.21,11068,100,84,36,85,989,566.0,657,456,60,120.0,425,1,444,577,234,0,0,599,-2934,2048,566,,,,,,,,,,,,
55503,1560695549665,3,2.29,2.59,3.02,2.37,5.06,0.14,0.07,1.25,-0,2,-4,0.16,11234,100,84,36,84,986,574.0,652,457,60,120.0,425,1,442,559,234,0,0,605,-3190,2048,572,,,,,,,,,,,,
55523,1560695549685,3,2.29,2.6,3.02,2.39,5.07,0.19,0.16,1.3,-1,3,-3,0.25,11336,100,84,36,84,983,578.0,651,454,60,119.0,425,1,441,559,234,0,0,611,1,-7939,578,,,,,,,,,,,,
55543,1560695549705,3,2.3,2.6,2.97,2.37,5.07,0.23,0.03,1.31,-1,4,-3,0.23,11356,100,84,36,84,972,581.0,656,455,60,120.0,416,1,441,559,241,0,0,610,10432,-23055,583,45.701885,4.911251,54.01,195.4,0,0.0,0,0.0,0.5283,1,0.38,0.9257
55563,1560695549725,0,2.29,2.6,2.93,2.38,5.06,0.26,0.13,1.19,-1,5,-2,0.29,11432,100,84,36,84,964,587.0,657,455,60,120.0,416,1,441,559,241,0,0,606,208,269,587,,,,,,,,,,,,
55583,1560695549745,6,2.29,2.59,2.93,2.38,5.06,0.21,0.2,1.13,1,5,-0,0.29,11531,100,84,36,84,956,594.0,654,452,60,119.0,416,1,441,559,241,0,0,616,2048,30721,595,,,,,,,,,,,,
55603,1560695549765,4,2.3,2.56,2.96,2.42,5.05,0.26,0.14,1.16,1,4,1,0.29,11609,100,84,36,84,947,601.0,655,453,60,120.0,416,1,440,561,241,0,0,624,17344,-16883,601,,,,,,,,,,,,
55623,1560695549785,2,2.31,2.55,3.01,2.44,5.05,0.22,0.11,1.24,1,2,0,0.25,11711,100,84,36,84,936,604.0,660,457,60,120.0,416,1,440,564,241,0,0,636,23619,-10251,611,,,,,,,,,,,,
55643,1560695549805,4,2.29,2.54,2.99,2.45,5.04,0.26,0.05,1.24,1,0,-0,0.27,11867,100,84,36,83,916,611.0,655,455,60,120.0,414,1,440,551,252,0,0,632,5344,-1346,614,45.701878,4.911266,56.65,195.4,0,0.0,0,0.0,0.53,1,0.38,0.9274
55663,1560695549825,2,2.3,2.52,3.0,2.42,5.05,0.34,0.0,1.15,2,0,0,0.34,11988,100,84,36,83,907,615.0,665,462,60,119.0,414,1,440,553,252,0,0,635,28675,16599,615,,,,,,,,,,,,
55683,1560695549845,4,2.29,2.51,3.01,2.41,5.05,0.42,-0.04,1.13,2,0,0,0.42,12104,100,84,36,83,896,622.0,665,457,60,120.0,414,1,440,555,252,0,0,650,269,-4876,622,,,,,,,,,,,,
55703,1560695549865,4,2.29,2.49,3.04,2.41,5.07,0.44,-0.08,1.21,2,1,-0,0.44,12207,100,84,36,83,879,629.0,662,456,60,120.0,414,1,440,555,252,0,0,651,3395,-3488,629,,,,,,,,,,,,
55723,1560695549885,3,2.29,2.49,3.05,2.39,5.05,0.39,-0.03,1.25,2,1,1,0.39,12278,100,84,36,83,859,632.0,663,455,60,120.0,414,1,440,555,252,0,0,660,-16046,-26380,634,,,,,,,,,,,,
55743,1560695549906,5,2.28,2.5,3.04,2.37,5.04,0.28,0.12,1.31,2,2,4,0.3,12376,100,84,36,83,848,637.0,660,454,60,119.0,420,1,440,555,266,0,0,664,-2580,8958,639,45.701866,4.911283,59.27,195.4,0,0.0,0,0.0,0.5317,1,0.38,0.929
55763,1560695549926,3,2.28,2.58,2.96,2.37,5.05,0.27,0.11,1.07,2,3,2,0.29,12376,100,84,36,84,834,640.0,663,453,60,119.0,420,1,440,555,266,0,0,656,24,3543,641,,,,,,,,,,,,
55783,1560695549946,4,2.28,2.59,2.94,2.39,5.04,0.36,-0.01,1.06,2,3,0,0.36,12433,100,84,36,83,822,643.0,670,453,60,119.0,420,1,440,555,266,0,0,663,244,-10344,642,,,,,,,,,,,,
55803,1560695549966,5,2.27,2.59,2.96,2.38,5.04,0.39,0.01,1.15,2,2,2,0.39,12441,100,84,36,83,798,648.0,663,450,60,120.0,420,1,440,555,266,0,0,674,4909,31988,649,,,,,,,,,,,,
55823,1560695549986,5,2.26,2.6,2.94,2.4,5.04,0.32,0.18,0.88,2,2,4,0.37,12508,100,84,36,83,786,652.0,658,455,60,119.0,420,1,440,555,266,0,0,674,24583,-388,653,,,,,,,,,,,,
55843,1560695549999,4,2.27,2.61,3.02,2.41,5.04,0.29,0.11,0.89,2,2,3,0.31,12626,100,84,36,83,775,653.0,667,453,60,119.0,405,1,440,555,265,0,0,684,-3488,3543,654,45.701855,4.911299,61.37,195.4,0,0.0,0,0.0,0.5333,1,0.38,0.9307
55863,1560695550019,3,2.27,2.59,3.09,2.4,5.08,0.38,0.05,1.0,1,1,3,0.38,12729,100,84,36,83,769,658.0,671,457,60,119.0,405,1,440,555,265,0,0,690,31988,-3584,659,,,,,,,,,,,,
55883,1560695550039,4,2.28,2.58,3.12,2.39,5.05,0.45,-0.03,1.08,1,-0,3,0.45,12860,100,84,36,83,758,665.0,676,457,60,119.0,405,1,440,555,265,0,0,692,-2826,14342,665,,,,,,,,,,,,
55903,1560695550059,4,2.28,2.57,3.13,2.39,5.05,0.4,-0.01,1.09,1,-1,1,0.4,13002,100,84,36,83,754,671.0,669,461,60,119.0,405,1,440,555,265,0,0,695,3543,19188,671,,,,,,,,,,,,
55923,1560695550079,4,2.26,2.56,3.17,2.39,5.03,0.42,-0.06,1.14,1,-2,0,0.43,13194,100,84,36,84,753,673.0,678,458,60,119.0,405,1,440,570,265,0,0,703,-3038,-13072,673,,,,,,,,,,,,
55943,1560695550105,5,2.27,2.56,3.17,2.4,5.05,0.39,-0.05,1.03,1,-2,1,0.39,13260,100,84,36,83,754,679.0,674,451,60,119.0,412,1,440,555,278,0,0,714,-2345,11069,677,45.701847,4.911317,64.26,195.4,0,0.0,0,0.0,0.535,1,0.38,0.9324
55963,1560695550125,1,2.27,2.58,3.11,2.41,5.07,0.33,0.03,0.92,0,-2,1,0.33,13383,100,84,36,83,757,681.0,666,453,60,119.0,412,1,440,555,278,0,0,708,-2345,204,683,,,,,,,,,,,,
55983,1560695550145,-3,2.28,2.61,3.05,2.42,5.04,0.41,-0.06,0.97,-0,-2,0,0.41,13345,100,84,36,83,761,685.0,678,458,60,119.0,412,1,440,555,278,0,0,717,16118,6658,685,,,,,,,,,,,,
56003,1560695550165,-1,2.27,2.62,2.99,2.4,5.07,0.35,-0.01,0.95,0,-1,-0,0.35,13093,100,84,36,84,765,686.0,686,460,60,123.0,412,1,440,555,278,0,0,713,16599,-2560,685,,,,,,,,,,,,
56023,1560695550185,-0,2.27,2.6,3.03,2.37,5.04,0.41,0.08,0.74,1,-2,-1,0.42,12508,100,84,36,84,772,691.0,680,462,60,123.0,412,1,440,570,278,0,0,705,1780,-20693,689,,,,,,,,,,,,
56043,1560695550203,1,2.26,2.49,3.15,2.3,5.04,0.39,0.14,0.63,2,-2,-0,0.41,12143,100,84,36,84,776,695.0,673,461,60,121.0,383,1,440,570,266,0,0,705,14342,11576,694,45.701836,4.911335,65.55,195.4,0,0.0,0,0.0,0.5367,1,0.38,0.934
56063,1560695550223,1,2.28,2.39,3.28,2.19,5.08,0.38,0.22,0.52,3,2,0,0.44,11927,100,84,36,85,781,695.0,674,460,60,122.0,383,1,440,585,266,0,0,692,-10448,11576,693,,,,,,,,,,,,
56083,1560695550243,-0,2.27,2.37,3.29,2.16,5.05,0.39,0.26,0.47,4,2,1,0.47,11711,100,84,36,86,782,697.0,668,462,60,122.0,383,1,440,599,266,0,0,693,16599,-2830,693,,,,,,,,,,,,
56103,1560695550263,5,2.26,2.38,3.27,2.16,5.04,0.16,0.34,0.62,4,-3,-2,0.38,11207,100,84,36,86,814,698.0,665,463,60,121.0,383,1,443,1086,266,0,0,723,24,-2830,696,,,,,,,,,,,,
56123,1560695550283,0,2.27,2.4,3.12,2.19,5.06,0.1,0.21,0.55,4,4,-3,0.24,10140,100,84,36,88,900,705.0,640,452,60,119.0,383,1,406,1021,266,0,0,795,-20693,204,703,,,,,,,,,,,,
56143,1560695550305,4,2.26,2.43,2.99,2.24,5.05,0.26,0.25,0.58,3,6,-1,0.36,9827,100,84,36,88,1012,709.0,631,457,60,120.0,514,1,405,927,363,0,0,748,-30694,-2830,714,45.701824,4.911353,67.33,195.4,0,0.0,0,0.0,0.5383,1,0.39,0.9357
56163,1560695550325,4,2.26,2.45,2.88,2.27,5.04,0.16,0.27,0.6,3,5,1,0.32,10135,100,84,36,86,1156,711.0,640,449,60,120.0,514,1,405,776,363,0,0,732,-12152,-2358,711,,,,,,,,,,,,
56183,1560695550345,3,2.26,2.51,2.87,2.27,5.03,0.16,0.22,0.74,2,4,-1,0.28,10206,100,84,36,85,1242,714.0,638,460,60,119.0,514,1,410,656,363,0,0,732,16118,-13068,711,,,,,,,,,,,,
56203,1560695550365,0,2.27,2.59,2.87,2.32,5.07,0.23,0.15,0.65,2,1,-4,0.28,10190,100,84,36,85,1357,716.0,637,460,60,119.0,514,1,408,577,363,0,0,740,16118,-2830,714,,,,,,,,,,,,
56223,1560695550385,6,2.25,2.61,2.96,2.35,5.08,0.31,0.14,0.6,2,-2,-3,0.34,10021,100,84,36,85,1498,720.0,642,453,60,119.0,514,1,396,577,363,0,0,757,-2830,-10218,719,,,,,,,,,,,,
56243,1560695550405,5,2.25,2.64,3.07,2.35,5.05,0.27,0.19,0.59,2,-3,-2,0.33,10080,100,84,36,85,1498,725.0,645,455,60,120.0,305,1,401,577,220,0,0,763,-388,-23308,720,45.701817,4.911372,68.61,195.4,0,0.0,0,0.0,0.54,1,0.39,0.9374
56263,1560695550425,4,2.26,2.62,3.22,2.32,5.06,0.19,0.2,0.7,2,-4,-3,0.28,10257,100,84,36,85,1483,732.0,639,455,60,120.0,305,1,413,577,220,0,0,755,-2826,-22795,725,,,,,,,,,,,,
56283,1560695550445,2,2.26,2.61,3.3,2.32,5.04,0.28,0.19,0.66,2,1,-5,0.34,10359,100,84,36,85,1412,734.0,648,455,60,120.0,305,1,421,577,220,0,0,769,-3580,-3368,732,,,,,,,,,,,,
56303,1560695550465,3,2.26,2.57,3.3,2.29,5.08,0.31,0.17,0.64,1,-1,-5,0.36,10611,100,84,36,85,1318,741.0,655,460,60,120.0,305,1,433,577,220,0,0,774,-2826,-31068,735,,,,,,,,,,,,
56323,1560695550485,3,2.27,2.52,3.21,2.26,5.05,0.38,0.15,0.74,1,1,-4,0.41,10695,100,84,36,85,1200,748.0,646,456,60,120.0,305,1,435,559,220,0,0,784,-4096,-3888,744,,,,,,,,,,,,
56343,1560695550505,2,2.26,2.52,3.06,2.25,5.04,0.33,0.08,0.76,1,3,-5,0.34,10850,100,84,36,85,1130,754.0,651,459,60,120.0,315,1,440,559,235,0,0,768,-2574,-2344,751,45.701801,4.911391,71.06,195.4,0,0.0,0,0.0,0.5417,1,0.39,0.939
56363,1560695550525,3,2.27,2.52,2.95,2.26,5.05,0.42,0.06,0.87,1,3,-4,0.43,10763,100,84,35,84,1030,755.0,647,458,60,119.0,315,1,437,577,235,0,0,775,-31066,-2540,754,,,,,,,,,,,,
56383,1560695550545,3,2.25,2.51,2.81,2.25,5.04,0.47,0.06,0.91,1,2,-4,0.48,10605,100,84,35,85,955,761.0,651,451,60,119.0,315,1,433,577,235,0,0,795,-10218,-2570,755,,,,,,,,,,,,
56403,1560695550565,4,2.26,2.5,2.69,2.29,5.08,0.56,0.07,0.93,1,3,-5,0.57,10533,100,84,35,85,961,766.0,652,456,60,120.0,315,1,432,577,235,0,0,776,-2344,6389,764,,,,,,,,,,,,
56423,1560695550585,3,2.26,2.54,2.71,2.29,5.04,0.52,0.01,0.95,-0,2,-4,0.52,10498,100,84,35,85,985,768.0,641,454,60,119.0,315,1,430,577,235,0,0,784,-10214,-2570,767,,,,,,,,,,,,
56443,1560695550604,4,2.27,2.58,2.8,2.29,5.07,0.63,0.06,1.0,0,-2,-3,0.63,10569,100,84,35,85,996,767.0,642,460,60,120.0,303,1,434,577,231,0,0,788,6900,-2344,768,45.701794,4.911411,72.29,195.4,0,0.0,0,0.0,0.5433,1,0.39,0.9407
56463,1560695550624,2,2.27,2.58,2.92,2.31,5.05,0.58,0.09,1.03,-1,-2,-2,0.58,10726,100,84,35,85,1009,771.0,650,455,60,120.0,303,1,436,577,231,0,0,795,-10214,-13312,771,,,,,,,,,,,,
56483,1560695550644,4,2.26,2.59,3.14,2.35,5.04,0.49,0.05,1.06,0,-3,-3,0.49,10926,100,84,35,85,1014,772.0,657,456,60,119.0,303,1,442,577,231,0,0,813,-10212,-3888,770,,,,,,,,,,,,
56503,1560695550664,1,2.26,2.64,3.28,2.35,5.06,0.48,0.05,0.92,-0,-5,-6,0.48,11016,100,84,35,84,1009,777.0,652,457,60,120.0,303,1,443,559,231,0,0,813,-3450,204,772,,,,,,,,,,,,
56523,1560695550684,3,2.27,2.66,3.36,2.44,5.05,0.45,0.08,0.82,-1,-2,-3,0.46,11234,94,84,35,84,998,776.0,663,457,60,120.0,303,1,442,559,231,0,0,833,-31068,-1576,777,,,,,,,,,,,,
56543,1560695550706,6,2.27,2.67,3.37,2.5,5.04,0.32,0.12,0.8,-0,-0,-3,0.34,11517,87,84,35,82,988,781.0,656,459,60,120.0,299,1,440,540,233,0,0,851,-2426,-2314,780,45.701778,4.911432,75.44,195.4,0,0.0,0,0.0,0.545,1,0.39,0.9424
56563,1560695550726,4,2.25,2.67,3.35,2.48,5.08,0.22,0.09,0.78,-0,-3,-6,0.23,11624,77,84,35,79,976,782.0,658,458,60,119.0,299,1,440,510,233,0,0,856,-2826,-2570,779,,,,,,,,,,,,
56583,1560695550746,3,2.27,2.65,3.3,2.47,5.07,0.27,0.02,0.69,0,0,-7,0.27,11733,71,85,35,75,970,791.0,659,456,60,120.0,299,1,440,481,233,0,0,847,-8148,-22795,789,,,,,,,,,,,,
56603,1560695550766,5,2.26,2.66,3.29,2.47,5.07,0.35,0.08,0.73,1,1,-3,0.36,11711,64,85,35,70,951,795.0,661,462,60,119.0,299,1,440,457,233,0,0,856,-7436,-23308,793,,,,,,,,,,,,
56623,1560695550786,5,2.26,2.65,3.26,2.46,5.03,0.43,0.09,0.82,-1,-1,-3,0.44,11517,57,85,35,66,931,798.0,648,458,60,120.0,299,1,441,433,233,0,0,863,6905,-4096,797,,,,,,,,,,,,
56643,1560695550806,3,2.27,2.64,3.14,2.41,5.05,0.51,0.09,0.74,-2,1,-3,0.52,11227,47,85,35,61,915,803.0,651,453,60,120.0,227,1,446,397,181,0,0,822,-31068,-13068,803,45.701767,4.911453,76.62,195.4,0,0.0,0,0.0,0.5467,1,0.4,0.944
56663,1560695550826,7,2.27,2.62,3.07,2.35,5.04,0.47,0.02,0.7,-1,2,-2,0.47,11022,37,85,35,55,906,809.0,656,455,60,120.0,227,1,407,342,181,0,0,824,-2830,-30694,806,,,,,,,,,,,,
56683,1560695550846,4,2.27,2.6,3.04,2.33,5.07,0.58,0.01,0.62,-1,-1,-1,0.58,10539,27,85,35,49,876,813.0,651,458,60,120.0,227,1,385,269,181,0,0,819,-25858,-2560,809,,,,,,,,,,,,
56703,1560695550866,5,2.27,2.54,3.05,2.32,5.08,0.57,-0.03,0.59,-1,-4,0,0.57,10347,23,85,35,45,851,806.0,645,452,60,120.0,227,1,365,238,181,0,0,805,16118,-388,810,,,,,,,,,,,,
56723,1560695550886,5,2.28,2.42,3.08,2.22,5.07,0.52,0.08,0.49,-0,-2,2,0.53,10096,20,85,35,42,816,807.0,643,457,60,120.0,227,1,342,227,181,0,0,805,-23490,-2826,805,,,,,,,,,,,,
56743,1560695550906,8,2.27,2.28,3.22,2.06,5.04,0.67,-0.02,0.53,-0,-5,0,0.67,9941,18,85,35,39,800,806.0,645,457,60,120.0,105,1,320,219,85,0,0,797,16118,-2560,806,45.701756,4.911474,77.98,195.4,0,0.0,0,0.0,0.5483,1,0.4,0.9457
56763,1560695550926,7,2.26,2.18,3.4,2.01,5.06,0.61,-0.08,0.45,1,-3,1,0.62,9873,12,85,35,36,775,808.0,648,461,60,120.0,105,1,311,212,85,0,0,783,-31068,-2826,809,,,,,,,,,,,,
56783,1560695550946,5,2.27,2.15,3.47,1.98,5.04,0.7,-0.14,0.26,0,-2,1,0.71,9904,9,85,35,34,761,804.0,635,457,60,120.0,105,1,305,208,85,0,0,758,-13312,-2574,808,,,,,,,,,,,,
56803,1560695550966,7,2.27,2.13,3.41,1.94,5.04,0.83,-0.07,0.31,-0,-5,2,0.83,9978,8,85,35,32,748,803.0,638,460,60,120.0,105,1,300,206,85,0,0,771,-13072,-31066,804,,,,,,,,,,,,
56823,1560695550986,7,2.27,2.11,3.32,1.89,5.06,0.82,-0.13,0.31,1,-0,2,0.83,10026,7,85,35,30,751,801.0,642,457,60,120.0,105,1,291,201,85,0,0,777,6905,-10212,797,,,,,,,,,,,,
56843,1560695550998,5,2.28,2.08,3.29,1.88,5.05,0.88,-0.19,0.27,1,-2,1,0.9,10053,7,85,35,28,773,799.0,641,455,60,120.0,94,1,282,197,75,0,0,782,-2540,11277,799,45.70174,4.911496,78.88,195.3,0,0.0,0,0.0,0.55,1,0.4,0.9474
56863,1560695551018,11,2.28,2.07,3.3,1.87,5.09,0.99,-0.13,0.26,1,-4,1,1.0,10124,7,85,35,27,802,789.0,642,456,60,120.0,94,1,278,195,75,0,0,763,3544,-3368,789,,,,,,,,,,,,
56883,1560695551038,13,2.28,2.06,3.31,1.86,5.05,1.1,-0.18,0.29,0,-4,1,1.11,10135,7,85,35,26,850,783.0,651,460,60,120.0,94,1,274,195,75,0,0,763,5876,-2344,784,,,,,,,,,,,,
56903,1560695551058,14,2.28,2.04,3.31,1.83,5.05,1.14,-0.2,0.28,1,-2,0,1.16,10184,7,85,35,25,876,778.0,653,461,60,120.0,94,1,270,196,75,0,0,755,-2830,-30694,778,,,,,,,,,,,,
56923,1560695551078,15,2.27,2.03,3.37,1.82,5.07,1.07,-0.21,0.25,2,-3,-1,1.09,10257,7,85,35,25,913,772.0,658,457,60,120.0,94,1,270,197,75,0,0,748,-2344,-3344,772,,,,,,,,,,,,
56943,1560695551104,13,2.27,2.02,3.41,1.83,5.07,0.99,-0.12,0.18,1,-3,-1,1.0,10190,7,85,35,24,925,768.0,651,461,60,120.0,97,1,270,190,75,0,0,735,-10214,-2314,766,45.701733,4.911517,76.89,195.3,0,0.0,0,0.0,0.5517,1,0.4,0.949
56963,1560695551124,16,2.27,2.0,3.41,1.81,5.08,1.1,-0.08,0.25,1,-1,0,1.1,10118,7,85,35,24,941,765.0,646,466,60,120.0,97,1,270,187,75,0,0,747,-2766,-31068,765,,,,,,,,,,,,
56983,1560695551144,18,2.26,2.0,3.39,1.81,5.07,0.98,-0.07,0.19,1,-2,-0,0.98,10032,7,85,35,24,917,758.0,647,458,60,120.0,97,1,270,185,75,0,0,739,5876,-22796,757,,,,,,,,,,,,
57003,1560695551164,15,2.26,1.99,3.38,1.81,5.03,0.93,-0.05,0.18,1,-0,1,0.93,9899,7,85,35,23,895,757.0,647,460,60,120.0,97,1,270,180,75,0,0,736,-31068,-22796,756,,,,,,,,,,,,
57023,1560695551184,18,2.27,2.0,3.38,1.81,5.07,1.04,0.01,0.2,1,-1,2,1.04,9873,7,85,35,23,866,749.0,637,461,60,120.0,97,1,270,180,75,0,0,719,-3344,-2830,751,,,,,,,,,,,,
57043,1560695551206,17,2.26,1.99,3.37,1.8,5.07,0.95,-0.06,0.1,1,-3,1,0.95,9811,7,85,35,22,839,741.0,648,457,60,121.0,88,1,270,176,66,0,0,724,-2314,-22796,738,45.701717,4.911539,75.08,195.3,0,0.0,0,0.0,0.5533,1,0.4,0.9507
57063,1560695551226,19,2.26,1.98,3.37,1.79,5.07,1.03,-0.07,0.14,1,-1,2,1.04,9735,6,85,35,22,832,738.0,642,455,60,120.0,88,1,270,175,66,0,0,722,-31066,204,738,,,,,,,,,,,,
57083,1560695551246,17,2.27,1.98,3.37,1.79,5.07,0.99,-0.12,0.11,1,-0,0,1.0,9679,6,85,35,22,822,731.0,645,460,60,120.0,88,1,270,173,66,0,0,714,-3344,-13312,732,,,,,,,,,,,,
57103,1560695551266,20,2.26,1.96,3.39,1.79,5.03,1.09,-0.05,0.11,1,-1,-0,1.09,9625,6,85,35,22,803,725.0,647,461,60,120.0,88,1,270,171,66,0,0,699,-25858,-20693,725,,,,,,,,,,,,
57123,1560695551286,19,2.28,1.95,3.41,1.77,5.05,1.18,-0.16,0.28,1,-4,-0,1.19,9512,6,85,35,21,787,721.0,643,457,60,120.0,88,1,270,163,66,0,0,703,-2830,8010,721,,,,,,,,,,,,
57143,1560695551306,22,2.27,1.94,3.42,1.75,5.04,1.13,-0.19,0.15,1,-3,-0,1.15,9398,6,85,35,21,781,716.0,644,460,60,121.0,80,1,270,163,58,0,0,696,204,12333,717,45.701706,4.911559,72.55,195.3,0,0.0,0,0.0,0.555,1,0.41,0.9524
57163,1560695551326,18,2.28,1.94,3.42,1.76,5.08,0.94,-0.04,0.02,2,-2,-0,0.94,9300,6,85,35,21,775,715.0,640,462,60,120.0,80,1,270,163,58,0,0,686,-30694,-26380,711,,,,,,,,,,,,
57183,1560695551346,18,2.28,1.94,3.45,1.75,5.03,0.84,0.11,-0.13,3,2,-0,0.85,9227,6,85,35,21,772,706.0,635,463,60,120.0,80,1,270,163,58,0,0,675,11069,-10346,706,,,,,,,,,,,,
57203,1560695551366,19,2.27,1.94,3.45,1.75,5.04,0.82,0.19,-0.09,2,-0,1,0.85,9101,6,85,35,20,767,700.0,633,458,60,120.0,80,1,270,156,58,0,0,674,24,-2345,699,,,,,,,,,,,,
57223,1560695551386,18,2.28,1.98,3.45,1.78,5.04,0.86,0.24,-0.1,2,2,2,0.9,9040,6,85,35,20,768,690.0,635,456,60,120.0,80,1,270,156,58,0,0,668,-2830,-2345,688,,,,,,,,,,,,
57243,1560695551406,18,2.28,2.03,3.45,1.79,5.07,0.97,0.22,-0.08,1,-3,1,1.0,9001,6,85,35,20,770,679.0,636,457,60,120.0,77,1,270,156,53,0,0,661,-2345,-2345,676,45.701698,4.911578,69.87,195.3,0,0.0,0,0.0,0.5567,1,0.41,0.954
57263,1560695551426,14,2.28,2.01,3.45,1.78,5.05,1.04,0.18,-0.03,1,-1,1,1.06,8915,6,85,35,20,776,672.0,630,457,60,120.0,77,1,270,156,53,0,0,649,-2830,11566,674,,,,,,,,,,,,
57283,1560695551446,19,2.28,1.98,3.48,1.77,5.04,0.97,0.29,-0.05,2,-2,1,1.01,8769,6,85,35,19,787,674.0,633,458,60,120.0,77,1,270,150,53,0,0,647,-10344,-2830,674,,,,,,,,,,,,
57303,1560695551466,18,2.28,1.98,3.54,1.78,5.08,0.85,0.39,-0.09,2,-0,1,0.94,8688,6,85,35,19,794,668.0,629,461,60,120.0,77,1,270,150,53,0,0,636,-3578,-2580,668,,,,,,,,,,,,
57323,1560695551486,17,2.27,1.99,3.59,1.78,5.04,0.88,0.33,-0.02,2,-3,2,0.94,8522,6,85,35,19,800,665.0,630,460,60,122.0,77,1,270,150,53,0,0,619,-2345,30721,665,,,,,,,,,,,,
57343,1560695551504,17,2.27,1.98,3.58,1.78,5.06,0.88,0.35,-0.09,2,-2,0,0.94,8314,6,85,35,19,821,658.0,628,461,60,122.0,71,1,270,147,47,0,0,607,31988,28675,658,45.701683,4.911597,67.17,195.3,0,0.0,0,0.0,0.5583,1,0.41,0.9557
57363,1560695551524,16,2.27,1.96,3.54,1.77,5.05,0.93,0.26,-0.04,2,-1,-1,0.96,8123,6,85,35,20,836,659.0,618,460,60,122.0,71,1,270,148,47,0,0,607,-2830,28675,659,,,,,,,,,,,,
57383,1560695551544,15,2.28,1.95,3.51,1.78,5.06,0.97,0.3,-0.18,1,-1,0,1.02,8061,6,85,35,21,856,655.0,611,460,60,120.0,71,1,270,150,47,0,0,607,4909,19621,655,,,,,,,,,,,,
57403,1560695551564,17,2.27,1.93,3.49,1.78,5.04,1.02,0.22,-0.14,1,-1,2,1.04,8099,6,85,35,21,866,648.0,616,462,60,121.0,71,1,270,150,47,0,0,595,-2830,8488,648,,,,,,,,,,,,
57423,1560695551584,16,2.29,1.91,3.47,1.75,5.06,1.03,0.17,-0.15,1,0,3,1.04,8029,6,85,35,22,886,642.0,606,461,60,121.0,71,1,270,151,47,0,0,587,-4876,259,642,,,,,,,,,,,,
57443,1560695551605,19,2.28,1.88,3.42,1.73,5.04,1.01,0.19,-0.22,1,1,2,1.03,7965,6,85,35,22,917,638.0,603,456,60,118.0,101,1,269,208,65,0,0,605,3,17344,638,45.701675,4.911615,64.9,195.3,0,0.0,0,0.0,0.56,1,0.41,0.9574
57463,1560695551625,20,2.29,1.84,3.46,1.71,5.07,1.07,0.14,-0.22,2,2,3,1.08,7995,6,85,35,21,929,633.0,597,459,60,120.0,101,1,269,191,65,0,0,585,20993,5344,633,,,,,,,,,,,,
57483,1560695551645,16,2.28,1.84,3.52,1.72,5.08,1.1,0.07,-0.15,2,2,2,1.11,7992,6,85,35,20,942,623.0,597,456,60,120.0,101,1,269,172,65,0,0,563,-18357,-28648,623,,,,,,,,,,,,
57503,1560695551665,16,2.29,1.84,3.54,1.71,5.08,1.14,0.12,-0.17,1,2,1,1.14,7908,6,85,35,20,950,620.0,600,457,60,119.0,101,1,269,159,65,0,0,562,-28304,23619,619,,,,,,,,,,,,
57523,1560695551685,17,2.28,1.85,3.53,1.7,5.05,1.13,0.17,-0.26,1,2,2,1.14,7832,6,85,35,20,955,615.0,598,460,60,120.0,101,1,268,147,65,0,0,564,28675,243,615,,,,,,,,,,,,
57543,1560695551705,17,2.28,1.86,3.49,1.7,5.05,1.03,0.13,-0.28,2,3,2,1.04,7747,5,85,35,20,958,608.0,591,457,60,119.0,68,1,267,145,42,0,0,576,-23055,2048,608,45.701664,4.911633,62.36,195.2,0,0.0,0,0.0,0.5617,1,0.41,0.959
57563,1560695551725,13,2.28,1.87,3.51,1.7,5.08,1.0,0.02,-0.17,3,1,2,1.0,7789,5,85,35,20,953,601.0,589,464,60,120.0,68,1,267,145,42,0,0,569,-768,-8188,599,,,,,,,,,,,,
57583,1560695551745,11,2.27,1.86,3.52,1.71,5.08,1.1,-0.09,-0.08,2,0,0,1.1,7763,5,85,35,20,938,595.0,596,458,60,120.0,68,1,267,145,42,0,0,559,-16179,-29984,591,,,,,,,,,,,,
57603,1560695551765,14,2.26,1.86,3.52,1.71,5.06,1.19,-0.04,0.04,1,0,0,1.19,7668,5,85,35,20,894,590.0,590,460,60,119.0,68,1,266,145,42,0,0,568,-1894,-3190,586,,,,,,,,,,,,
57623,1560695551785,13,2.25,1.86,3.52,1.73,5.07,1.23,0.02,0.08,-0,-3,-2,1.23,7609,5,85,35,20,869,585.0,581,460,60,118.0,68,1,266,145,42,0,0,556,-25872,-8186,584,,,,,,,,,,,,
57643,1560695551805,13,2.27,1.86,3.46,1.73,5.05,1.26,0.12,-0.03,-1,-3,-1,1.26,7524,5,85,35,20,839,580.0,576,457,60,119.0,70,1,265,145,41,0,0,560,1,-28648,581,45.701656,4.91165,59.41,195.2,0,0.0,0,0.0,0.5633,1,0.42,0.9607
57663,1560695551825,12,2.27,1.87,3.41,1.73,5.04,1.3,0.14,-0.01,-1,-3,-0,1.31,7494,5,85,35,20,814,575.0,568,459,60,119.0,70,1,264,145,41,0,0,564,259,-506,574,,,,,,,,,,,,
57683,1560695551845,12,2.26,1.86,3.42,1.71,5.06,1.36,0.15,0.03,-1,-2,-1,1.37,7461,5,85,36,21,802,571.0,562,455,60,119.0,70,1,264,148,41,0,0,545,-3190,-30064,568,,,,,,,,,,,,
57703,1560695551865,10,2.27,1.83,3.42,1.71,5.05,1.37,0.15,0.05,-2,-2,-2,1.38,7381,5,85,36,20,798,568.0,560,460,60,119.0,70,1,263,145,41,0,0,545,1780,-2934,568,,,,,,,,,,,,
57723,1560695551885,10,2.28,1.85,3.43,1.73,5.05,1.35,0.1,0.09,-2,-4,-0,1.35,7318,5,85,36,20,813,567.0,560,461,60,119.0,70,1,263,145,41,0,0,540,2211,-9072,567,,,,,,,,,,,,
57743,1560695551907,12,2.29,1.84,3.42,1.75,5.04,1.38,0.02,0.2,-1,-3,3,1.38,7256,5,85,36,20,844,563.0,554,458,60,119.0,70,1,262,145,40,0,0,538,-9072,1779,559,45.701645,4.911665,57.31,195.2,0,0.0,0,0.0,0.565,1,0.42,0.9624
57763,1560695551927,10,2.29,1.84,3.41,1.74,5.04,1.25,-0.04,0.22,-0,0,3,1.25,7275,5,85,36,20,879,557.0,554,460,60,120.0,70,1,262,145,40,0,0,536,-9072,2524,557,,,,,,,,,,,,
57783,1560695551947,6,2.29,1.84,3.42,1.72,5.06,1.1,-0.05,0.18,1,2,1,1.1,7250,5,85,36,21,905,555.0,555,460,60,119.0,70,1,262,148,40,0,0,531,-32248,-22519,555,,,,,,,,,,,,
57803,1560695551967,5,2.29,1.84,3.41,1.78,5.04,1.07,0.02,0.15,2,-0,-0,1.07,7250,5,85,36,21,922,549.0,553,460,60,119.0,70,1,262,148,40,0,0,529,2524,1780,551,,,,,,,,,,,,
57823,1560695551987,2,2.29,1.85,3.41,1.76,5.06,1.11,0.05,0.11,1,-1,2,1.11,7225,5,85,36,21,947,547.0,554,455,60,118.0,70,1,262,148,40,0,0,529,-8186,-32248,547,,,,,,,,,,,,
57843,1560695551999,2,2.28,1.84,3.42,1.75,5.08,1.2,-0.01,0.26,0,-2,4,1.2,7214,5,85,36,21,970,545.0,561,458,60,119.0,73,1,262,148,40,0,0,526,1780,6274,545,45.701637,4.91168,54.85,195.1,0,0.0,0,0.0,0.5667,1,0.42,0.964
57863,1560695552019,4,2.28,1.85,3.38,1.77,5.04,1.14,-0.04,0.29,0,-1,4,1.14,7194,5,85,36,21,1000,541.0,556,458,60,120.0,73,1,261,148,40,0,0,531,-8186,2524,541,,,,,,,,,,,,
57883,1560695552039,1,2.28,1.86,3.35,1.77,5.06,1.02,-0.02,0.24,1,-1,3,1.02,7137,5,85,36,21,1017,540.0,550,456,60,120.0,73,1,261,148,40,0,0,529,-2934,2524,540,,,,,,,,,,,,
57903,1560695552059,1,2.26,1.87,3.35,1.76,5.05,1.02,0.09,0.23,1,-2,2,1.02,7153,5,85,36,21,1030,535.0,547,460,60,119.0,73,1,261,148,40,0,0,528,6274,2524,535,,,,,,,,,,,,
57923,1560695552079,1,2.26,1.88,3.35,1.76,5.04,1.08,0.09,0.28,0,-1,2,1.08,7148,5,85,36,21,1038,533.0,543,458,60,119.0,73,1,261,148,40,0,0,522,14504,-8187,533,,,,,,,,,,,,
57943,1560695552105,3,2.25,1.9,3.35,1.76,5.07,1.15,0.0,0.31,-0,-2,2,1.15,7091,5,85,36,21,1053,532.0,542,457,60,119.0,73,1,260,148,39,0,0,524,-22519,15679,531,45.701626,4.911696,52.88,195.1,0,0.0,0,0.0,0.5683,1,0.42,0.9657
57963,1560695552125,2,2.26,1.92,3.35,1.76,5.08,1.0,0.07,0.16,1,2,3,1.0,7067,5,85,36,21,1050,530.0,541,457,60,120.0,73,1,260,148,39,0,0,520,2524,-9212,526,,,,,,,,,,,,
57983,1560695552145,1,2.26,1.92,3.34,1.75,5.08,1.04,0.11,0.29,0,0,1,1.04,7004,5,85,36,21,1041,529.0,538,462,60,118.0,73,1,260,148,39,0,0,520,-9072,-3482,524,,,,,,,,,,,,
58003,1560695552165,6,2.26,1.92,3.34,1.74,5.08,1.06,0.01,0.34,-0,-1,-1,1.06,6985,5,85,36,21,1007,526.0,533,453,60,120.0,73,1,260,147,39,0,0,519,-32248,-4054,524,,,,,,,,,,,,
58023,1560695552185,4,2.26,1.94,3.34,1.74,5.04,1.0,0.01,0.23,1,1,-1,1.0,6988,5,85,36,21,949,523.0,534,457,60,120.0,73,1,260,147,39,0,0,509,-22519,-21872,520,,,,,,,,,,,,
58043,1560695552205,4,2.27,1.93,3.34,1.72,5.04,0.98,0.03,0.26,0,3,0,0.98,6934,5,85,36,21,904,519.0,536,457,60,119.0,73,1,260,147,38,0,0,512,-22519,10994,518,45.701618,4.911709,51.59,195.2,0,0.0,0,0.0,0.57,1,0.42,0.9674
58063,1560695552225,5,2.26,1.93,3.35,1.72,5.08,1.08,-0.08,0.36,-0,1,0,1.09,6893,5,85,36,21,872,520.0,535,460,60,120.0,73,1,260,147,38,0,0,504,-8187,-3856,517,,,,,,,,,,,,
58083,1560695552245,2,2.27,1.94,3.34,1.73,5.08,0.93,0.04,0.24,0,3,-0,0.93,6865,5,85,36,21,831,518.0,532,460,60,118.0,73,1,260,147,38,0,0,506,15679,-4054,516,,,,,,,,,,,,
58103,1560695552265,6,2.28,1.96,3.3,1.73,5.04,1.04,-0.03,0.34,-1,1,-1,1.04,6838,5,85,36,22,792,517.0,530,461,60,119.0,73,1,260,146,38,0,0,504,15679,2109,512,,,,,,,,,,,,
58123,1560695552285,2,2.27,1.99,3.28,1.74,5.04,0.97,0.15,0.22,1,3,-2,0.98,6818,5,85,36,22,782,511.0,530,459,60,120.0,73,1,260,149,38,0,0,504,-4054,-9216,507,,,,,,,,,,,,
58143,1560695552306,7,2.26,1.98,3.28,1.77,5.04,1.01,0.04,0.34,0,1,-2,1.01,6825,5,85,36,22,785,508.0,528,457,60,119.0,75,1,260,149,38,0,0,498,-3414,11560,505,45.701611,4.911723,50.21,195.2,0,0.0,0,0.0,0.5717,1,0.42,0.969
58163,1560695552326,0,2.27,1.99,3.29,1.79,5.06,1.04,0.04,0.32,1,1,-0,1.04,6795,5,85,36,22,800,505.0,528,458,60,120.0,75,1,260,149,38,0,0,499,6274,771,504,,,,,,,,,,,,
58183,1560695552346,6,2.26,1.99,3.3,1.82,5.08,1.04,-0.02,0.4,0,1,0,1.04,6720,5,85,36,22,824,503.0,521,459,60,119.0,75,1,261,149,38,0,0,491,11560,2109,503,,,,,,,,,,,,
58203,1560695552366,2,2.26,1.99,3.31,1.81,5.08,0.95,0.1,0.3,0,2,1,0.95,6627,5,85,36,22,840,499.0,519,458,60,120.0,75,1,261,148,38,0,0,490,2524,998,499,,,,,,,,,,,,
58223,1560695552386,8,2.26,1.99,3.31,1.8,5.04,1.05,-0.04,0.41,-0,-2,1,1.06,6585,5,85,36,23,851,498.0,516,459,60,120.0,75,1,262,148,38,0,0,488,2524,-1562,496,,,,,,,,,,,,
58243,1560695552405,7,2.26,1.98,3.35,1.78,5.05,0.97,-0.01,0.37,0,-2,-0,0.97,6588,5,85,36,23,868,494.0,512,457,60,119.0,74,1,262,151,37,0,0,481,-6528,32033,492,45.701603,4.911736,49.02,195.2,0,0.0,0,0.0,0.5733,1,0.42,0.9707
58263,1560695552425,4,2.27,1.96,3.38,1.78,5.07,0.97,0.0,0.32,-0,-2,-1,0.97,6560,5,85,36,23,887,494.0,509,457,60,120.0,74,1,262,151,37,0,0,477,-6528,8488,489,,,,,,,,,,,,
58283,1560695552445,7,2.28,1.99,3.41,1.8,5.04,1.03,-0.06,0.38,-1,-3,-1,1.03,6517,5,85,36,23,901,492.0,509,463,60,119.0,74,1,263,151,37,0,0,475,-32768,16648,489,,,,,,,,,,,,
