"Interval"|"ms"|0|0|1,"Utc"|"ms"|0|0|1,"FB_p"|"bar"|0|300|50,"Volant"|"F"|0.0|300.0|50,"xFR"|"mm"|0.0|5.0|50,"xRR"|"mm"|0.0|5.0|50,"xFL"|"mm"|0.0|5.0|50,"xRL"|"mm"|0.0|5.0|50,"AccelX"|"G"|-3.0|3.0|50,"AccelY"|"G"|-3.0|3.0|50,"AccelZ"|"G"|-3.0|3.0|50,"Yaw"|"Deg/Sec"|-120|120|50,"Pitch"|"Deg/Sec"|-120|120|50,"Roll"|"Deg/Sec"|-120|120|50,"Gsum"|"G"|0.0|3.0|50,"RPM"|""|0|14000|50,"TPS"|"%"|0|100|50,"WaterTemp"|"?C"|0|300|50,"AirTemp"|"?C"|-1000|1000|50,"MAP"|"KPa"|0|255|50,"Lambda"|""|0|1024|50,"WheelSpeed"|"MPH"|0.0|150.0|50,"OilPress"|"PSI"|0|150|50,"FuelPress"|"PSI"|0|150|50,"OilTemp"|"F"|0|300|50,"Battery"|"Volts"|0.0|20.0|50,"FuelCon"|"L/h"|-1000|1000|50,"Gear"|""|0|10|50,"Advance"|"Deg"|-360|360|50,"Injection"|"ms"|-1000|1000|50,"FuelCon"|"L/100km"|-1000|1000|50,"LC_But_Pres"|""|-1000|1000|50,"LC_Active"|""|-1000|1000|50,"RD_Speed"|""|-1000|1000|50,"RUD_Speed"|""|-1000|1000|50,"LD_Speed"|""|-1000|1000|50,"LUD_Speed"|""|-1000|1000|50,"Latitude"|"Degrees"|-180.0|180.0|10,"Longitude"|"Degrees"|-180.0|180.0|10,"Speed"|"kph"|0.0|150.0|10,"Altitude"|"m"|0.0|4000.0|10,"LapCount"|""|0|0|10,"LapTime"|"Min"|0.0|0.0|10,"Sector"|""|0|0|10,"SectorTime"|"Min"|0.0|0.0|10,"ElapsedTime"|"Min"|0.0|0.0|10,"CurrentLap"|""|0|0|10,"Distance"|"km"|0.0|0.0|10,"SessionTime"|"Min"|0.0|0.0|10
27943,1560686919129,-2,2.22,2.05,3.17,1.85,2.72,0.74,-0.11,0.62,-0,1,-3,0.75,4887,17,67,33,58,502,0.0,542,460,60,119.0,0,1,297,313,56,0,0,0,250,250,0,45.700359,4.909455,0.0,193.2,0,0.0,-1,0.0,0.0,0,0.0,0.4657
27963,1560686919149,0,2.21,2.04,3.17,1.85,2.72,0.79,-0.08,0.59,-1,-1,-1,0.8,4899,17,67,33,57,502,0.0,542,458,60,122.0,0,1,297,313,56,0,0,0,250,250,0,,,,,,,,,,,,
27983,1560686919169,0,2.22,2.05,3.18,1.84,2.73,0.86,-0.01,0.64,-1,-3,-0,0.86,4813,17,67,33,57,502,0.0,545,456,60,122.0,0,1,297,308,56,0,0,0,250,250,0,,,,,,,,,,,,
28003,1560686919189,3,2.21,2.05,3.18,1.85,2.71,0.84,-0.01,0.67,1,-1,-1,0.84,4896,17,67,33,58,502,0.0,545,470,60,120.0,0,1,297,313,56,0,0,0,250,250,0,,,,,,,,,,,,
28023,1560686919209,0,2.2,2.05,3.18,1.85,2.72,0.8,-0.06,0.62,-0,0,-2,0.8,4808,17,67,33,58,502,0.0,536,461,60,119.0,0,1,297,313,56,0,0,0,250,250,0,,,,,,,,,,,,
28043,1560686919229,-0,2.21,2.06,3.18,1.86,2.72,0.75,-0.09,0.57,-1,-1,-1,0.76,4813,17,67,33,58,502,0.0,540,458,60,119.0,0,1,297,313,56,0,0,0,250,250,0,45.700359,4.909455,0.0,193.2,0,0.0,-1,0.0,0.0,0,0.0,0.4674
28063,1560686919249,-1,2.21,2.05,3.18,1.85,2.71,0.84,0.0,0.55,-1,-2,0,0.84,4791,17,67,33,58,502,0.0,536,461,60,122.0,0,1,296,312,56,0,0,0,250,250,0,,,,,,,,,,,,
28083,1560686919269,2,2.21,2.05,3.17,1.86,2.72,0.92,0.06,0.63,-1,-3,1,0.92,4789,17,67,33,58,502,0.0,529,460,60,121.0,0,1,296,312,56,0,0,0,250,250,0,,,,,,,,,,,,
28103,1560686919289,5,2.22,2.04,3.19,1.85,2.73,0.88,0.05,0.68,0,-1,-0,0.88,4846,17,67,33,58,502,0.0,537,472,60,121.0,0,1,297,311,56,0,0,0,250,250,0,,,,,,,,,,,,
28123,1560686919309,-3,2.21,2.05,3.18,1.85,2.72,0.83,-0.02,0.65,-0,-1,-1,0.83,4762,17,67,33,58,502,0.0,529,459,60,119.0,0,1,296,310,56,0,0,0,250,250,0,,,,,,,,,,,,
28143,1560686919329,0,2.2,2.05,3.18,1.85,2.72,0.76,-0.06,0.58,-1,-2,-1,0.76,4805,17,67,33,58,502,0.0,534,458,60,121.0,0,1,297,311,56,0,0,0,250,250,0,45.700359,4.909455,0.0,193.2,0,0.0,-1,0.0,0.0,0,0.0,0.469
28163,1560686919349,-0,2.22,2.04,3.18,1.85,2.73,0.84,0.02,0.57,-1,-2,1,0.84,4768,17,67,33,57,502,0.0,535,460,60,122.0,0,1,297,308,56,0,0,0,250,250,0,,,,,,,,,,,,
28183,1560686919369,3,2.21,2.04,3.18,1.85,2.72,0.94,0.07,0.64,-1,-3,1,0.94,4815,17,67,33,58,502,0.0,526,456,60,121.0,0,1,297,310,56,0,0,0,250,250,0,,,,,,,,,,,,
28203,1560686919389,5,2.21,2.04,3.18,1.85,2.72,0.92,0.08,0.68,1,-1,0,0.92,4778,17,67,33,58,502,0.0,534,470,60,120.0,0,1,296,308,56,0,0,0,250,250,0,,,,,,,,,,,,
28223,1560686919409,-1,2.22,2.05,3.18,1.86,2.72,0.87,0.01,0.66,1,1,-1,0.87,4854,17,67,33,58,503,0.0,533,461,60,119.0,0,1,297,308,56,0,0,0,250,250,0,,,,,,,,,,,,
28243,1560686919429,1,2.2,2.05,3.18,1.85,2.72,0.81,-0.04,0.6,-0,0,0,0.81,4846,17,67,33,58,503,0.0,539,458,60,119.0,0,1,297,308,56,0,0,0,250,250,0,45.700359,4.909455,0.0,193.2,0,0.0,-1,0.0,0.0,0,0.0,0.4707
28263,1560686919449,1,2.21,2.05,3.18,1.85,2.73,0.87,0.04,0.56,-0,-0,2,0.87,4799,17,67,33,57,503,0.0,543,461,60,121.0,0,1,297,301,56,0,0,0,250,250,0,,,,,,,,,,,,
28283,1560686919469,3,2.21,2.05,3.18,1.84,2.73,0.93,0.1,0.62,1,-2,1,0.94,4861,17,67,33,58,503,0.0,533,463,60,122.0,0,1,297,306,56,0,0,0,250,250,0,,,,,,,,,,,,
28303,1560686919489,5,2.22,2.04,3.18,1.85,2.72,0.86,0.08,0.69,2,1,-1,0.86,4822,17,67,33,58,502,0.0,538,472,60,121.0,0,1,297,306,56,0,0,0,250,250,0,,,,,,,,,,,,
28323,1560686919509,-2,2.21,2.05,3.18,1.84,2.73,0.81,0.02,0.66,1,1,-3,0.81,4834,17,67,33,58,502,0.0,534,458,60,119.0,0,1,297,306,56,0,0,0,250,250,0,,,,,,,,,,,,
28343,1560686919529,-2,2.22,2.05,3.17,1.85,2.72,0.79,0.01,0.6,0,-1,-3,0.79,4815,17,67,33,57,502,0.0,532,459,60,121.0,0,1,297,299,56,0,0,0,250,250,0,45.700359,4.909455,0.0,193.2,0,0.0,-1,0.0,0.0,0,0.0,0.4724
28363,1560686919549,-0,2.22,2.05,3.17,1.85,2.73,0.89,0.11,0.55,1,-1,-2,0.9,4812,17,67,33,58,502,0.0,537,464,60,121.0,0,1,297,304,56,0,0,0,250,250,0,,,,,,,,,,,,
28383,1560686919569,5,2.2,2.05,3.17,1.85,2.71,0.9,0.09,0.61,2,-0,-2,0.9,4885,17,67,33,58,502,0.0,539,461,60,121.0,0,1,297,304,56,0,0,0,250,250,0,,,,,,,,,,,,
28403,1560686919589,0,2.21,2.04,3.17,1.85,2.72,0.81,0.06,0.61,2,2,-2,0.81,4806,17,67,33,58,502,0.0,540,463,60,119.0,0,1,297,304,56,0,0,0,250,250,0,,,,,,,,,,,,
28423,1560686919608,-2,2.22,2.05,3.17,1.85,2.72,0.79,-0.01,0.61,0,1,-1,0.79,4871,17,67,33,58,502,0.0,539,452,60,121.0,0,1,297,304,56,0,0,0,250,250,0,,,,,,,,,,,,
28443,1560686919628,1,2.2,2.05,3.18,1.85,2.72,0.84,0.05,0.6,1,-2,-0,0.84,4815,17,67,33,58,502,0.0,537,460,60,121.0,0,1,297,304,56,0,0,0,250,250,0,45.700359,4.909455,0.0,193.2,0,0.0,-1,0.0,0.0,0,0.0,0.474
28463,1560686919648,4,2.21,2.04,3.17,1.85,2.72,0.79,0.04,0.6,2,-0,-0,0.79,4796,17,67,33,58,502,0.0,531,462,60,121.0,0,1,296,303,56,0,0,0,250,250,0,,,,,,,,,,,,
28483,1560686919668,4,2.21,2.05,3.17,1.86,2.72,0.71,-0.03,0.55,2,1,-1,0.71,4847,17,67,33,58,502,0.0,541,467,60,120.0,0,1,297,304,56,0,0,0,250,250,0,,,,,,,,,,,,
28503,1560686919688,-0,2.2,2.05,3.18,1.85,2.72,0.69,-0.1,0.6,1,2,0,0.7,4742,17,67,33,58,502,0.0,537,462,60,119.0,0,1,296,303,56,0,0,0,250,250,0,,,,,,,,,,,,
28523,1560686919708,0,2.21,2.05,3.17,1.86,2.72,0.76,-0.06,0.61,0,0,-0,0.77,4838,17,67,33,58,502,0.0,535,458,60,121.0,0,1,297,304,56,0,0,0,250,250,0,,,,,,,,,,,,
28543,1560686919728,-0,2.21,2.05,3.17,1.86,2.72,0.85,0.05,0.62,1,-2,-1,0.85,4801,17,67,33,58,502,0.0,536,462,60,122.0,0,1,297,304,55,0,0,0,250,250,0,45.700359,4.909455,0.0,193.2,0,0.0,-1,0.0,0.0,0,0.0,0.4757
28563,1560686919748,3,2.21,2.05,3.18,1.85,2.72,0.8,0.04,0.63,2,-0,-2,0.8,4785,17,67,33,58,502,0.0,526,464,60,121.0,0,1,296,303,55,0,0,0,250,250,0,,,,,,,,,,,,
28583,1560686919768,4,2.22,2.05,3.18,1.84,2.72,0.74,-0.04,0.58,2,2,-3,0.74,4821,17,67,33,58,502,0.0,533,463,60,121.0,0,1,297,304,55,0,0,0,250,250,0,,,,,,,,,,,,
28603,1560686919788,-0,2.22,2.04,3.18,1.85,2.72,0.7,-0.1,0.59,1,2,-2,0.71,4761,17,67,33,58,502,0.0,530,462,60,119.0,0,1,296,303,55,0,0,0,250,250,0,,,,,,,,,,,,
28623,1560686919808,-0,2.22,2.04,3.18,1.85,2.72,0.76,-0.05,0.58,0,1,-1,0.76,4846,17,67,33,57,502,0.0,531,451,60,121.0,0,1,297,304,55,0,0,0,250,250,0,,,,,,,,,,,,
28643,1560686919828,1,2.22,2.04,3.18,1.85,2.73,0.85,0.03,0.57,1,-2,0,0.85,4778,17,67,33,57,502,0.0,543,460,60,121.0,0,1,297,298,55,0,0,0,250,250,0,45.700359,4.909455,0.0,193.2,0,0.0,-1,0.0,0.0,0,0.0,0.4774
28663,1560686919848,1,2.22,2.05,3.18,1.85,2.72,0.81,0.02,0.6,1,-1,-0,0.81,4794,17,67,33,58,503,0.0,529,461,60,121.0,0,1,296,303,55,0,0,0,250,250,0,,,,,,,,,,,,
28683,1560686919868,4,2.21,2.05,3.17,1.86,2.72,0.72,-0.03,0.55,2,1,-1,0.72,4750,17,67,33,58,503,0.0,527,471,60,120.0,0,1,296,303,55,0,0,0,250,250,0,,,,,,,,,,,,
28703,1560686919888,-1,2.22,2.05,3.17,1.84,2.73,0.66,-0.07,0.55,1,2,-0,0.67,4705,17,67,33,58,503,0.0,524,466,60,120.0,0,1,296,303,55,0,0,0,250,250,0,,,,,,,,,,,,
28723,1560686919910,2,2.22,2.05,3.17,1.86,2.72,0.7,-0.06,0.6,0,2,-1,0.7,4702,17,67,33,58,503,0.0,520,458,60,120.0,0,1,296,303,55,0,0,0,250,250,0,,,,,,,,,,,,
28743,1560686919930,-2,2.22,2.05,3.17,1.85,2.72,0.76,-0.02,0.62,0,1,-1,0.76,4661,17,67,33,58,502,0.0,525,457,60,121.0,0,1,296,303,53,0,0,0,250,250,0,45.700359,4.909455,0.0,193.2,0,0.0,-1,0.0,0.0,0,0.0,0.479
28763,1560686919950,0,2.21,2.05,3.18,1.85,2.72,0.87,0.07,0.65,0,-1,-1,0.88,4784,17,67,33,58,502,0.0,524,458,60,121.0,0,1,296,303,53,0,0,0,250,250,0,,,,,,,,,,,,
28783,1560686919970,2,2.22,2.05,3.18,1.85,2.73,0.88,0.08,0.68,1,-2,-2,0.88,4722,17,67,33,58,502,0.0,525,460,60,122.0,0,1,296,303,53,0,0,0,250,250,0,,,,,,,,,,,,
28803,1560686919990,4,2.22,2.04,3.18,1.85,2.72,0.8,-0.0,0.69,2,-0,-3,0.8,4752,17,67,33,58,502,0.0,528,470,60,121.0,0,1,296,303,53,0,0,0,250,250,0,,,,,,,,,,,,
28823,1560686920005,5,2.21,2.05,3.18,1.85,2.73,0.73,-0.07,0.64,2,1,-3,0.74,4752,17,67,33,58,502,0.0,530,462,60,120.0,0,1,296,303,53,0,0,0,250,250,0,,,,,,,,,,,,
28843,1560686920025,-2,2.22,2.05,3.18,1.84,2.73,0.67,-0.11,0.6,0,1,-3,0.68,4743,17,67,33,58,502,0.0,526,458,60,119.0,0,1,296,303,54,0,0,0,250,250,0,45.700356,4.909449,0.0,201.2,0,0.0,-1,0.0,0.0,0,0.0,0.4807
28863,1560686920045,-2,2.21,2.05,3.18,1.84,2.73,0.75,-0.07,0.6,-0,-0,-1,0.75,4779,17,67,33,58,502,0.0,530,460,60,121.0,0,1,296,303,54,0,0,0,250,250,0,,,,,,,,,,,,
28883,1560686920065,0,2.21,2.05,3.18,1.85,2.72,0.84,0.03,0.6,-0,-3,1,0.84,4714,17,67,33,58,502,0.0,521,455,60,121.0,0,1,296,303,54,0,0,0,250,250,0,,,,,,,,,,,,
28903,1560686920085,2,2.21,2.05,3.18,1.86,2.72,0.88,0.05,0.64,1,-3,2,0.88,4740,17,67,33,58,502,0.0,529,464,60,121.0,0,1,296,303,54,0,0,0,250,250,0,,,,,,,,,,,,
28923,1560686920110,4,2.21,2.05,3.18,1.85,2.71,0.86,0.01,0.65,1,-3,1,0.86,4698,17,67,33,58,502,0.0,524,465,60,121.0,0,1,296,303,54,0,0,0,250,250,0,,,,,,,,,,,,
28943,1560686920130,5,2.21,2.05,3.18,1.85,2.72,0.74,-0.06,0.6,1,-2,-0,0.75,4702,17,67,33,59,502,0.0,520,466,60,120.0,0,1,296,310,53,0,0,0,250,250,0,45.700356,4.909449,0.0,201.2,0,0.0,-1,0.0,0.0,0,0.0,0.4824
28963,1560686920150,-1,2.21,2.05,3.18,1.85,2.73,0.71,-0.09,0.53,0,0,-0,0.72,4711,17,67,33,58,502,0.0,525,462,60,119.0,0,1,296,303,53,0,0,0,250,250,0,,,,,,,,,,,,
28983,1560686920170,0,2.21,2.04,3.17,1.85,2.72,0.71,-0.09,0.58,-1,-0,0,0.71,4649,17,67,33,58,502,0.0,519,463,60,119.0,0,1,296,303,53,0,0,0,250,250,0,,,,,,,,,,,,
29003,1560686920190,0,2.2,2.05,3.18,1.85,2.72,0.77,-0.08,0.64,-1,-1,-0,0.78,4715,17,67,33,58,502,0.0,527,455,60,121.0,0,1,296,303,53,0,0,0,250,250,0,,,,,,,,,,,,
29023,1560686920210,0,2.21,2.05,3.18,1.85,2.73,0.87,0.01,0.67,-1,-2,-1,0.87,4725,17,67,33,58,502,0.0,525,453,60,121.0,0,1,296,303,53,0,0,0,250,250,0,,,,,,,,,,,,
29043,1560686920230,0,2.22,2.05,3.17,1.85,2.73,0.93,0.06,0.66,0,-1,-2,0.93,4736,17,67,33,58,503,0.0,520,461,60,122.0,0,1,296,303,54,0,0,0,250,250,0,45.700356,4.909449,0.0,201.2,0,0.0,-1,0.0,0.0,0,0.0,0.484
29063,1560686920250,2,2.2,2.05,3.18,1.85,2.73,0.88,-0.0,0.66,1,-1,-2,0.88,4713,17,67,33,58,503,0.0,523,466,60,121.0,0,1,296,303,54,0,0,0,250,250,0,,,,,,,,,,,,
29083,1560686920270,3,2.21,2.05,3.18,1.86,2.72,0.8,-0.09,0.6,2,3,-2,0.8,4721,17,67,33,58,502,0.0,524,466,60,120.0,0,1,296,310,54,0,0,0,250,250,0,,,,,,,,,,,,
29103,1560686920290,1,2.21,2.05,3.18,1.84,2.72,0.75,-0.13,0.59,1,5,-2,0.76,4669,17,67,33,59,502,0.0,523,461,60,119.0,0,1,296,307,54,0,0,0,250,250,0,,,,,,,,,,,,
29123,1560686920310,-2,2.21,2.05,3.18,1.85,2.72,0.71,-0.15,0.59,0,5,-1,0.72,4602,17,67,33,59,502,0.0,513,460,60,119.0,0,1,296,307,54,0,0,0,250,250,0,,,,,,,,,,,,
29143,1560686920330,-0,2.21,2.04,3.18,1.85,2.72,0.73,-0.14,0.63,-0,5,-1,0.74,4702,17,67,33,59,503,0.0,507,457,60,120.0,0,1,296,308,53,0,0,0,250,250,0,45.700356,4.909449,0.0,201.2,0,0.0,-1,0.0,0.0,0,0.0,0.4857
29163,1560686920350,-0,2.2,2.05,3.18,1.85,2.72,0.78,-0.1,0.65,-1,2,-1,0.78,4636,17,67,33,58,503,0.0,520,452,60,120.0,0,1,296,301,53,0,0,0,250,250,0,,,,,,,,,,,,
29183,1560686920370,0,2.2,2.05,3.18,1.85,2.71,0.85,-0.03,0.65,-0,-0,-1,0.85,4722,17,67,33,58,503,0.0,517,456,60,120.0,0,1,296,301,53,0,0,0,250,250,0,,,,,,,,,,,,
29203,1560686920390,1,2.21,2.05,3.18,1.84,2.72,0.91,0.05,0.66,0,-2,-2,0.91,4749,17,67,33,58,503,0.0,517,463,60,122.0,0,1,296,301,53,0,0,0,250,250,0,,,,,,,,,,,,
29223,1560686920410,4,2.21,2.05,3.18,1.84,2.73,0.84,0.04,0.64,1,-1,-3,0.84,4706,17,67,33,58,503,0.0,521,463,60,121.0,0,1,296,301,53,0,0,0,250,250,0,,,,,,,,,,,,
29243,1560686920430,5,2.2,2.05,3.18,1.85,2.72,0.75,-0.05,0.58,1,0,-4,0.75,4813,17,67,33,58,503,0.0,521,470,60,120.0,0,1,297,303,54,0,0,0,250,250,0,45.700356,4.909449,0.0,201.2,0,0.0,-1,0.0,0.0,0,0.0,0.4874
29263,1560686920450,0,2.21,2.05,3.18,1.85,2.72,0.68,-0.11,0.53,-0,1,-2,0.69,4764,17,67,33,58,502,0.0,538,468,60,120.0,0,1,296,301,54,0,0,0,250,250,0,,,,,,,,,,,,
29283,1560686920470,-2,2.22,2.05,3.17,1.85,2.72,0.73,-0.11,0.53,-1,-1,-0,0.74,4812,17,67,33,58,503,0.0,533,453,60,121.0,0,1,297,303,54,0,0,0,250,250,0,,,,,,,,,,,,
29303,1560686920490,-0,2.22,2.05,3.18,1.86,2.72,0.84,-0.02,0.55,-0,-4,2,0.84,4784,17,67,33,58,503,0.0,525,461,60,122.0,0,1,296,301,54,0,0,0,250,250,0,,,,,,,,,,,,
29323,1560686920510,2,2.22,2.05,3.18,1.85,2.72,0.84,-0.01,0.55,1,-3,2,0.84,4767,17,67,33,59,503,0.0,525,466,60,122.0,0,1,296,308,54,0,0,0,250,250,0,,,,,,,,,,,,
29343,1560686920530,4,2.22,2.05,3.18,1.85,2.72,0.76,-0.06,0.56,1,-2,2,0.76,4786,17,67,33,59,502,0.0,525,470,60,120.0,0,1,296,306,56,0,0,0,250,250,0,45.700356,4.909449,0.0,201.2,0,0.0,-1,0.0,0.0,0,0.0,0.489
29363,1560686920550,1,2.21,2.05,3.19,1.84,2.73,0.7,-0.12,0.57,0,-0,2,0.71,4805,17,66,33,58,502,0.0,525,462,60,119.0,0,1,297,311,56,0,0,0,250,250,0,,,,,,,,,,,,
29383,1560686920570,-0,2.2,2.05,3.18,1.85,2.72,0.75,-0.1,0.6,-0,-2,1,0.75,4868,17,67,33,58,502,0.0,541,453,60,121.0,0,1,297,301,56,0,0,0,250,250,0,,,,,,,,,,,,
29403,1560686920590,-0,2.22,2.05,3.18,1.86,2.72,0.85,0.0,0.62,0,-3,1,0.85,4861,17,66,33,58,502,0.0,530,465,60,122.0,0,1,297,304,56,0,0,0,250,250,0,,,,,,,,,,,,
29423,1560686920609,3,2.22,2.05,3.18,1.85,2.72,0.8,-0.0,0.64,1,-0,-1,0.8,4901,17,66,33,58,502,0.0,542,461,60,122.0,0,1,297,306,56,0,0,0,250,250,0,,,,,,,,,,,,
29443,1560686920629,0,2.21,2.05,3.19,1.85,2.73,0.75,-0.11,0.58,0,0,-2,0.76,4890,17,66,33,58,502,0.0,541,463,60,119.0,0,1,297,304,56,0,0,0,250,250,0,45.700356,4.909449,0.0,201.2,0,0.0,-1,0.0,0.0,0,0.0,0.4907
29463,1560686920649,-1,2.22,2.04,3.18,1.85,2.72,0.77,-0.09,0.6,-1,-2,-0,0.77,4870,17,66,33,58,502,0.0,542,453,60,121.0,0,1,297,303,56,0,0,0,250,250,0,,,,,,,,,,,,
29483,1560686920669,2,2.21,2.05,3.18,1.84,2.73,0.88,-0.01,0.6,0,-2,0,0.88,4909,17,66,33,58,503,0.0,542,461,60,122.0,0,1,297,304,56,0,0,0,250,250,0,,,,,,,,,,,,
29503,1560686920689,4,2.22,2.05,3.17,1.86,2.73,0.85,-0.01,0.57,1,-1,-0,0.85,4834,17,66,33,58,502,0.0,542,467,60,122.0,0,1,297,303,56,0,0,0,250,250,0,,,,,,,,,,,,
29523,1560686920709,1,2.21,2.05,3.17,1.86,2.72,0.74,-0.14,0.56,-0,0,-1,0.76,4889,17,66,33,58,502,0.0,534,460,60,119.0,0,1,297,303,56,0,0,0,250,250,0,,,,,,,,,,,,
29543,1560686920729,-0,2.21,2.05,3.19,1.84,2.73,0.79,-0.11,0.53,-1,-0,1,0.8,4871,17,66,33,58,503,0.0,545,456,60,122.0,0,1,297,303,56,0,0,0,250,250,0,45.700356,4.909449,0.0,201.2,0,0.0,-1,0.0,0.0,0,0.0,0.4924
29563,1560686920749,2,2.21,2.05,3.18,1.85,2.72,0.9,-0.02,0.58,-0,-3,2,0.9,4836,17,66,33,58,503,0.0,538,460,60,122.0,0,1,297,303,56,0,0,0,250,250,0,,,,,,,,,,,,
29583,1560686920769,5,2.2,2.04,3.17,1.85,2.72,0.87,-0.02,0.65,1,-1,1,0.87,4881,17,66,33,59,502,0.0,539,471,60,121.0,0,1,296,307,56,0,0,0,250,250,0,,,,,,,,,,,,
29603,1560686920789,0,2.2,2.05,3.18,1.84,2.72,0.83,-0.08,0.62,0,1,-1,0.84,4789,17,66,32,59,502,0.0,537,468,60,120.0,0,1,296,306,56,0,0,0,250,250,0,,,,,,,,,,,,
29623,1560686920810,-2,2.22,2.05,3.17,1.85,2.72,0.76,-0.12,0.57,-1,-1,-1,0.77,4758,17,66,32,59,503,0.0,531,458,60,120.0,0,1,296,306,56,0,0,0,250,250,0,,,,,,,,,,,,
29643,1560686920830,0,2.21,2.04,3.18,1.86,2.72,0.85,-0.05,0.58,-1,-1,-0,0.85,4755,17,66,32,59,503,0.0,527,460,60,122.0,0,1,296,306,55,0,0,0,250,250,0,45.700356,4.909449,0.0,201.2,0,0.0,-1,0.0,0.0,0,0.0,0.494
29663,1560686920850,-1,2.21,2.05,3.18,1.84,2.73,0.96,0.04,0.59,-0,-3,1,0.96,4795,17,66,32,59,503,0.0,533,456,60,122.0,0,1,296,300,55,0,0,0,250,250,0,,,,,,,,,,,,
29683,1560686920870,4,2.2,2.05,3.18,1.85,2.73,0.92,0.15,0.61,1,-2,0,0.93,4739,17,66,32,59,503,0.0,522,470,60,122.0,0,1,296,306,55,0,0,0,250,250,0,,,,,,,,,,,,
29703,1560686920890,3,2.22,2.05,3.17,1.85,2.73,0.85,0.09,0.61,1,-0,-1,0.86,4770,17,66,32,59,503,0.0,524,467,60,121.0,0,1,296,304,55,0,0,0,250,250,0,,,,,,,,,,,,
29723,1560686920909,-2,2.21,2.05,3.18,1.85,2.72,0.76,-0.01,0.54,0,0,-1,0.76,4789,17,66,32,59,502,0.0,528,461,60,119.0,0,1,296,304,55,0,0,0,250,250,0,,,,,,,,,,,,
29743,1560686920929,-2,2.22,2.05,3.18,1.86,2.72,0.8,-0.03,0.52,-1,-0,1,0.81,4766,17,66,32,58,502,0.0,523,456,60,121.0,0,1,296,304,53,0,0,0,250,250,0,45.700356,4.909449,0.0,201.2,0,0.0,-1,0.0,0.0,0,0.0,0.4957
29763,1560686920949,0,2.21,2.05,3.17,1.86,2.72,0.86,0.04,0.56,-1,-4,2,0.86,4794,17,66,32,58,502,0.0,536,452,60,121.0,0,1,296,298,53,0,0,0,250,250,0,,,,,,,,,,,,
29783,1560686920969,1,2.21,2.05,3.17,1.85,2.72,0.9,0.08,0.61,1,-3,2,0.9,4786,17,66,32,59,502,0.0,527,463,60,122.0,0,1,296,298,53,0,0,0,250,250,0,,,,,,,,,,,,
29803,1560686920989,5,2.22,2.05,3.17,1.86,2.72,0.87,0.01,0.61,1,-1,0,0.87,4797,17,66,32,59,502,0.0,528,465,60,120.0,0,1,296,304,53,0,0,0,250,250,0,,,,,,,,,,,,
29823,1560686921003,-2,2.21,2.05,3.17,1.85,2.72,0.75,-0.06,0.58,-0,-0,-1,0.75,4748,17,66,32,59,502,0.0,534,465,60,119.0,0,1,296,303,53,0,0,0,250,250,0,,,,,,,,,,,,
29843,1560686921023,-0,2.2,2.04,3.18,1.85,2.72,0.76,-0.09,0.53,-1,-0,0,0.76,4820,17,66,32,59,502,0.0,526,458,60,121.0,0,1,296,304,55,0,0,0,250,250,0,45.700356,4.909449,0.0,201.2,0,0.0,-1,0.0,0.0,0,0.0,0.4974
29863,1560686921043,-0,2.21,2.04,3.18,1.85,2.72,0.84,-0.03,0.6,-1,-4,1,0.84,4778,17,66,32,59,502,0.0,531,459,60,122.0,0,1,296,303,55,0,0,0,250,250,0,,,,,,,,,,,,
29883,1560686921063,0,2.22,2.05,3.17,1.85,2.72,0.91,0.04,0.64,0,-3,0,0.91,4801,17,66,32,59,502,0.0,533,468,60,122.0,0,1,296,304,55,0,0,0,250,250,0,,,,,,,,,,,,
29903,1560686921083,5,2.21,2.05,3.19,1.84,2.72,0.9,0.02,0.66,1,-1,-1,0.9,4770,17,66,32,59,502,0.0,525,468,60,122.0,0,1,296,301,55,0,0,0,250,250,0,,,,,,,,,,,,
29923,1560686921109,0,2.2,2.05,3.18,1.85,2.71,0.77,-0.07,0.63,0,1,-3,0.77,4802,17,66,32,59,502,0.0,534,463,60,120.0,0,1,296,301,55,0,0,0,250,250,0,,,,,,,,,,,,
29943,1560686921129,-1,2.21,2.05,3.18,1.86,2.72,0.76,-0.13,0.58,-1,2,-2,0.77,4836,17,66,32,59,503,0.0,533,457,60,120.0,0,1,296,302,55,0,0,0,250,250,0,45.700356,4.909449,0.0,201.2,0,0.0,-1,0.0,0.0,0,0.0,0.499
29963,1560686921149,-2,2.22,2.05,3.17,1.85,2.72,0.82,-0.09,0.61,-1,-1,1,0.83,4766,17,66,32,59,503,0.0,525,455,60,122.0,0,1,296,295,55,0,0,0,250,250,0,,,,,,,,,,,,
29983,1560686921169,3,2.21,2.05,3.18,1.85,2.72,0.9,-0.02,0.64,-0,-2,1,0.9,4848,17,66,32,59,503,0.0,534,461,60,122.0,0,1,296,302,55,0,0,0,250,250,0,,,,,,,,,,,,
30003,1560686921189,6,2.22,2.05,3.18,1.85,2.72,0.88,-0.05,0.64,0,-1,0,0.88,4802,17,66,32,59,502,0.0,525,467,60,122.0,0,1,296,302,55,0,0,0,250,250,0,,,,,,,,,,,,
30023,1560686921209,-0,2.21,2.05,3.18,1.86,2.73,0.77,-0.13,0.63,-0,0,-1,0.78,4780,17,66,32,59,502,0.0,533,464,60,119.0,0,1,296,299,55,0,0,0,250,250,0,,,,,,,,,,,,
30043,1560686921229,-0,2.2,2.05,3.18,1.85,2.72,0.77,-0.16,0.59,-1,-0,-0,0.79,4849,17,66,32,59,502,0.0,535,458,60,121.0,0,1,296,300,54,0,0,0,250,250,0,45.700356,4.909449,0.0,201.2,0,0.0,-1,0.0,0.0,0,0.0,0.5007
30063,1560686921249,1,2.21,2.05,3.18,1.86,2.72,0.87,-0.07,0.63,-1,-4,0,0.87,4805,17,66,32,58,502,0.0,526,449,60,122.0,0,1,297,300,54,0,0,0,250,250,0,,,,,,,,,,,,
30083,1560686921269,4,2.21,2.04,3.18,1.85,2.73,0.93,-0.0,0.67,0,-3,-1,0.93,4847,17,66,32,59,502,0.0,533,461,60,122.0,0,1,296,300,54,0,0,0,250,250,0,,,,,,,,,,,,
30103,1560686921289,4,2.22,2.05,3.18,1.85,2.73,0.87,-0.04,0.7,0,-1,-3,0.88,4849,17,66,32,59,502,0.0,534,464,60,120.0,0,1,296,300,54,0,0,0,250,250,0,,,,,,,,,,,,
30123,1560686921309,-0,2.21,2.04,3.18,1.86,2.72,0.78,-0.14,0.64,-1,-1,-3,0.79,4857,17,66,32,59,502,0.0,537,456,60,120.0,0,1,296,300,54,0,0,0,250,250,0,,,,,,,,,,,,
30143,1560686921329,-0,2.21,2.05,3.18,1.86,2.73,0.85,-0.11,0.6,-1,-1,-1,0.85,4843,17,66,32,58,502,0.0,538,456,60,121.0,0,1,297,292,55,0,0,0,250,250,0,45.700356,4.909449,0.0,201.2,0,0.0,-1,0.0,0.0,0,0.0,0.5024
30163,1560686921349,3,2.21,2.04,3.18,1.85,2.73,0.95,-0.03,0.61,-0,-4,0,0.95,4856,17,66,32,59,502,0.0,532,455,60,122.0,0,1,296,298,55,0,0,0,250,250,0,,,,,,,,,,,,
30183,1560686921369,6,2.21,2.04,3.17,1.85,2.72,0.89,-0.05,0.67,0,-1,0,0.9,4871,17,66,32,59,502,0.0,537,472,60,120.0,0,1,296,298,55,0,0,0,250,250,0,,,,,,,,,,,,
30203,1560686921389,0,2.21,2.04,3.18,1.85,2.72,0.85,-0.12,0.67,-0,0,-0,0.86,4849,17,66,32,59,502,0.0,541,460,60,119.0,0,1,296,297,55,0,0,0,250,250,0,,,,,,,,,,,,
30223,1560686921409,0,2.21,2.04,3.17,1.85,2.72,0.82,-0.11,0.64,-1,-1,-0,0.82,4836,17,66,32,59,502,0.0,535,461,60,122.0,0,1,296,297,55,0,0,0,250,250,0,,,,,,,,,,,,
30243,1560686921429,0,2.22,2.05,3.17,1.86,2.73,0.93,0.01,0.59,0,-2,1,0.93,4834,17,66,32,59,502,0.0,533,461,60,121.0,0,1,296,297,54,0,0,0,250,250,0,45.700356,4.909449,0.0,201.2,0,0.0,-1,0.0,0.0,0,0.0,0.504
30263,1560686921449,5,2.21,2.04,3.18,1.85,2.72,0.84,-0.05,0.59,1,-1,-0,0.84,4820,17,66,32,59,502,0.0,535,470,60,121.0,0,1,296,297,54,0,0,0,250,250,0,,,,,,,,,,,,
30283,1560686921469,-1,2.21,2.05,3.17,1.86,2.72,0.75,-0.12,0.59,1,1,-1,0.76,4842,17,66,32,59,502,0.0,532,463,60,119.0,0,1,296,297,54,0,0,0,250,250,0,,,,,,,,,,,,
30303,1560686921489,-2,2.22,2.05,3.17,1.85,2.72,0.77,-0.12,0.64,-0,1,-1,0.78,4843,17,66,32,59,503,0.0,537,453,60,121.0,0,1,296,297,54,0,0,0,250,250,0,,,,,,,,,,,,
30323,1560686921509,-1,2.21,2.04,3.19,1.85,2.72,0.87,-0.03,0.62,-0,-3,-1,0.87,4822,17,66,32,59,503,0.0,537,456,60,121.0,0,1,296,295,54,0,0,0,250,250,0,,,,,,,,,,,,
30343,1560686921529,3,2.21,2.05,3.17,1.86,2.72,0.86,-0.01,0.63,1,-2,-1,0.86,4837,17,66,32,59,503,0.0,530,460,60,122.0,0,1,296,295,53,0,0,0,250,250,0,45.700356,4.909449,0.0,201.2,0,0.0,-1,0.0,0.0,0,0.0,0.5057
30363,1560686921549,-2,2.22,2.05,3.17,1.85,2.72,0.77,-0.09,0.59,1,1,-2,0.77,4894,17,66,32,59,503,0.0,538,463,60,120.0,0,1,296,295,53,0,0,0,250,250,0,,,,,,,,,,,,
30383,1560686921569,-3,2.21,2.04,3.17,1.83,2.72,0.78,-0.14,0.63,0,2,-0,0.79,4852,17,66,32,59,503,0.0,542,458,60,120.0,0,1,296,295,53,0,0,0,250,250,0,,,,,,,,,,,,
30403,1560686921589,0,2.2,2.05,3.18,1.86,2.72,0.87,-0.05,0.64,0,0,1,0.88,4893,17,66,32,59,503,0.0,535,451,60,121.0,0,1,296,295,53,0,0,0,250,250,0,,,,,,,,,,,,
30423,1560686921610,4,2.21,2.05,3.18,1.84,2.73,0.88,-0.01,0.64,1,-1,0,0.88,4893,17,66,32,59,502,0.0,543,468,60,122.0,0,1,296,295,53,0,0,0,250,250,0,,,,,,,,,,,,
30443,1560686921630,1,2.21,2.05,3.18,1.84,2.72,0.77,-0.13,0.63,1,1,-1,0.78,4860,17,66,32,59,502,0.0,537,463,60,120.0,0,1,296,295,53,0,0,0,250,250,0,45.700356,4.909449,0.0,201.2,0,0.0,-1,0.0,0.0,0,0.0,0.5074
30463,1560686921650,0,2.21,2.05,3.17,1.86,2.72,0.79,-0.13,0.58,-0,1,-1,0.8,4927,17,66,32,59,502,0.0,539,463,60,120.0,0,1,296,293,53,0,0,0,250,250,0,,,,,,,,,,,,
30483,1560686921670,-1,2.21,2.05,3.18,1.86,2.72,0.88,-0.03,0.61,-0,-2,1,0.88,4844,17,66,32,59,502,0.0,538,452,60,122.0,0,1,296,293,53,0,0,0,250,250,0,,,,,,,,,,,,
30503,1560686921690,2,2.22,2.05,3.17,1.85,2.72,0.86,-0.03,0.69,1,-2,-0,0.86,4922,17,66,32,59,502,0.0,532,471,60,122.0,0,1,296,293,53,0,0,0,250,250,0,,,,,,,,,,,,
30523,1560686921708,-0,2.21,2.05,3.18,1.85,2.72,0.8,-0.1,0.66,1,0,-2,0.81,4880,17,66,32,59,502,0.0,546,463,60,120.0,0,1,296,291,53,0,0,0,250,250,0,,,,,,,,,,,,
30543,1560686921728,-1,2.21,2.05,3.18,1.86,2.72,0.78,-0.09,0.61,-0,-0,-2,0.79,4900,17,66,32,59,502,0.0,541,460,60,121.0,0,1,296,291,52,0,0,0,250,250,0,45.700356,4.909449,0.0,201.2,0,0.0,-1,0.0,0.0,0,0.0,0.509
30563,1560686921748,-0,2.22,2.05,3.18,1.85,2.72,0.9,0.02,0.54,0,-2,0,0.9,4921,17,66,32,58,502,0.0,539,458,60,122.0,0,1,297,291,52,0,0,0,250,250,0,,,,,,,,,,,,
30583,1560686921768,4,2.21,2.04,3.18,1.85,2.72,0.83,-0.01,0.6,1,-2,-0,0.83,4866,17,66,32,59,502,0.0,538,468,60,121.0,0,1,296,291,52,0,0,0,250,250,0,,,,,,,,,,,,
30603,1560686921788,0,2.22,2.05,3.17,1.86,2.72,0.72,-0.03,0.58,1,1,0,0.72,4876,17,66,32,59,502,0.0,541,468,60,119.0,0,1,296,291,52,0,0,0,250,250,0,,,,,,,,,,,,
30623,1560686921808,0,2.2,2.06,3.18,1.85,2.73,0.73,0.02,0.58,-0,1,0,0.73,4922,17,66,32,59,502,0.0,539,458,60,121.0,0,1,296,291,52,0,0,0,250,250,0,,,,,,,,,,,,
30643,1560686921828,2,2.21,2.05,3.18,1.86,2.72,0.83,0.1,0.58,1,-2,1,0.84,4907,17,66,32,59,502,0.0,547,460,60,121.0,0,1,296,290,53,0,0,0,250,250,0,45.700356,4.909449,0.0,201.2,0,0.0,-1,0.0,0.0,0,0.0,0.5107
30663,1560686921848,5,2.22,2.05,3.18,1.85,2.73,0.77,0.04,0.62,1,-0,-0,0.77,4910,17,66,32,59,502,0.0,543,463,60,120.0,0,1,296,290,53,0,0,0,250,250,0,,,,,,,,,,,,
30683,1560686921868,-1,2.22,2.05,3.18,1.85,2.72,0.73,-0.06,0.56,0,1,-1,0.73,4926,17,66,32,59,502,0.0,540,473,60,120.0,0,1,296,290,53,0,0,0,250,250,0,,,,,,,,,,,,
30703,1560686921888,-2,2.22,2.05,3.17,1.86,2.72,0.81,0.01,0.6,-1,-0,1,0.81,4919,17,66,32,59,503,0.0,546,453,60,121.0,0,1,296,290,53,0,0,0,250,250,0,,,,,,,,,,,,
30723,1560686921910,1,2.22,2.05,3.18,1.84,2.73,0.85,0.02,0.68,1,-1,0,0.85,4903,17,66,32,59,502,0.0,543,467,60,122.0,0,1,296,290,53,0,0,0,250,250,0,,,,,,,,,,,,
30743,1560686921930,6,2.22,2.04,3.18,1.85,2.73,0.77,-0.02,0.65,1,0,-1,0.77,4853,17,66,32,59,502,0.0,539,465,60,120.0,0,1,296,290,53,0,0,0,250,250,0,45.700356,4.909449,0.0,201.2,0,0.0,-1,0.0,0.0,0,0.0,0.5124
30763,1560686921950,-2,2.22,2.05,3.17,1.85,2.72,0.71,-0.07,0.6,-0,1,-2,0.71,4870,17,66,32,59,502,0.0,548,464,60,119.0,0,1,296,288,53,0,0,0,250,250,0,,,,,,,,,,,,
30783,1560686921970,0,2.22,2.04,3.18,1.85,2.73,0.81,0.04,0.55,-0,-0,-0,0.81,4884,17,66,32,59,503,0.0,536,461,60,121.0,0,1,296,288,53,0,0,0,250,250,0,,,,,,,,,,,,
30803,1560686921990,4,2.22,2.05,3.18,1.85,2.72,0.84,0.0,0.64,1,-2,-0,0.84,4894,17,66,32,59,502,0.0,539,461,60,121.0,0,1,296,286,53,0,0,0,250,250,0,,,,,,,,,,,,
30823,1560686922002,0,2.21,2.05,3.18,1.86,2.73,0.76,-0.06,0.68,1,0,-1,0.77,4868,17,66,32,59,502,0.0,545,464,60,120.0,0,1,296,286,53,0,0,0,250,250,0,,,,,,,,,,,,
30843,1560686922022,-2,2.22,2.05,3.17,1.85,2.73,0.77,-0.11,0.67,-0,-0,-1,0.78,4947,17,66,32,59,502,0.0,535,453,60,121.0,0,1,296,286,53,0,0,0,250,250,0,45.700356,4.909449,0.0,201.2,0,0.0,-1,0.0,0.0,0,0.0,0.514
30863,1560686922042,1,2.21,2.04,3.18,1.85,2.73,0.86,0.01,0.62,-0,-2,0,0.86,4905,17,66,32,58,503,0.0,539,464,60,122.0,0,1,297,281,53,0,0,0,250,250,0,,,,,,,,,,,,
30883,1560686922062,5,2.21,2.05,3.17,1.85,2.72,0.81,0.01,0.63,1,-1,0,0.81,4981,17,66,32,59,502,0.0,542,462,60,122.0,0,1,296,281,53,0,0,0,250,250,0,,,,,,,,,,,,
30903,1560686922082,0,2.21,2.05,3.18,1.84,2.73,0.78,-0.1,0.58,0,-0,-0,0.78,4992,17,66,32,58,502,0.0,549,463,60,120.0,0,1,297,280,53,0,0,0,250,250,0,,,,,,,,,,,,
30923,1560686922108,-1,2.22,2.05,3.18,1.84,2.73,0.86,-0.03,0.6,-1,-2,1,0.86,4965,17,66,32,58,503,0.0,548,455,60,122.0,0,1,297,280,53,0,0,0,250,250,0,,,,,,,,,,,,
30943,1560686922128,1,2.21,2.05,3.18,1.84,2.73,0.87,-0.06,0.66,1,-2,-0,0.87,5009,17,66,32,58,502,0.0,551,470,60,122.0,0,1,297,281,53,0,0,0,250,250,0,45.700356,4.909449,0.0,201.2,0,0.0,-1,0.0,0.0,0,0.0,0.5157
30963,1560686922148,0,2.21,2.05,3.18,1.84,2.73,0.79,-0.11,0.62,-0,-1,-1,0.8,5012,17,66,32,58,502,0.0,548,465,60,120.0,0,1,298,279,53,0,0,0,250,250,0,,,,,,,,,,,,
30983,1560686922168,-0,2.21,2.05,3.17,1.85,2.72,0.84,-0.02,0.53,-0,-2,-0,0.84,5012,17,66,32,58,502,0.0,550,462,60,122.0,0,1,298,279,53,0,0,0,250,250,0,,,,,,,,,,,,
31003,1560686922188,2,2.22,2.05,3.18,1.84,2.73,0.83,-0.01,0.51,1,-1,-0,0.83,5010,17,66,32,58,502,0.0,552,465,60,121.0,0,1,297,279,53,0,0,0,250,250,0,,,,,,,,,,,,
31023,1560686922210,-0,2.22,2.04,3.18,1.85,2.72,0.76,-0.13,0.52,-0,-1,0,0.77,5013,17,66,32,58,502,0.0,549,470,60,120.0,0,1,298,278,53,0,0,0,250,250,0,,,,,,,,,,,,
31043,1560686922230,1,2.22,2.04,3.18,1.85,2.73,0.85,-0.03,0.56,-1,-2,2,0.85,5029,17,66,32,58,502,0.0,556,455,60,122.0,0,1,299,277,53,0,0,0,250,250,0,45.700356,4.909449,0.0,201.2,0,0.0,-1,0.0,0.0,0,0.0,0.5174
31063,1560686922250,6,2.21,2.04,3.18,1.85,2.72,0.85,-0.08,0.6,1,-0,-0,0.85,4996,17,66,32,58,502,0.0,555,466,60,122.0,0,1,297,276,53,0,0,0,250,250,0,,,,,,,,,,,,
31083,1560686922270,-1,2.21,2.05,3.18,1.86,2.72,0.78,-0.13,0.61,-0,-1,-1,0.79,5070,17,66,32,58,502,0.0,554,457,60,120.0,0,1,303,277,53,0,0,0,250,250,0,,,,,,,,,,,,
31103,1560686922290,2,2.22,2.04,3.18,1.85,2.72,0.86,0.01,0.51,0,-1,-0,0.86,5048,17,66,32,58,502,0.0,560,461,60,122.0,0,1,301,276,53,0,0,0,250,250,0,,,,,,,,,,,,
31123,1560686922310,-0,2.21,2.05,3.18,1.85,2.72,0.77,-0.04,0.55,1,0,-1,0.77,5075,17,66,32,58,502,0.0,553,462,60,120.0,0,1,303,276,53,0,0,0,250,250,0,,,,,,,,,,,,
31143,1560686922330,1,2.21,2.05,3.17,1.86,2.72,0.79,-0.08,0.55,-0,-1,0,0.79,5082,17,66,32,57,502,0.0,556,458,60,121.0,0,1,304,271,52,0,0,0,250,250,0,45.700356,4.909449,0.0,201.2,0,0.0,-1,0.0,0.0,0,0.0,0.519
31163,1560686922350,3,2.22,2.05,3.18,1.85,2.72,0.85,-0.03,0.62,1,-2,1,0.85,5085,17,66,32,57,502,0.0,565,463,60,121.0,0,1,305,271,52,0,0,0,250,250,0,,,,,,,,,,,,
31183,1560686922370,-2,2.21,2.05,3.17,1.86,2.73,0.78,-0.09,0.59,-0,-0,0,0.78,5118,17,66,32,57,502,0.0,565,466,60,120.0,0,1,308,269,52,0,0,0,250,250,0,,,,,,,,,,,,
31203,1560686922390,3,2.21,2.05,3.18,1.86,2.73,0.85,0.03,0.55,0,-2,0,0.85,5135,17,66,32,57,502,0.0,563,451,60,122.0,0,1,309,269,52,0,0,0,250,250,0,,,,,,,,,,,,
31223,1560686922410,0,2.2,2.06,3.18,1.85,2.73,0.8,-0.02,0.58,0,-1,-1,0.8,5117,17,66,32,57,502,0.0,563,464,60,120.0,0,1,307,269,52,0,0,0,250,250,0,,,,,,,,,,,,
31243,1560686922430,0,2.22,2.04,3.18,1.85,2.73,0.83,-0.04,0.55,-1,-1,-1,0.84,5141,17,66,32,56,502,0.0,565,458,60,122.0,0,1,310,263,52,0,0,0,250,250,0,45.700356,4.909449,0.0,201.2,0,0.0,-1,0.0,0.0,0,0.0,0.5207
31263,1560686922450,4,2.22,2.05,3.18,1.84,2.74,0.84,-0.01,0.58,1,-1,0,0.84,5163,17,66,32,57,502,0.0,561,463,60,121.0,0,1,311,263,52,0,0,0,250,250,0,,,,,,,,,,,,
31283,1560686922470,-0,2.22,2.04,3.18,1.85,2.73,0.79,-0.09,0.58,-1,-1,0,0.8,5203,17,66,32,56,502,0.0,570,462,60,120.0,0,1,315,264,52,0,0,0,250,250,0,,,,,,,,,,,,
31303,1560686922490,2,2.22,2.04,3.17,1.85,2.71,0.86,-0.06,0.62,1,-2,0,0.86,5159,17,66,32,56,502,0.0,570,458,60,121.0,0,1,311,263,52,0,0,0,250,250,0,,,,,,,,,,,,
31323,1560686922510,-0,2.21,2.05,3.18,1.85,2.73,0.8,-0.12,0.59,-1,-0,-0,0.81,5176,17,66,32,56,502,0.0,567,461,60,120.0,0,1,313,263,52,0,0,0,250,250,0,,,,,,,,,,,,
31343,1560686922530,4,2.23,2.05,3.18,1.85,2.73,0.86,-0.01,0.5,0,-2,-0,0.86,5198,17,66,32,56,502,0.0,568,461,60,122.0,0,1,315,262,51,0,0,0,250,250,0,45.700356,4.909449,0.0,201.2,0,0.0,-1,0.0,0.0,0,0.0,0.5224
31363,1560686922550,-2,2.23,2.05,3.18,1.85,2.72,0.79,-0.07,0.48,-0,0,-1,0.79,5219,17,66,32,56,502,0.0,567,461,60,119.0,0,1,316,263,51,0,0,0,250,250,0,,,,,,,,,,,,
31383,1560686922570,4,2.22,2.04,3.18,1.85,2.73,0.88,0.04,0.44,1,-2,0,0.88,5237,17,66,32,56,502,0.0,563,463,60,122.0,0,1,318,261,51,0,0,0,250,250,0,,,,,,,,,,,,
31403,1560686922590,-1,2.23,2.05,3.18,1.85,2.73,0.74,-0.04,0.51,-0,0,-0,0.74,5195,17,66,32,56,502,0.0,580,463,60,120.0,0,1,314,260,51,0,0,0,250,250,0,,,,,,,,,,,,
31423,1560686922609,1,2.23,2.05,3.18,1.85,2.72,0.87,0.05,0.49,0,-3,2,0.87,5228,17,66,32,56,502,0.0,576,462,60,122.0,0,1,317,258,51,0,0,0,250,250,0,,,,,,,,,,,,
31443,1560686922629,-2,2.23,2.05,3.18,1.85,2.73,0.76,-0.02,0.61,0,-0,0,0.76,5189,17,66,32,56,502,0.0,571,462,60,119.0,0,1,315,260,51,0,0,0,250,250,0,45.700356,4.909449,0.0,201.2,0,0.0,-1,0.0,0.0,0,0.0,0.524
31463,1560686922649,1,2.22,2.05,3.18,1.85,2.73,0.86,0.03,0.61,-0,-2,1,0.86,5215,17,66,32,55,502,0.0,570,456,60,121.0,0,1,316,258,51,0,0,0,250,250,0,,,,,,,,,,,,
31483,1560686922669,-1,2.22,2.05,3.17,1.86,2.73,0.78,0.0,0.64,0,-0,-1,0.78,5193,17,66,32,56,502,0.0,581,473,60,120.0,0,1,314,261,51,0,0,0,250,250,0,,,,,,,,,,,,
31503,1560686922689,1,2.22,2.04,3.18,1.85,2.72,0.83,-0.0,0.61,-0,-2,-1,0.83,5218,17,66,32,55,502,0.0,568,452,60,120.0,0,1,316,258,51,0,0,0,250,250,0,,,,,,,,,,,,
31523,1560686922705,1,2.21,2.05,3.18,1.85,2.72,0.81,-0.03,0.62,1,-1,-1,0.81,5196,17,66,32,55,502,0.0,575,466,60,120.0,0,1,314,257,51,0,0,0,250,250,0,,,,,,,,,,,,
31543,1560686922725,1,2.22,2.04,3.18,1.85,2.73,0.84,-0.06,0.57,-0,-1,-0,0.84,5211,17,66,32,55,502,0.0,578,456,60,121.0,0,1,316,258,50,0,0,0,250,250,0,45.700356,4.909449,0.0,201.2,0,0.0,-1,0.0,0.0,0,0.0,0.5257
31563,1560686922745,0,2.22,2.05,3.17,1.85,2.73,0.8,-0.08,0.64,1,-1,-0,0.81,5256,17,66,32,55,502,0.0,576,463,60,120.0,0,1,320,258,50,0,0,0,250,250,0,,,,,,,,,,,,
31583,1560686922765,1,2.21,2.05,3.18,1.85,2.72,0.84,-0.12,0.67,-0,-1,0,0.85,5233,17,66,32,55,502,0.0,575,462,60,121.0,0,1,318,258,50,0,0,0,250,250,0,,,,,,,,,,,,
31603,1560686922785,-0,2.23,2.05,3.18,1.84,2.74,0.83,-0.12,0.74,1,-1,-1,0.84,5275,17,66,32,55,502,0.0,581,462,60,120.0,0,1,323,258,50,0,0,0,250,250,0,,,,,,,,,,,,
31623,1560686922809,-2,2.23,2.05,3.17,1.85,2.72,0.86,-0.16,0.73,-0,-2,-0,0.87,5217,17,66,32,55,502,0.0,581,454,60,122.0,0,1,316,258,50,0,0,0,250,250,0,,,,,,,,,,,,
31643,1560686922829,0,2.22,2.05,3.17,1.86,2.73,0.85,-0.16,0.72,1,-1,-2,0.86,5247,17,66,32,55,502,0.0,576,470,60,120.0,0,1,319,258,51,0,0,0,250,250,0,45.700356,4.909449,0.0,201.2,0,0.0,-1,0.0,0.0,0,0.0,0.5274
31663,1560686922849,0,2.21,2.04,3.18,1.85,2.73,0.83,-0.2,0.7,-1,-2,-2,0.86,5231,17,66,32,55,502,0.0,578,457,60,120.0,0,1,317,258,51,0,0,0,250,250,0,,,,,,,,,,,,
31683,1560686922869,2,2.22,2.05,3.18,1.84,2.73,0.85,-0.18,0.63,1,-1,-1,0.87,5255,17,66,32,55,502,0.0,575,466,60,120.0,0,1,319,258,51,0,0,0,250,250,0,,,,,,,,,,,,
31703,1560686922889,0,2.22,2.05,3.18,1.86,2.73,0.85,-0.22,0.62,-1,-1,-1,0.87,5235,17,66,32,55,502,0.0,572,459,60,122.0,0,1,318,258,51,0,0,0,250,250,0,,,,,,,,,,,,
31723,1560686922909,-0,2.22,2.05,3.17,1.85,2.73,0.84,-0.19,0.65,1,-1,0,0.86,5230,17,66,32,55,502,0.0,580,461,60,121.0,0,1,317,258,51,0,0,0,250,250,0,,,,,,,,,,,,
31743,1560686922929,0,2.23,2.05,3.17,1.86,2.72,0.82,-0.23,0.67,-1,-1,0,0.85,5252,17,66,32,55,502,0.0,580,461,60,121.0,0,1,319,258,51,0,0,0,250,250,0,45.700356,4.909449,0.0,201.2,0,0.0,-1,0.0,0.0,0,0.0,0.529
31763,1560686922949,5,2.23,2.04,3.18,1.85,2.73,0.85,-0.18,0.69,1,-0,-0,0.87,5201,17,66,32,55,502,0.0,569,461,60,121.0,0,1,315,258,51,0,0,0,250,250,0,,,,,,,,,,,,
31783,1560686922969,0,2.22,2.04,3.17,1.85,2.73,0.83,-0.24,0.68,-1,-1,-0,0.86,5255,17,66,32,55,502,0.0,577,463,60,120.0,0,1,319,258,51,0,0,0,250,250,0,,,,,,,,,,,,
31803,1560686922989,5,2.22,2.05,3.18,1.85,2.74,0.84,-0.2,0.66,1,-1,-1,0.86,5237,17,66,32,55,502,0.0,578,464,60,121.0,0,1,318,258,51,0,0,0,250,250,0,,,,,,,,,,,,
31823,1560686923003,-0,2.21,2.06,3.18,1.85,2.74,0.8,-0.25,0.65,-1,0,-2,0.84,5260,17,66,32,55,502,0.0,571,455,60,121.0,0,1,320,258,51,0,0,0,250,250,0,,,,,,,,,,,,
31843,1560686923023,6,2.22,2.05,3.19,1.84,2.74,0.88,-0.2,0.62,1,-1,-1,0.91,5246,17,66,32,55,502,0.0,580,465,60,121.0,0,1,319,258,51,0,0,0,250,250,0,45.700356,4.909449,0.0,201.2,0,0.0,-1,0.0,0.0,0,0.0,0.5307
31863,1560686923043,0,2.22,2.04,3.18,1.86,2.73,0.78,-0.25,0.61,-0,0,-1,0.82,5208,17,66,32,55,502,0.0,582,458,60,121.0,0,1,315,258,51,0,0,0,250,250,0,,,,,,,,,,,,
31883,1560686923063,5,2.21,2.05,3.18,1.85,2.74,0.85,-0.18,0.56,1,-1,0,0.87,5274,17,66,32,55,502,0.0,579,463,60,121.0,0,1,321,258,51,0,0,0,250,250,0,,,,,,,,,,,,
31903,1560686923083,-0,2.22,2.05,3.18,1.85,2.73,0.78,-0.25,0.61,-0,0,-1,0.82,5233,17,66,32,54,502,0.0,575,461,60,121.0,0,1,318,254,51,0,0,0,250,250,0,,,,,,,,,,,,
31923,1560686923109,5,2.23,2.04,3.18,1.85,2.73,0.86,-0.18,0.62,1,-1,-1,0.87,5243,17,66,32,55,502,0.0,573,457,60,122.0,0,1,318,258,51,0,0,0,250,250,0,,,,,,,,,,,,
31943,1560686923129,-1,2.22,2.05,3.18,1.86,2.73,0.8,-0.22,0.61,-1,0,-1,0.83,5238,17,66,32,54,502,0.0,579,464,60,120.0,0,1,318,258,51,0,0,0,250,250,0,45.700356,4.909449,0.0,201.2,0,0.0,-1,0.0,0.0,0,0.0,0.5324
31963,1560686923149,6,2.22,2.04,3.18,1.85,2.74,0.86,-0.14,0.54,1,-1,-2,0.87,5249,17,66,32,54,502,0.0,574,465,60,121.0,0,1,319,254,51,0,0,0,250,250,0,,,,,,,,,,,,
31983,1560686923169,-0,2.22,2.05,3.18,1.86,2.73,0.79,-0.19,0.58,-1,-0,-2,0.81,5253,17,66,32,54,502,0.0,580,455,60,121.0,0,1,319,258,51,0,0,0,250,250,0,,,,,,,,,,,,
32003,1560686923189,3,2.23,2.05,3.18,1.84,2.74,0.86,-0.08,0.44,1,-1,-1,0.86,5188,17,66,32,55,503,0.0,577,468,60,121.0,0,1,314,253,51,0,0,0,250,250,0,,,,,,,,,,,,
32023,1560686923210,-1,2.22,2.05,3.18,1.86,2.73,0.76,-0.14,0.46,-0,1,-1,0.77,5269,17,66,32,54,502,0.0,573,457,60,121.0,0,1,321,258,51,0,0,0,250,250,0,,,,,,,,,,,,
32043,1560686923230,5,2.22,2.05,3.18,1.85,2.73,0.83,-0.05,0.44,1,-2,1,0.84,5214,17,66,32,55,502,0.0,574,462,60,122.0,0,1,316,254,51,0,0,0,250,250,0,45.700356,4.909449,0.0,201.2,0,0.0,-1,0.0,0.0,0,0.0,0.534
32063,1560686923250,-0,2.21,2.06,3.18,1.86,2.72,0.83,-0.1,0.49,-0,1,-0,0.84,5293,17,66,32,55,502,0.0,572,467,60,119.0,0,1,323,258,51,0,0,0,250,250,0,,,,,,,,,,,,
32083,1560686923270,4,2.22,2.04,3.18,1.85,2.74,0.84,-0.1,0.56,1,-1,-0,0.84,5228,17,66,32,55,502,0.0,572,461,60,121.0,0,1,317,254,51,0,0,0,250,250,0,,,,,,,,,,,,
32103,1560686923290,-2,2.22,2.05,3.18,1.85,2.73,0.84,-0.11,0.58,-0,0,-1,0.85,5246,17,66,32,54,502,0.0,575,461,60,121.0,0,1,319,254,51,0,0,0,250,250,0,,,,,,,,,,,,
32123,1560686923309,6,2.21,2.05,3.18,1.86,2.73,0.83,-0.05,0.57,1,-1,-1,0.83,5302,17,66,32,55,502,0.0,580,464,60,121.0,0,1,323,259,51,0,0,0,250,250,0,,,,,,,,,,,,
32143,1560686923329,-1,2.22,2.05,3.18,1.84,2.74,0.81,-0.08,0.58,-0,-0,-2,0.82,5263,17,66,32,54,502,0.0,577,452,60,121.0,0,1,320,256,51,0,0,0,250,250,0,45.700356,4.909449,0.0,201.2,0,0.0,-1,0.0,0.0,0,0.0,0.5357
32163,1560686923349,6,2.21,2.05,3.18,1.84,2.74,0.85,-0.1,0.54,1,-1,-1,0.86,5259,17,66,32,55,502,0.0,572,471,60,121.0,0,1,320,256,51,0,0,0,250,250,0,,,,,,,,,,,,
32183,1560686923369,-0,2.22,2.04,3.18,1.85,2.73,0.88,-0.11,0.56,-0,-1,-1,0.89,5317,17,66,32,54,502,0.0,588,460,60,120.0,0,1,325,259,51,0,0,0,250,250,0,,,,,,,,,,,,
32203,1560686923389,-1,2.22,2.05,3.18,1.85,2.73,0.81,-0.16,0.62,1,-1,-1,0.82,5283,17,66,32,54,502,0.0,582,465,60,121.0,0,1,322,256,51,0,0,0,250,250,0,,,,,,,,,,,,
32223,1560686923409,1,2.21,2.05,3.18,1.84,2.74,0.9,-0.1,0.63,-0,-1,-0,0.91,5335,17,66,32,54,502,0.0,578,460,60,122.0,0,1,326,257,51,0,0,0,250,250,0,,,,,,,,,,,,
32243,1560686923429,1,2.22,2.04,3.18,1.85,2.72,0.79,-0.12,0.66,1,-0,-1,0.8,5293,17,66,32,54,502,0.0,584,466,60,120.0,0,1,323,256,51,0,0,0,250,250,0,45.700356,4.909449,0.0,201.2,0,0.0,-1,0.0,0.0,0,0.0,0.5374
32263,1560686923449,0,2.22,2.05,3.17,1.85,2.72,0.89,-0.04,0.65,-0,-2,-1,0.89,5310,17,66,32,54,502,0.0,581,455,60,122.0,0,1,324,257,51,0,0,0,250,250,0,,,,,,,,,,,,
32283,1560686923469,0,2.22,2.04,3.18,1.85,2.73,0.77,-0.03,0.67,0,0,-2,0.77,5299,17,66,32,54,502,0.0,585,472,60,120.0,0,1,323,257,51,0,0,0,250,250,0,,,,,,,,,,,,
32303,1560686923489,3,2.21,2.05,3.18,1.84,2.73,0.88,0.09,0.62,0,0,-1,0.89,5305,17,66,32,54,502,0.0,590,454,60,122.0,0,1,324,257,51,0,0,0,250,250,0,,,,,,,,,,,,
32323,1560686923509,-1,2.22,2.05,3.17,1.85,2.74,0.79,0.01,0.61,-0,1,-2,0.79,5334,17,66,32,54,502,0.0,591,460,60,120.0,0,1,326,257,51,0,0,0,250,250,0,,,,,,,,,,,,
32343,1560686923529,5,2.21,2.05,3.17,1.85,2.73,0.88,0.08,0.53,1,-2,-1,0.88,5317,17,66,32,54,502,0.0,581,461,60,122.0,0,1,325,257,51,0,0,0,250,250,0,45.700356,4.909449,0.0,201.2,0,0.0,-1,0.0,0.0,0,0.0,0.539
32363,1560686923549,-3,2.22,2.05,3.17,1.85,2.73,0.78,-0.02,0.54,-0,0,-1,0.78,5334,17,66,32,54,502,0.0,587,462,60,119.0,0,1,326,257,51,0,0,0,250,250,0,,,,,,,,,,,,
32383,1560686923569,5,2.22,2.05,3.17,1.85,2.73,0.78,-0.0,0.53,1,-2,0,0.78,5347,17,66,32,54,502,0.0,587,462,60,121.0,0,1,327,257,51,0,0,0,250,250,0,,,,,,,,,,,,
32403,1560686923589,0,2.22,2.05,3.18,1.85,2.73,0.84,0.01,0.56,-1,0,0,0.84,5394,17,66,32,54,502,0.0,586,465,60,122.0,0,1,331,258,51,0,0,0,250,250,0,,,,,,,,,,,,
32423,1560686923608,0,2.22,2.04,3.18,1.85,2.73,0.76,-0.03,0.65,1,1,-0,0.76,5344,17,66,32,54,502,0.0,583,466,60,120.0,0,1,327,257,51,0,0,0,250,250,0,,,,,,,,,,,,
32443,1560686923628,1,2.22,2.05,3.18,1.85,2.73,0.86,0.02,0.63,-0,-1,0,0.86,5406,17,66,32,53,502,0.0,588,452,60,122.0,0,1,331,254,52,0,0,0,250,250,0,45.700356,4.909449,0.0,201.2,0,0.0,-1,0.0,0.0,0,0.0,0.5407
32463,1560686923648,-0,2.2,2.05,3.18,1.86,2.73,0.75,-0.02,0.61,-0,1,-0,0.75,5386,17,66,32,53,502,0.0,593,463,60,120.0,0,1,330,258,52,0,0,0,250,250,0,,,,,,,,,,,,
32483,1560686923668,6,2.21,2.04,3.18,1.85,2.73,0.83,0.05,0.61,1,-0,-1,0.83,5412,17,66,32,53,502,0.0,590,461,60,121.0,0,1,332,254,52,0,0,0,250,250,0,,,,,,,,,,,,
32503,1560686923688,1,2.21,2.05,3.18,1.86,2.73,0.81,-0.04,0.59,-1,2,-2,0.81,5452,17,66,32,53,502,0.0,591,460,60,122.0,0,1,335,254,52,0,0,0,250,250,0,,,,,,,,,,,,
32523,1560686923708,0,2.21,2.05,3.18,1.86,2.74,0.75,-0.05,0.58,1,1,-1,0.75,5463,17,66,32,53,501,0.0,598,467,60,120.0,0,1,336,254,52,0,0,0,250,250,0,,,,,,,,,,,,
32543,1560686923728,5,2.21,2.05,3.18,1.86,2.73,0.88,0.05,0.57,1,-1,-0,0.88,5431,17,66,32,53,502,0.0,587,466,60,122.0,0,1,334,254,52,0,0,0,250,250,0,45.700356,4.909449,0.0,201.2,0,0.0,-1,0.0,0.0,0,0.0,0.5424
32563,1560686923748,-2,2.21,2.05,3.17,1.85,2.73,0.71,-0.04,0.54,-0,2,-1,0.71,5477,17,66,32,53,502,0.0,592,458,60,120.0,0,1,337,254,52,0,0,0,250,250,0,,,,,,,,,,,,
32583,1560686923768,1,2.21,2.04,3.18,1.85,2.74,0.65,-0.03,0.6,2,0,0,0.66,5498,17,66,32,53,501,0.0,600,462,60,120.0,0,1,336,254,52,0,0,0,250,250,0,,,,,,,,,,,,
32603,1560686923788,4,2.21,2.05,3.18,1.86,2.73,0.79,0.01,0.6,0,-1,1,0.79,5472,17,66,32,52,502,0.0,598,459,60,121.0,0,1,335,250,52,0,0,0,250,250,0,,,,,,,,,,,,
32623,1560686923808,-0,2.2,2.05,3.18,1.85,2.73,0.61,-0.06,0.59,0,3,1,0.61,5501,17,66,32,52,501,0.0,592,462,60,121.0,0,1,338,251,52,0,0,0,250,250,0,,,,,,,,,,,,
32643,1560686923828,-1,2.21,2.05,3.17,1.86,2.73,0.65,-0.02,0.64,2,-0,0,0.65,5431,17,66,32,52,502,0.0,595,461,60,120.0,0,1,333,250,52,0,0,0,250,250,0,45.700356,4.909449,0.0,201.2,0,0.0,-1,0.0,0.0,0,0.0,0.544
32663,1560686923848,3,2.2,2.05,3.18,1.85,2.73,0.76,-0.01,0.65,-0,-1,1,0.76,5441,17,66,32,52,502,0.0,598,453,60,122.0,0,1,333,250,52,0,0,0,250,250,0,,,,,,,,,,,,
32683,1560686923868,0,2.21,2.05,3.17,1.86,2.73,0.61,-0.06,0.64,0,2,-1,0.61,5434,17,66,32,52,502,0.0,599,463,60,120.0,0,1,333,254,52,0,0,0,250,250,0,,,,,,,,,,,,
32703,1560686923888,4,2.2,2.05,3.18,1.85,2.72,0.74,0.03,0.61,2,-0,-1,0.74,5433,17,66,32,53,502,0.0,593,465,60,121.0,0,1,334,250,52,0,0,0,250,250,0,,,,,,,,,,,,
32723,1560686923910,2,2.2,2.05,3.18,1.85,2.73,0.72,-0.04,0.57,-1,1,-1,0.72,5463,17,66,32,52,502,0.0,597,461,60,122.0,0,1,335,250,52,0,0,0,250,250,0,,,,,,,,,,,,
32743,1560686923930,1,2.2,2.05,3.18,1.85,2.73,0.62,-0.04,0.57,1,1,-1,0.62,5445,17,66,32,53,502,0.0,597,470,60,120.0,0,1,335,250,52,0,0,0,250,250,0,45.700356,4.909449,0.0,201.2,0,0.0,-1,0.0,0.0,0,0.0,0.5457
32763,1560686923950,4,2.21,2.04,3.18,1.85,2.73,0.76,0.05,0.55,1,-1,-0,0.77,5436,17,66,32,52,502,0.0,588,466,60,122.0,0,1,333,250,52,0,0,0,250,250,0,,,,,,,,,,,,
32783,1560686923970,-2,2.21,2.05,3.17,1.85,2.73,0.68,-0.06,0.53,-0,2,-0,0.68,5412,17,66,32,52,502,0.0,593,456,60,121.0,0,1,331,250,52,0,0,0,250,250,0,,,,,,,,,,,,
32803,1560686923990,1,2.21,2.04,3.18,1.85,2.73,0.63,-0.02,0.58,1,0,0,0.63,5461,17,66,32,52,502,0.0,597,462,60,120.0,0,1,334,250,52,0,0,0,250,250,0,,,,,,,,,,,,
32823,1560686924004,3,2.22,2.04,3.18,1.85,2.73,0.77,0.02,0.56,0,-1,1,0.77,5441,17,66,32,52,503,0.0,592,458,60,121.0,0,1,333,250,52,0,0,0,250,250,0,,,,,,,,,,,,
32843,1560686924024,-1,2.22,2.05,3.18,1.86,2.72,0.62,-0.04,0.61,0,2,-0,0.62,5468,17,66,32,52,502,0.0,587,467,60,120.0,0,1,335,250,51,0,0,0,250,250,0,45.700356,4.909449,0.0,201.2,0,0.0,-1,0.0,0.0,0,0.0,0.5474
32863,1560686924044,-0,2.22,2.04,3.18,1.85,2.73,0.7,0.01,0.61,1,-1,-0,0.7,5441,17,66,32,52,502,0.0,598,459,60,122.0,0,1,333,250,51,0,0,0,250,250,0,,,,,,,,,,,,
32883,1560686924064,-1,2.23,2.05,3.17,1.85,2.73,0.74,-0.06,0.61,-1,-1,-0,0.75,5256,17,66,32,52,503,0.0,593,458,60,122.0,0,1,319,247,51,0,0,0,250,250,0,,,,,,,,,,,,
32903,1560686924084,-0,2.22,2.05,3.18,1.85,2.73,0.74,-0.02,0.61,1,-1,-1,0.74,5129,17,66,32,52,504,0.0,573,464,60,122.0,0,1,310,245,51,0,0,0,250,250,0,,,,,,,,,,,,
32923,1560686924110,-0,2.21,2.05,3.18,1.85,2.73,0.7,-0.05,0.58,0,0,-2,0.7,4938,17,66,32,52,505,0.0,560,457,60,122.0,0,1,300,243,51,0,0,0,250,250,0,,,,,,,,,,,,
32943,1560686924130,1,2.22,2.05,3.17,1.86,2.73,0.72,-0.05,0.51,-0,-0,-1,0.72,4777,17,66,32,52,506,0.0,543,463,60,122.0,0,1,299,239,44,0,0,0,250,250,0,45.700356,4.909449,0.0,201.2,0,0.0,-1,0.0,0.0,0,0.0,0.549
32963,1560686924150,-1,2.22,2.05,3.18,1.85,2.72,0.78,0.07,0.49,0,-0,-0,0.78,4641,17,66,32,53,506,0.0,519,451,60,121.0,0,1,299,380,44,0,0,0,250,250,0,,,,,,,,,,,,
32983,1560686924170,0,2.22,2.04,3.18,1.85,2.73,0.83,0.1,0.5,0,-3,1,0.84,4555,17,66,32,53,506,0.0,517,458,60,122.0,0,1,298,353,44,0,0,0,250,250,0,,,,,,,,,,,,
33003,1560686924190,-1,2.22,2.05,3.18,1.85,2.74,0.87,0.16,0.55,1,-4,2,0.89,4579,17,66,32,53,505,0.0,496,459,60,121.0,0,1,299,320,44,0,0,0,250,250,0,,,,,,,,,,,,
33023,1560686924210,2,2.22,2.05,3.17,1.86,2.73,0.91,0.19,0.56,1,-4,1,0.93,4696,17,66,32,55,505,0.0,507,460,60,122.0,0,1,298,295,44,0,0,0,250,250,0,,,,,,,,,,,,
33043,1560686924230,2,2.22,2.04,3.18,1.85,2.72,0.87,0.16,0.54,2,-3,-0,0.88,4668,17,66,32,55,504,0.0,512,465,60,122.0,0,1,298,268,50,0,0,0,250,250,0,45.700356,4.909449,0.0,201.2,0,0.0,-1,0.0,0.0,0,0.0,0.5507
33063,1560686924250,4,2.21,2.05,3.18,1.85,2.72,0.83,0.13,0.49,2,-2,-1,0.84,4630,17,66,32,56,503,0.0,505,468,60,121.0,0,1,297,256,50,0,0,0,250,250,0,,,,,,,,,,,,
33083,1560686924270,5,2.22,2.04,3.18,1.85,2.73,0.76,0.08,0.51,1,-0,-1,0.77,4625,17,66,32,56,502,0.0,506,465,60,120.0,0,1,297,260,50,0,0,0,250,250,0,,,,,,,,,,,,
33103,1560686924290,5,2.22,2.05,3.19,1.85,2.73,0.74,0.01,0.49,1,1,-1,0.74,4621,17,66,32,57,502,0.0,506,461,60,120.0,0,1,297,260,50,0,0,0,250,250,0,,,,,,,,,,,,
33123,1560686924310,1,2.22,2.04,3.18,1.85,2.73,0.71,-0.06,0.52,0,1,-1,0.71,4592,17,66,32,57,502,0.0,505,464,60,121.0,0,1,296,259,50,0,0,0,250,250,0,,,,,,,,,,,,
33143,1560686924330,1,2.21,2.05,3.18,1.85,2.73,0.73,-0.1,0.54,-0,2,-1,0.74,4622,17,66,32,57,502,0.0,512,458,60,120.0,0,1,297,260,45,0,0,0,250,250,0,45.700356,4.909449,0.0,201.2,0,0.0,-1,0.0,0.0,0,0.0,0.5524
33163,1560686924350,-0,2.22,2.05,3.18,1.85,2.73,0.73,-0.11,0.6,-1,1,-2,0.74,4567,17,66,32,57,503,0.0,498,456,60,120.0,0,1,296,264,45,0,0,0,250,250,0,,,,,,,,,,,,
33183,1560686924370,-2,2.22,2.05,3.17,1.85,2.73,0.73,-0.1,0.61,-1,1,-1,0.74,4619,17,66,32,58,503,0.0,502,450,60,119.0,0,1,296,265,45,0,0,0,250,250,0,,,,,,,,,,,,
33203,1560686924390,-0,2.21,2.06,3.18,1.86,2.73,0.74,-0.07,0.61,-1,-1,-1,0.74,4614,17,66,32,58,503,0.0,501,459,60,121.0,0,1,296,265,45,0,0,0,250,250,0,,,,,,,,,,,,
33223,1560686924410,0,2.22,2.05,3.18,1.86,2.73,0.82,0.01,0.59,-0,-1,-0,0.82,4646,17,66,32,58,503,0.0,500,460,60,122.0,0,1,296,265,45,0,0,0,250,250,0,,,,,,,,,,,,
33243,1560686924430,1,2.22,2.05,3.18,1.84,2.74,0.89,0.07,0.56,0,-4,1,0.89,4700,17,66,32,58,503,0.0,512,456,60,121.0,0,1,296,265,47,0,0,0,250,250,0,45.700356,4.909449,0.0,201.2,0,0.0,-1,0.0,0.0,0,0.0,0.5541
33263,1560686924450,1,2.22,2.05,3.17,1.85,2.74,0.9,0.08,0.59,1,-2,1,0.9,4736,17,66,32,59,503,0.0,511,466,60,122.0,0,1,296,271,47,0,0,0,250,250,0,,,,,,,,,,,,
33283,1560686924470,4,2.22,2.05,3.18,1.84,2.74,0.88,0.04,0.59,1,-1,-0,0.88,4767,17,66,32,59,503,0.0,519,466,60,121.0,0,1,296,271,47,0,0,0,250,250,0,,,,,,,,,,,,
33303,1560686924490,-0,2.21,2.05,3.18,1.84,2.74,0.79,-0.03,0.59,0,-0,-1,0.8,4775,17,66,32,59,503,0.0,522,465,60,121.0,0,1,296,271,47,0,0,0,250,250,0,,,,,,,,,,,,
33323,1560686924510,-0,2.21,2.04,3.18,1.85,2.73,0.82,-0.05,0.59,-1,-0,-1,0.83,4841,17,66,32,59,503,0.0,519,457,60,121.0,0,1,296,272,47,0,0,0,250,250,0,,,,,,,,,,,,
33343,1560686924530,-0,2.22,2.05,3.18,1.85,2.74,0.89,0.03,0.59,-0,-3,0,0.89,4837,17,66,32,59,503,0.0,528,461,60,122.0,0,1,296,272,49,0,0,0,250,250,0,45.700356,4.909449,0.0,201.2,0,0.0,-1,0.0,0.0,0,0.0,0.5557
33363,1560686924550,4,2.21,2.05,3.18,1.85,2.74,0.89,0.04,0.62,1,-1,0,0.89,4895,17,66,32,59,503,0.0,529,471,60,122.0,0,1,296,272,49,0,0,0,250,250,0,,,,,,,,,,,,
33383,1560686924570,-2,2.22,2.05,3.17,1.85,2.73,0.82,-0.01,0.62,0,-0,-1,0.82,4881,17,66,32,60,502,0.0,533,468,60,121.0,0,1,296,276,49,0,0,0,250,250,0,,,,,,,,,,,,
33403,1560686924590,-2,2.22,2.05,3.17,1.84,2.74,0.78,-0.03,0.59,-1,-1,-1,0.79,4898,17,66,32,60,503,0.0,539,460,60,119.0,0,1,296,276,49,0,0,0,250,250,0,,,,,,,,,,,,
33423,1560686924609,2,2.22,2.05,3.17,1.85,2.73,0.89,0.08,0.53,0,-2,-0,0.9,4960,17,66,32,59,503,0.0,539,456,60,122.0,0,1,296,272,49,0,0,0,250,250,0,,,,,,,,,,,,
33443,1560686924629,5,2.22,2.04,3.18,1.85,2.73,0.82,0.03,0.59,1,-1,-0,0.82,4962,17,66,32,60,502,0.0,541,466,60,121.0,0,1,296,276,52,0,0,0,250,250,0,45.700356,4.909449,0.0,201.2,0,0.0,-1,0.0,0.0,0,0.0,0.5574
33463,1560686924649,0,2.22,2.04,3.17,1.85,2.73,0.76,-0.02,0.6,-0,-0,1,0.76,4974,17,66,32,59,502,0.0,550,468,60,120.0,0,1,296,276,52,0,0,0,250,250,0,,,,,,,,,,,,
33483,1560686924669,2,2.21,2.05,3.17,1.86,2.73,0.85,0.06,0.59,0,-1,1,0.85,5029,17,66,32,59,503,0.0,542,459,60,122.0,0,1,299,273,52,0,0,0,250,250,0,,,,,,,,,,,,
33503,1560686924689,-2,2.22,2.05,3.17,1.84,2.73,0.84,0.02,0.63,1,-2,-0,0.84,5056,17,66,32,59,502,0.0,553,469,60,120.0,0,1,303,273,52,0,0,0,250,250,0,,,,,,,,,,,,
33523,1560686924709,-0,2.21,2.05,3.18,1.85,2.74,0.79,-0.06,0.57,-0,-0,-1,0.8,5086,17,66,32,59,502,0.0,563,461,60,122.0,0,1,304,273,52,0,0,0,250,250,0,,,,,,,,,,,,
33543,1560686924729,4,2.22,2.05,3.17,1.84,2.74,0.89,0.04,0.51,1,-2,0,0.89,5148,17,66,32,58,502,0.0,558,460,60,122.0,0,1,309,267,52,0,0,0,250,250,0,45.700356,4.909449,0.0,201.2,0,0.0,-1,0.0,0.0,0,0.0,0.559
33563,1560686924749,-0,2.21,2.05,3.18,1.84,2.74,0.78,-0.02,0.55,-0,0,-0,0.78,5189,17,66,32,58,502,0.0,562,461,60,120.0,0,1,313,267,52,0,0,0,250,250,0,,,,,,,,,,,,
33583,1560686924769,3,2.22,2.04,3.18,1.85,2.73,0.88,0.04,0.57,0,-1,1,0.88,5191,17,66,32,58,502,0.0,566,459,60,122.0,0,1,313,267,52,0,0,0,250,250,0,,,,,,,,,,,,
33603,1560686924789,1,2.21,2.05,3.18,1.85,2.72,0.8,-0.04,0.6,-0,-0,0,0.8,5218,17,66,32,58,502,0.0,566,470,60,119.0,0,1,315,267,52,0,0,0,250,250,0,,,,,,,,,,,,
33623,1560686924810,4,2.22,2.05,3.17,1.85,2.73,0.86,0.04,0.55,0,-2,-0,0.86,5244,17,66,32,57,503,0.0,570,451,60,122.0,0,1,318,264,52,0,0,0,250,250,0,,,,,,,,,,,,
33643,1560686924830,1,2.21,2.05,3.18,1.85,2.74,0.79,-0.0,0.56,-0,-0,-2,0.79,5320,17,66,32,57,502,0.0,578,460,60,120.0,0,1,325,264,52,0,0,0,250,250,0,45.700356,4.909449,0.0,201.2,0,0.0,-1,0.0,0.0,0,0.0,0.5607
33663,1560686924850,5,2.21,2.05,3.18,1.85,2.72,0.92,0.11,0.5,1,-2,-0,0.92,5302,17,66,32,57,502,0.0,576,461,60,122.0,0,1,323,264,52,0,0,0,250,250,0,,,,,,,,,,,,
33683,1560686924870,-2,2.22,2.05,3.18,1.84,2.73,0.76,0.02,0.56,-1,-0,-1,0.76,5369,17,66,32,56,502,0.0,582,460,60,121.0,0,1,329,264,52,0,0,0,250,250,0,,,,,,,,,,,,
33703,1560686924890,1,2.21,2.04,3.18,1.85,2.73,0.83,0.06,0.54,1,-2,1,0.83,5419,17,66,32,56,502,0.0,588,463,60,121.0,0,1,334,263,52,0,0,0,250,250,0,,,,,,,,,,,,
33723,1560686924909,3,2.22,2.05,3.19,1.85,2.74,0.85,0.04,0.56,-0,-1,1,0.85,5476,17,66,32,55,502,0.0,590,462,60,122.0,0,1,338,261,52,0,0,0,250,250,0,,,,,,,,,,,,
33743,1560686924929,0,2.23,2.04,3.18,1.85,2.74,0.74,-0.01,0.65,0,1,0,0.74,5529,17,66,32,55,502,0.0,587,461,60,120.0,0,1,343,262,54,0,0,0,250,250,0,45.700356,4.909449,0.0,201.2,0,0.0,-1,0.0,0.0,0,0.0,0.5624
33763,1560686924949,-1,2.22,2.05,3.17,1.85,2.73,0.85,0.03,0.66,1,-1,-0,0.85,5565,17,66,32,54,502,0.0,592,458,60,121.0,0,1,346,262,54,0,0,0,250,250,0,,,,,,,,,,,,
33783,1560686924969,4,2.21,2.05,3.18,1.85,2.74,0.87,-0.01,0.65,-1,-3,0,0.87,5588,17,66,32,54,502,0.0,600,458,60,122.0,0,1,348,262,54,0,0,0,250,250,0,,,,,,,,,,,,
33803,1560686924989,2,2.22,2.05,3.17,1.85,2.74,0.74,-0.04,0.65,-1,0,-1,0.74,5623,17,66,32,53,502,0.0,605,461,60,122.0,0,1,349,258,54,0,0,0,250,250,0,,,,,,,,,,,,
33823,1560686925003,1,2.22,2.05,3.18,1.86,2.72,0.78,-0.01,0.68,1,0,-1,0.78,5644,17,66,32,53,502,0.0,604,468,60,120.0,0,1,351,258,54,0,0,0,250,250,0,,,,,,,,,,,,
33843,1560686925023,0,2.22,2.04,3.18,1.85,2.73,0.89,0.02,0.59,2,-1,-0,0.89,5692,17,66,32,52,501,0.0,605,462,60,121.0,0,1,352,253,55,0,0,0,250,250,0,45.700356,4.909449,0.0,201.2,0,0.0,-1,0.0,0.0,0,0.0,0.564
33863,1560686925043,5,2.22,2.04,3.18,1.85,2.73,0.99,0.05,0.53,0,0,-0,0.99,5719,17,66,32,52,501,0.0,610,461,60,122.0,0,1,354,254,55,0,0,0,250,250,0,,,,,,,,,,,,
33883,1560686925063,4,2.21,2.05,3.18,1.85,2.73,0.99,0.08,0.49,-1,2,-1,1.0,5704,17,66,32,51,501,0.0,608,457,60,122.0,0,1,351,249,55,0,0,0,250,250,0,,,,,,,,,,,,
33903,1560686925083,2,2.21,2.05,3.18,1.85,2.74,0.86,-0.0,0.46,-1,3,-1,0.86,5776,17,66,32,51,500,0.0,611,456,60,122.0,0,1,356,250,55,0,0,0,250,250,0,,,,,,,,,,,,
33923,1560686925109,1,2.21,2.05,3.18,1.84,2.73,0.75,-0.02,0.51,0,1,-1,0.75,5662,17,66,32,50,500,0.0,607,467,60,120.0,0,1,346,244,55,0,0,0,250,250,0,,,,,,,,,,,,
33943,1560686925129,0,2.22,2.05,3.18,1.85,2.74,0.79,0.0,0.57,2,-2,-1,0.79,5707,17,66,32,50,500,0.0,612,470,60,121.0,0,1,351,244,52,0,0,0,250,250,0,45.700356,4.909449,0.0,201.2,0,0.0,-1,0.0,0.0,0,0.0,0.5657
33963,1560686925149,1,2.22,2.05,3.18,1.85,2.74,0.91,-0.01,0.55,1,-4,-1,0.91,5719,17,66,32,50,500,0.0,611,463,60,122.0,0,1,350,244,52,0,0,0,250,250,0,,,,,,,,,,,,
33983,1560686925169,2,2.22,2.05,3.18,1.86,2.72,1.0,0.05,0.52,-1,-2,-1,1.0,5664,17,66,32,50,500,0.0,601,459,60,122.0,0,1,347,244,52,0,0,0,250,250,0,,,,,,,,,,,,
34003,1560686925189,0,2.22,2.05,3.17,1.85,2.74,0.88,0.0,0.51,-1,1,-1,0.88,5683,17,66,32,50,500,0.0,606,458,60,120.0,0,1,348,244,52,0,0,0,250,250,0,,,,,,,,,,,,
34023,1560686925209,0,2.21,2.05,3.18,1.85,2.73,0.74,-0.06,0.58,0,1,-0,0.74,5664,17,66,32,50,500,0.0,605,463,60,120.0,0,1,347,244,52,0,0,0,250,250,0,,,,,,,,,,,,
34043,1560686925229,-2,2.23,2.05,3.18,1.85,2.73,0.73,-0.02,0.56,1,-1,1,0.73,5635,17,66,32,49,500,0.0,601,465,60,122.0,0,1,342,238,50,0,0,0,250,250,0,45.700356,4.909449,0.0,201.2,0,0.0,-1,0.0,0.0,0,0.0,0.5674
34063,1560686925249,3,2.22,2.05,3.17,1.85,2.74,0.86,0.02,0.55,-0,-2,2,0.86,5623,17,66,32,49,501,0.0,596,460,60,122.0,0,1,342,238,50,0,0,0,250,250,0,,,,,,,,,,,,
34083,1560686925269,-1,2.22,2.05,3.18,1.85,2.73,0.82,-0.03,0.55,-1,1,1,0.82,5572,17,66,32,49,501,0.0,597,462,60,122.0,0,1,339,237,50,0,0,0,250,250,0,,,,,,,,,,,,
34103,1560686925289,-0,2.21,2.04,3.18,1.85,2.73,0.73,-0.04,0.63,1,1,1,0.73,5575,17,66,32,49,501,0.0,600,463,60,120.0,0,1,339,243,50,0,0,0,250,250,0,,,,,,,,,,,,
34123,1560686925309,4,2.21,2.05,3.18,1.85,2.73,0.81,-0.03,0.63,1,-2,1,0.81,5506,17,66,32,49,501,0.0,600,461,60,122.0,0,1,334,237,50,0,0,0,250,250,0,,,,,,,,,,,,
34143,1560686925329,0,2.22,2.05,3.18,1.85,2.74,0.82,-0.06,0.64,-1,-1,0,0.83,5445,17,66,32,49,501,0.0,598,468,60,120.0,0,1,331,242,49,0,0,0,250,250,0,45.700356,4.909449,0.0,201.2,0,0.0,-1,0.0,0.0,0,0.0,0.569
34163,1560686925349,0,2.21,2.05,3.18,1.85,2.74,0.74,-0.08,0.69,1,-1,-1,0.75,5482,17,66,32,50,501,0.0,598,466,60,121.0,0,1,334,242,49,0,0,0,250,250,0,,,,,,,,,,,,
34183,1560686925369,5,2.21,2.05,3.18,1.84,2.73,0.83,0.01,0.6,1,-2,-0,0.83,5464,17,66,32,50,501,0.0,597,456,60,122.0,0,1,333,242,49,0,0,0,250,250,0,,,,,,,,,,,,
34203,1560686925389,1,2.21,2.04,3.18,1.85,2.73,0.82,-0.07,0.56,-1,-1,-1,0.82,5433,17,66,32,50,501,0.0,590,461,60,121.0,0,1,331,242,49,0,0,0,250,250,0,,,,,,,,,,,,
34223,1560686925409,1,2.2,2.04,3.18,1.85,2.72,0.79,-0.07,0.58,1,-1,-1,0.79,5381,17,66,32,50,501,0.0,587,469,60,121.0,0,1,327,240,49,0,0,0,250,250,0,,,,,,,,,,,,
34243,1560686925429,1,2.22,2.05,3.17,1.86,2.73,0.87,-0.01,0.51,-0,-2,0,0.87,5389,17,66,32,50,502,0.0,590,458,60,122.0,0,1,328,240,48,0,0,0,250,250,0,45.700356,4.909449,0.0,201.2,0,0.0,-1,0.0,0.0,0,0.0,0.5707
34263,1560686925449,1,2.22,2.04,3.18,1.85,2.73,0.76,-0.08,0.58,0,-0,-0,0.76,5369,17,66,32,51,501,0.0,587,462,60,121.0,0,1,325,245,48,0,0,0,250,250,0,,,,,,,,,,,,
34283,1560686925469,3,2.22,2.04,3.18,1.85,2.73,0.84,0.04,0.59,0,-3,2,0.84,5307,17,66,32,51,501,0.0,584,461,60,122.0,0,1,322,244,48,0,0,0,250,250,0,,,,,,,,,,,,
34303,1560686925489,0,2.21,2.04,3.18,1.85,2.73,0.74,-0.03,0.61,0,0,1,0.74,5280,17,66,32,52,501,0.0,582,469,60,120.0,0,1,321,247,48,0,0,0,250,250,0,,,,,,,,,,,,
34323,1560686925509,4,2.21,2.05,3.18,1.84,2.74,0.82,0.05,0.6,0,-2,1,0.82,5243,17,66,32,52,501,0.0,580,460,60,122.0,0,1,318,247,48,0,0,0,250,250,0,,,,,,,,,,,,
34343,1560686925529,-0,2.21,2.05,3.18,1.85,2.73,0.76,-0.0,0.61,-0,-0,-0,0.76,5192,17,66,32,52,501,0.0,576,475,60,119.0,0,1,315,247,48,0,0,0,250,250,0,45.700356,4.909449,0.0,201.2,0,0.0,-1,0.0,0.0,0,0.0,0.5724
34363,1560686925549,3,2.22,2.05,3.18,1.85,2.72,0.81,0.07,0.55,0,-3,-0,0.81,5198,17,66,32,53,500,0.0,570,458,60,122.0,0,1,315,246,48,0,0,0,250,250,0,,,,,,,,,,,,
34383,1560686925569,-1,2.22,2.05,3.17,1.86,2.73,0.76,0.02,0.57,0,-1,-1,0.76,5183,17,66,32,53,500,0.0,567,470,60,121.0,0,1,314,249,48,0,0,0,250,250,0,,,,,,,,,,,,
34403,1560686925589,-3,2.22,2.05,3.18,1.85,2.74,0.81,0.07,0.5,-0,-1,-0,0.81,5158,17,66,32,53,500,0.0,562,458,60,121.0,0,1,312,249,48,0,0,0,250,250,0,,,,,,,,,,,,
34423,1560686925610,0,2.22,2.05,3.18,1.85,2.74,0.74,0.04,0.58,1,-1,0,0.74,5173,17,66,32,53,500,0.0,571,463,60,120.0,0,1,312,249,48,0,0,0,250,250,0,,,,,,,,,,,,
34443,1560686925630,0,2.21,2.05,3.19,1.84,2.74,0.75,0.0,0.59,-0,-1,1,0.75,5144,17,66,32,53,500,0.0,567,460,60,121.0,0,1,311,248,48,0,0,0,250,250,0,45.700356,4.909449,0.0,201.2,0,0.0,-1,0.0,0.0,0,0.0,0.574
34463,1560686925650,3,2.22,2.05,3.17,1.85,2.73,0.8,0.03,0.65,1,-1,0,0.8,5110,17,66,32,54,500,0.0,557,459,60,122.0,0,1,307,248,48,0,0,0,250,250,0,,,,,,,,,,,,
34483,1560686925670,-1,2.22,2.05,3.18,1.85,2.74,0.75,-0.05,0.62,0,-0,-0,0.75,5074,16,66,32,54,500,0.0,565,470,60,120.0,0,1,304,251,48,0,0,0,250,250,0,,,,,,,,,,,,
34503,1560686925690,1,2.22,2.05,3.18,1.86,2.73,0.81,0.05,0.57,-0,-2,-1,0.81,5052,16,66,32,54,500,0.0,556,457,60,122.0,0,1,302,251,48,0,0,0,250,250,0,,,,,,,,,,,,
34523,1560686925708,6,2.21,2.05,3.18,1.85,2.74,0.78,-0.01,0.6,1,-1,-2,0.78,5044,16,66,32,54,500,0.0,549,468,60,121.0,0,1,301,250,48,0,0,0,250,250,0,,,,,,,,,,,,
34543,1560686925728,-0,2.21,2.06,3.18,1.86,2.73,0.75,-0.08,0.55,-0,-1,-2,0.76,5014,16,66,32,54,501,0.0,560,462,60,120.0,0,1,299,250,47,0,0,0,250,250,0,45.700356,4.909449,0.0,201.2,0,0.0,-1,0.0,0.0,0,0.0,0.5757
34563,1560686925748,2,2.22,2.05,3.18,1.85,2.73,0.84,0.04,0.54,0,-3,-0,0.84,4988,16,66,32,54,500,0.0,555,457,60,122.0,0,1,298,249,47,0,0,0,250,250,0,,,,,,,,,,,,
34583,1560686925768,4,2.22,2.05,3.17,1.86,2.73,0.75,-0.02,0.6,1,-1,-1,0.75,4927,16,66,32,55,500,0.0,541,470,60,121.0,0,1,298,253,47,0,0,0,250,250,0,,,,,,,,,,,,
34603,1560686925788,-1,2.22,2.05,3.18,1.86,2.74,0.71,-0.07,0.57,-0,1,0,0.72,4938,16,66,32,55,501,0.0,551,461,60,120.0,0,1,298,253,47,0,0,0,250,250,0,,,,,,,,,,,,
34623,1560686925810,-1,2.22,2.05,3.18,1.85,2.73,0.79,0.01,0.58,-0,-2,0,0.79,4926,16,66,32,55,501,0.0,541,460,60,122.0,0,1,298,253,47,0,0,0,250,250,0,,,,,,,,,,,,
34643,1560686925830,3,2.22,2.06,3.18,1.86,2.73,0.84,0.05,0.58,1,-3,-0,0.84,4917,16,66,32,56,501,0.0,535,467,60,122.0,0,1,298,253,47,0,0,0,250,250,0,45.700356,4.909449,0.0,201.2,0,0.0,-1,0.0,0.0,0,0.0,0.5774
34663,1560686925850,1,2.21,2.05,3.18,1.84,2.73,0.75,-0.04,0.53,0,0,-2,0.75,4931,16,66,32,56,501,0.0,547,466,60,120.0,0,1,298,253,47,0,0,0,250,250,0,,,,,,,,,,,,
34683,1560686925870,-2,2.22,2.05,3.18,1.84,2.74,0.76,-0.09,0.53,-1,-1,-0,0.77,4926,16,66,32,55,501,0.0,541,463,60,121.0,0,1,298,258,47,0,0,0,250,250,0,,,,,,,,,,,,
34703,1560686925890,-1,2.22,2.05,3.17,1.85,2.73,0.86,0.02,0.56,-0,-2,1,0.86,4891,16,66,32,56,501,0.0,534,458,60,122.0,0,1,298,251,47,0,0,0,250,250,0,,,,,,,,,,,,
34723,1560686925910,3,2.22,2.05,3.17,1.86,2.73,0.86,-0.01,0.59,1,-1,0,0.86,4875,16,66,32,56,501,0.0,534,470,60,122.0,0,1,298,255,47,0,0,0,250,250,0,,,,,,,,,,,,
34743,1560686925930,0,2.21,2.05,3.18,1.85,2.73,0.78,-0.07,0.57,0,-1,-1,0.78,4827,16,66,32,56,501,0.0,527,462,60,120.0,0,1,298,255,47,0,0,0,250,250,0,45.700356,4.909449,0.0,201.2,0,0.0,-1,0.0,0.0,0,0.0,0.579
34763,1560686925950,-2,2.21,2.05,3.18,1.84,2.74,0.74,-0.09,0.51,-0,-0,-1,0.74,4817,15,66,32,56,501,0.0,527,460,60,120.0,0,1,298,255,47,0,0,0,250,250,0,,,,,,,,,,,,
34783,1560686925970,1,2.22,2.04,3.18,1.85,2.73,0.84,0.03,0.48,0,-1,0,0.84,4825,15,66,32,56,501,0.0,529,457,60,122.0,0,1,298,255,47,0,0,0,250,250,0,,,,,,,,,,,,
34803,1560686925990,3,2.21,2.05,3.18,1.85,2.72,0.88,0.07,0.53,1,-2,1,0.88,4816,15,66,32,56,501,0.0,520,463,60,122.0,0,1,298,255,47,0,0,0,250,250,0,,,,,,,,,,,,
34823,1560686926004,5,2.21,2.05,3.17,1.85,2.73,0.81,-0.0,0.57,1,-1,1,0.81,4811,15,66,32,57,501,0.0,525,471,60,121.0,0,1,297,255,47,0,0,0,250,250,0,,,,,,,,,,,,
