"Interval"|"ms"|0|0|1,"Utc"|"ms"|0|0|1,"FB_p"|"bar"|0|300|50,"Volant"|"F"|0.0|300.0|50,"xFR"|"mm"|0.0|5.0|50,"xRR"|"mm"|0.0|5.0|50,"xFL"|"mm"|0.0|5.0|50,"xRL"|"mm"|0.0|5.0|50,"AccelX"|"G"|-3.0|3.0|50,"AccelY"|"G"|-3.0|3.0|50,"AccelZ"|"G"|-3.0|3.0|50,"Yaw"|"Deg/Sec"|-120|120|50,"Pitch"|"Deg/Sec"|-120|120|50,"Roll"|"Deg/Sec"|-120|120|50,"Gsum"|"G"|0.0|3.0|50,"RPM"|""|0|14000|50,"TPS"|"%"|0|100|50,"WaterTemp"|"?C"|0|300|50,"AirTemp"|"?C"|-1000|1000|50,"MAP"|"KPa"|0|255|50,"Lambda"|""|0|1024|50,"WheelSpeed"|"MPH"|0.0|150.0|50,"OilPress"|"PSI"|0|150|50,"FuelPress"|"PSI"|0|150|50,"OilTemp"|"F"|0|300|50,"Battery"|"Volts"|0.0|20.0|50,"FuelCon"|"L/h"|-1000|1000|50,"Gear"|""|0|10|50,"Advance"|"Deg"|-360|360|50,"Injection"|"ms"|-1000|1000|50,"FuelCon"|"L/100km"|-1000|1000|50,"LC_But_Pres"|""|-1000|1000|50,"LC_Active"|""|-1000|1000|50,"RD_Speed"|""|-1000|1000|50,"RUD_Speed"|""|-1000|1000|50,"LD_Speed"|""|-1000|1000|50,"LUD_Speed"|""|-1000|1000|50,"Latitude"|"Degrees"|-180.0|180.0|10,"Longitude"|"Degrees"|-180.0|180.0|10,"Speed"|"kph"|0.0|150.0|10,"Altitude"|"m"|0.0|4000.0|10,"LapCount"|""|0|0|10,"LapTime"|"Min"|0.0|0.0|10,"Sector"|""|0|0|10,"SectorTime"|"Min"|0.0|0.0|10,"ElapsedTime"|"Min"|0.0|0.0|10,"CurrentLap"|""|0|0|10,"Distance"|"km"|0.0|0.0|10,"SessionTime"|"Min"|0.0|0.0|10
253963,1560687885961,3,2.28,1.92,3.38,1.89,2.81,0.89,-0.43,0.2,3,-3,4,0.99,10201,13,86,30,26,1043,564.0,640,458,60,121.0,145,1,274,198,83,0,0,549,2216,-9072,564,,,,,,,,,,,,
253983,1560687885981,2,2.28,1.92,3.4,1.88,2.81,0.87,-0.33,0.2,3,-3,5,0.93,10190,13,86,30,26,1045,561.0,638,460,60,121.0,135,1,274,196,76,0,0,546,6273,-8962,561,,,,,,,,,,,,
254003,1560687885995,2,2.28,1.93,3.43,1.9,2.82,0.96,-0.21,0.2,3,0,5,0.99,10146,12,86,30,25,1047,560.0,642,460,60,121.0,135,1,270,193,76,0,0,537,-22263,-8962,559,,,,,,,,,,,,
254023,1560687886015,5,2.27,1.93,3.42,1.9,2.81,1.0,-0.27,0.2,2,-2,5,1.04,10059,12,86,30,25,1047,559.0,642,455,60,122.0,135,1,270,190,76,0,0,541,-9072,-22519,555,,,,,,,,,,,,
254043,1560687886035,3,2.27,1.92,3.39,1.88,2.8,0.88,-0.25,0.2,2,-2,5,0.92,10075,12,86,30,25,1046,553.0,636,465,60,121.0,135,1,270,191,76,0,0,537,6274,-28648,553,45.702114,4.910877,56.22,201.0,2,1.8767,0,0.0,0.41,3,0.32,4.234
254063,1560687886055,2,2.27,1.93,3.37,1.87,2.79,0.99,-0.1,0.21,2,1,4,0.99,10016,11,86,30,24,1043,551.0,633,458,60,121.0,135,1,270,187,76,0,0,542,-32248,-22519,551,,,,,,,,,,,,
254083,1560687886075,5,2.28,1.92,3.36,1.87,2.79,1.08,-0.08,0.17,2,-1,4,1.09,10000,11,86,30,24,1042,548.0,638,453,60,122.0,127,1,270,185,70,0,0,535,14504,6274,545,,,,,,,,,,,,
254103,1560687886101,4,2.26,1.93,3.36,1.87,2.79,0.99,-0.08,0.22,2,-2,4,1.0,10016,11,86,30,24,1040,544.0,632,459,60,122.0,127,1,270,185,70,0,0,535,-506,-8186,547,,,,,,,,,,,,
254123,1560687886121,7,2.26,1.93,3.39,1.87,2.78,1.03,0.0,0.25,1,-2,4,1.03,9968,11,86,30,24,1039,544.0,632,456,60,121.0,127,1,270,182,70,0,0,529,1779,-22519,544,,,,,,,,,,,,
254143,1560687886141,17,2.27,1.92,3.39,1.87,2.8,1.13,-0.03,0.21,0,-4,3,1.13,9858,11,86,31,23,1040,536.0,634,452,60,122.0,127,1,270,180,70,0,0,525,-28648,-9212,535,45.702106,4.910892,55.31,201.0,2,1.8767,0,0.0,0.4117,3,0.33,4.2357
254163,1560687886161,17,2.26,1.93,3.38,1.85,2.84,1.12,-0.02,0.22,1,-5,4,1.12,9791,10,86,31,23,1044,530.0,639,456,60,121.0,127,1,270,179,70,0,0,514,-28648,-8187,530,,,,,,,,,,,,
254183,1560687886181,22,2.27,1.9,3.42,1.81,2.86,1.21,-0.03,0.24,0,-4,2,1.21,9669,10,86,31,23,1048,523.0,635,457,60,122.0,123,1,270,179,65,0,0,508,-9212,10994,523,,,,,,,,,,,,
254203,1560687886201,21,2.27,1.88,3.44,1.78,2.94,1.3,-0.1,0.32,0,-4,1,1.3,9436,10,86,31,22,1053,519.0,631,461,60,121.0,123,1,270,170,65,0,0,501,-8187,10408,518,,,,,,,,,,,,
254223,1560687886221,23,2.27,1.87,3.46,1.75,2.97,1.21,-0.0,0.13,1,-1,1,1.21,9250,10,86,31,22,1056,513.0,631,457,60,121.0,123,1,270,170,65,0,0,492,26178,2524,513,,,,,,,,,,,,
254243,1560687886241,24,2.27,1.87,3.51,1.74,2.97,1.3,-0.1,0.17,1,0,1,1.3,9066,10,86,31,21,1061,509.0,629,462,60,122.0,123,1,270,164,65,0,0,478,10994,-9216,509,45.702099,4.910906,54.19,201.0,2,1.8767,0,0.0,0.4133,3,0.33,4.2374
254263,1560687886261,19,2.28,1.86,3.53,1.74,2.97,1.37,-0.23,0.24,1,0,2,1.39,8894,10,86,31,21,1069,506.0,616,456,60,122.0,123,1,270,164,65,0,0,461,-28648,-32768,502,,,,,,,,,,,,
254283,1560687886281,18,2.27,1.86,3.52,1.75,2.95,1.43,-0.22,0.2,1,1,2,1.45,8708,10,86,31,21,1079,499.0,614,458,60,121.0,108,1,270,164,54,0,0,444,2524,505,499,,,,,,,,,,,,
254303,1560687886301,15,2.27,1.86,3.51,1.74,2.93,1.36,-0.2,0.16,1,1,3,1.37,8585,10,86,31,22,1083,494.0,616,461,60,121.0,108,1,270,170,54,0,0,448,771,-899,494,,,,,,,,,,,,
254323,1560687886321,11,2.27,1.86,3.47,1.74,2.93,1.38,-0.12,0.11,0,1,2,1.39,8423,10,86,31,22,1087,492.0,615,458,60,122.0,108,1,270,167,54,0,0,467,-32768,-17956,491,,,,,,,,,,,,
254343,1560687886341,9,2.27,1.85,3.45,1.74,2.94,1.31,-0.04,0.12,0,1,2,1.31,8370,9,86,31,22,1095,488.0,610,458,60,121.0,108,1,270,165,54,0,0,458,505,-18108,488,45.702091,4.91092,52.51,201.0,2,1.8767,0,0.0,0.415,3,0.33,4.239
254363,1560687886361,4,2.28,1.85,3.43,1.72,2.93,1.32,-0.05,0.09,0,2,2,1.32,8344,9,86,31,22,1099,486.0,609,457,60,122.0,108,1,270,169,54,0,0,455,-6441,10305,486,,,,,,,,,,,,
254383,1560687886381,1,2.27,1.85,3.42,1.72,2.91,1.35,-0.03,0.19,-0,2,2,1.35,8374,9,86,31,22,1102,483.0,615,461,60,122.0,109,1,270,165,53,0,0,449,3580,-8985,482,,,,,,,,,,,,
254403,1560687886401,4,2.27,1.85,3.41,1.73,2.9,1.3,-0.01,0.13,-0,2,2,1.3,8434,9,86,31,22,1103,480.0,611,458,60,123.0,109,1,270,167,53,0,0,452,16648,15649,480,,,,,,,,,,,,
254423,1560687886421,1,2.27,1.85,3.42,1.72,2.89,1.26,-0.04,0.19,0,4,2,1.26,8465,9,86,31,22,1108,474.0,612,460,60,122.0,109,1,270,168,53,0,0,452,3576,-9160,474,,,,,,,,,,,,
254443,1560687886441,-1,2.27,1.85,3.41,1.73,2.88,1.22,-0.05,0.29,0,4,2,1.23,8499,9,86,31,22,1110,472.0,612,455,60,121.0,109,1,270,168,53,0,0,456,-1923,-8985,472,45.70208,4.910933,50.1,201.0,2,1.8767,0,0.0,0.4167,3,0.33,4.2407
254463,1560687886461,0,2.28,1.87,3.39,1.74,2.88,1.23,0.01,0.16,-0,1,1,1.23,8491,9,86,31,21,1111,469.0,604,458,60,122.0,109,1,270,163,53,0,0,455,-16384,8488,469,,,,,,,,,,,,
254483,1560687886481,2,2.26,1.89,3.36,1.74,2.88,1.21,0.02,0.18,-0,2,1,1.21,8495,9,86,31,21,1112,466.0,614,456,60,121.0,113,1,270,163,53,0,0,452,16408,16648,466,,,,,,,,,,,,
254503,1560687886501,-0,2.28,1.88,3.36,1.74,2.89,1.18,0.05,0.22,0,2,1,1.18,8472,9,86,31,21,1104,463.0,612,461,60,121.0,113,1,270,164,53,0,0,451,12552,10305,463,,,,,,,,,,,,
254523,1560687886521,6,2.27,1.87,3.36,1.73,2.88,1.18,0.03,0.09,1,2,1,1.18,8465,9,86,31,21,1094,461.0,607,457,60,122.0,113,1,270,162,53,0,0,447,-18108,8488,461,,,,,,,,,,,,
254543,1560687886541,5,2.26,1.89,3.36,1.74,2.87,1.15,0.06,0.12,1,2,2,1.16,8396,9,86,32,21,1087,459.0,611,458,60,122.0,113,1,270,160,53,0,0,442,-9160,8488,458,45.702072,4.910945,48.1,201.0,2,1.8767,0,0.0,0.4183,3,0.33,4.2424
254563,1560687886561,9,2.28,1.88,3.36,1.74,2.84,1.13,0.16,0.05,0,1,2,1.15,8311,9,86,32,22,1075,453.0,604,456,60,121.0,113,1,270,157,53,0,0,441,3571,-6387,453,,,,,,,,,,,,
254583,1560687886581,8,2.27,1.86,3.37,1.73,2.86,1.18,0.13,0.11,0,1,2,1.19,8198,9,86,32,21,1064,450.0,612,459,60,121.0,106,1,270,154,48,0,0,440,15649,-28332,450,,,,,,,,,,,,
254603,1560687886601,10,2.26,1.87,3.38,1.74,2.88,1.15,0.13,0.11,0,0,1,1.15,8148,9,86,32,21,1050,446.0,606,461,60,122.0,106,1,270,153,48,0,0,436,2131,-3322,446,,,,,,,,,,,,
254623,1560687886621,8,2.27,1.87,3.38,1.75,2.9,1.11,0.09,0.14,1,2,2,1.11,8054,9,86,32,21,1040,444.0,605,460,60,122.0,106,1,270,150,48,0,0,433,-18341,243,442,,,,,,,,,,,,
254643,1560687886641,10,2.27,1.87,3.39,1.74,2.9,1.19,0.13,0.15,0,0,-0,1.2,7968,9,86,32,21,1036,440.0,598,455,60,122.0,106,1,269,149,48,0,0,426,21580,3635,439,45.702064,4.910957,46.53,201.0,2,1.8767,0,0.0,0.42,3,0.33,4.2441
254663,1560687886661,13,2.26,1.87,3.38,1.74,2.9,1.17,0.18,0.16,-0,-3,1,1.18,7934,9,86,32,21,1022,435.0,591,458,60,121.0,106,1,268,146,48,0,0,423,243,3826,435,,,,,,,,,,,,
254683,1560687886681,13,2.27,1.87,3.4,1.72,2.93,1.11,0.1,0.15,0,-2,2,1.11,7828,9,86,32,21,1012,431.0,585,454,60,122.0,99,1,268,146,43,0,0,410,13180,18584,431,,,,,,,,,,,,
254703,1560687886698,17,2.25,1.85,3.4,1.73,2.92,1.1,0.03,0.15,1,1,1,1.1,7684,9,86,32,21,1002,425.0,576,456,60,121.0,99,1,266,149,43,0,0,414,-3856,-3414,425,,,,,,,,,,,,
254723,1560687886718,13,2.25,1.86,3.4,1.73,2.92,1.15,0.04,0.12,1,-1,0,1.15,7606,9,86,32,21,995,421.0,572,458,60,121.0,99,1,266,149,43,0,0,410,-8165,2524,421,,,,,,,,,,,,
254743,1560687886738,13,2.26,1.86,3.4,1.73,2.93,1.23,-0.04,0.15,1,-1,1,1.23,7497,9,86,32,21,950,416.0,561,457,60,123.0,99,1,264,149,43,0,0,404,2524,1504,416,45.702057,4.910969,44.31,201.0,2,1.8767,0,0.0,0.4217,3,0.33,4.2457
254763,1560687886758,18,2.25,1.86,3.41,1.72,2.93,1.28,-0.06,0.23,1,-1,1,1.29,7431,9,86,32,21,905,411.0,556,462,60,122.0,99,1,264,149,43,0,0,392,-4059,-1818,411,,,,,,,,,,,,
254783,1560687886778,16,2.25,1.85,3.42,1.72,2.94,1.3,-0.01,0.24,1,0,1,1.3,7327,9,86,32,21,875,408.0,552,460,60,121.0,100,1,263,151,41,0,0,389,10392,-1818,405,,,,,,,,,,,,
254803,1560687886800,16,2.24,1.85,3.43,1.71,2.95,1.21,-0.05,0.23,2,3,0,1.21,7259,9,86,32,22,829,403.0,553,461,60,121.0,100,1,262,151,41,0,0,386,11545,-6524,400,,,,,,,,,,,,
254823,1560687886820,16,2.24,1.85,3.42,1.71,2.96,1.13,-0.05,0.11,2,3,1,1.13,7164,9,86,32,22,805,398.0,544,457,60,121.0,100,1,261,151,41,0,0,385,-3968,8200,395,,,,,,,,,,,,
254843,1560687886840,15,2.22,1.85,3.43,1.68,2.95,1.18,0.09,0.08,0,4,1,1.18,7033,9,86,32,22,775,395.0,541,458,60,122.0,100,1,260,151,41,0,0,380,-6656,2278,389,45.702053,4.91098,42.58,201.0,2,1.8767,0,0.0,0.4233,3,0.34,4.2474
254863,1560687886860,18,2.22,1.85,3.42,1.67,2.95,1.26,0.03,0.24,-1,2,-1,1.26,6957,8,86,32,22,765,389.0,533,462,60,122.0,100,1,260,151,41,0,0,375,240,742,383,,,,,,,,,,,,
254883,1560687886880,15,2.21,1.85,3.42,1.66,2.96,1.18,0.02,0.08,0,4,-3,1.18,6895,8,86,32,23,771,385.0,529,452,60,123.0,104,1,261,153,40,0,0,372,-19126,0,377,,,,,,,,,,,,
254903,1560687886900,16,2.21,1.85,3.42,1.64,2.97,1.26,-0.0,0.11,-1,2,-5,1.26,6778,8,86,32,23,780,381.0,525,458,60,122.0,104,1,261,153,40,0,0,370,8200,-14707,373,,,,,,,,,,,,
254923,1560687886920,12,2.19,1.85,3.42,1.6,2.98,1.23,-0.08,0.04,-1,5,-4,1.23,6708,8,86,32,23,795,377.0,517,460,60,122.0,104,1,261,153,40,0,0,358,-6656,3302,368,,,,,,,,,,,,
254943,1560687886940,18,2.19,1.85,3.42,1.6,2.99,1.19,0.04,0.04,-2,4,-2,1.19,6618,8,86,32,24,801,374.0,510,456,60,122.0,104,1,263,155,40,0,0,355,742,2060,361,45.702042,4.910991,40.57,201.0,2,1.8767,0,0.0,0.425,3,0.34,4.2491
254963,1560687886960,11,2.18,1.87,3.41,1.57,2.97,1.2,0.17,-0.02,-3,4,-1,1.21,6546,8,86,32,24,805,368.0,506,460,60,122.0,104,1,263,155,40,0,0,351,0,8841,355,,,,,,,,,,,,
254983,1560687886980,14,2.16,1.89,3.41,1.54,2.98,1.19,0.18,0.06,-4,4,-2,1.21,6441,8,86,32,25,815,365.0,502,461,60,121.0,111,1,266,159,39,0,0,354,-6405,3327,348,,,,,,,,,,,,
255003,1560687886994,16,2.16,1.89,3.4,1.52,2.96,1.12,0.2,0.03,-5,4,-6,1.14,6366,8,86,32,25,823,360.0,498,455,60,121.0,111,1,267,159,39,0,0,343,-14707,-10554,343,,,,,,,,,,,,
255023,1560687887014,18,2.17,1.9,3.38,1.5,2.97,1.12,0.32,-0.04,-5,4,-8,1.16,6289,8,86,32,26,838,356.0,487,456,60,123.0,111,1,271,160,39,0,0,340,-6644,-12032,336,,,,,,,,,,,,
255043,1560687887034,10,2.15,1.9,3.38,1.47,2.98,1.11,0.42,-0.15,-5,5,-9,1.19,6220,8,86,32,26,844,350.0,479,462,60,123.0,111,1,271,160,39,0,0,337,-30454,165,334,45.702038,4.911001,38.0,201.0,2,1.8767,0,0.0,0.4267,3,0.34,4.2507
255063,1560687887054,11,2.17,1.91,3.39,1.48,3.0,1.12,0.4,-0.22,-6,6,-10,1.19,6127,8,86,33,27,859,346.0,475,464,60,122.0,111,1,275,160,39,0,0,333,-30438,-27136,326,,,,,,,,,,,,
255083,1560687887074,9,2.16,1.9,3.39,1.47,3.01,1.21,0.3,-0.21,-7,7,-10,1.24,6044,8,86,33,27,872,343.0,471,467,60,122.0,113,1,275,161,37,0,0,328,6668,150,325,,,,,,,,,,,,
255103,1560687887100,10,2.15,1.91,3.37,1.48,3.01,1.29,0.2,-0.21,-9,7,-10,1.31,5950,8,86,33,28,880,338.0,464,462,60,123.0,113,1,277,162,37,0,0,328,-31222,135,321,,,,,,,,,,,,
255123,1560687887120,14,2.14,1.94,3.35,1.48,3.0,1.36,0.16,-0.23,-11,8,-10,1.37,5857,8,86,33,29,887,334.0,456,463,60,123.0,113,1,278,162,37,0,0,325,-32559,32000,317,,,,,,,,,,,,
255143,1560687887140,14,2.13,1.93,3.34,1.47,3.01,1.43,0.17,-0.26,-13,8,-9,1.44,5787,8,86,33,29,892,329.0,452,461,60,123.0,113,1,277,163,37,0,0,320,-20736,26880,311,45.702034,4.91101,34.82,200.9,2,1.8767,0,0.0,0.4283,3,0.34,4.2524
255163,1560687887160,11,2.12,1.93,3.34,1.48,3.02,1.23,0.18,-0.34,-13,12,-9,1.25,5716,8,86,33,30,897,323.0,448,456,60,122.0,113,1,279,164,37,0,0,317,-24576,25600,309,,,,,,,,,,,,
255183,1560687887180,10,2.1,1.93,3.35,1.47,3.02,1.03,0.21,-0.33,-10,14,-10,1.05,5650,8,86,33,31,902,320.0,444,457,60,121.0,115,1,280,164,35,0,0,309,150,85,301,,,,,,,,,,,,
255203,1560687887200,10,2.08,1.95,3.33,1.47,3.04,1.07,0.29,-0.25,-8,9,-10,1.11,5615,8,86,33,32,901,316.0,438,462,60,122.0,115,1,282,164,35,0,0,307,140,0,295,,,,,,,,,,,,
255223,1560687887220,12,2.05,1.98,3.33,1.48,3.06,1.17,0.29,-0.14,-12,5,-9,1.2,5539,8,86,33,32,900,314.0,432,460,60,123.0,115,1,280,164,35,0,0,307,135,10686,291,,,,,,,,,,,,
255243,1560687887240,9,2.03,2.01,3.31,1.47,3.1,1.04,0.25,-0.1,-14,7,-11,1.07,5472,8,86,33,33,898,311.0,430,463,60,121.0,115,1,282,169,35,0,0,306,130,630,288,45.702026,4.911019,32.68,200.9,2,1.8767,0,0.0,0.43,3,0.34,4.254
255263,1560687887260,7,2.0,2.06,3.28,1.48,3.11,1.0,0.34,-0.06,-13,5,-13,1.05,5417,8,86,33,34,894,310.0,426,458,60,123.0,115,1,285,175,35,0,0,305,125,2414,285,,,,,,,,,,,,
255283,1560687887280,7,1.98,2.08,3.24,1.46,3.1,1.1,0.35,-0.01,-16,4,-15,1.16,5329,8,86,33,35,890,309.0,419,445,60,122.0,129,1,287,179,36,0,0,303,32000,28160,278,,,,,,,,,,,,
255303,1560687887300,6,1.96,2.1,3.2,1.45,3.14,1.0,0.38,-0.06,-17,5,-17,1.07,5271,8,86,33,36,887,307.0,417,466,60,122.0,129,1,290,185,36,0,0,301,30720,-1,274,,,,,,,,,,,,
255323,1560687887320,9,1.94,2.1,3.18,1.44,3.17,1.11,0.41,-0.02,-19,3,-19,1.18,5235,8,86,33,37,888,306.0,411,457,60,123.0,129,1,294,191,36,0,0,300,115,-1,270,,,,,,,,,,,,
255343,1560687887340,2,1.95,2.12,3.16,1.44,3.13,0.95,0.46,-0.02,-19,3,-21,1.06,5185,8,86,33,38,890,305.0,404,451,60,121.0,129,1,297,196,36,0,0,298,29440,-1,266,45.702023,4.911028,30.62,200.9,2,1.8767,0,0.0,0.4317,3,0.34,4.2557
255363,1560687887360,2,1.93,2.16,3.14,1.44,3.12,1.06,0.48,0.01,-22,1,-22,1.16,5136,8,86,33,39,894,301.0,396,453,60,123.0,129,1,301,203,36,0,0,294,26880,-41,265,,,,,,,,,,,,
255383,1560687887380,4,1.93,2.17,3.14,1.45,3.16,1.04,0.52,0.01,-21,3,-25,1.16,5124,8,86,33,40,897,300.0,393,452,60,123.0,147,1,302,204,39,0,0,292,100,-1,263,,,,,,,,,,,,
255403,1560687887400,0,1.91,2.18,3.14,1.46,3.16,0.99,0.49,0.02,-23,3,-26,1.11,5086,8,86,33,40,909,300.0,391,451,60,121.0,147,1,301,204,39,0,0,291,100,-214,261,,,,,,,,,,,,
255423,1560687887420,3,1.91,2.2,3.12,1.48,3.17,1.09,0.59,0.11,-24,-3,-27,1.24,5029,8,86,33,41,923,299.0,389,452,60,123.0,147,1,301,206,39,0,0,293,95,-1,260,,,,,,,,,,,,
255443,1560687887440,4,1.9,2.2,3.12,1.47,3.17,0.95,0.63,0.07,-24,2,-28,1.14,4993,8,86,33,42,930,296.0,388,457,60,122.0,147,1,300,205,39,0,0,290,90,16896,258,45.702019,4.911037,28.58,200.8,2,1.8767,0,0.0,0.4333,3,0.34,4.2574
255463,1560687887460,1,1.9,2.2,3.12,1.47,3.16,1.0,0.57,0.18,-26,2,-29,1.15,4984,8,86,33,42,937,295.0,381,445,60,120.0,147,1,300,207,39,0,0,287,23040,10812,257,,,,,,,,,,,,
255483,1560687887480,3,1.9,2.2,3.11,1.46,3.17,1.1,0.68,0.2,-26,-3,-29,1.29,4959,8,86,33,42,938,294.0,381,450,60,123.0,148,1,299,207,38,0,0,286,85,23482,255,,,,,,,,,,,,
255503,1560687887500,7,1.9,2.19,3.1,1.46,3.15,0.99,0.65,0.15,-25,-0,-31,1.18,4923,8,86,33,43,936,292.0,380,455,60,122.0,148,1,299,208,38,0,0,284,80,250,252,,,,,,,,,,,,
255523,1560687887520,5,1.92,2.18,3.1,1.46,3.13,0.97,0.65,0.14,-26,3,-33,1.17,4873,8,86,33,44,927,289.0,376,449,60,120.0,148,1,299,208,38,0,0,281,0,-17920,249,,,,,,,,,,,,
255543,1560687887540,6,1.92,2.17,3.11,1.48,3.11,1.01,0.59,0.23,-27,1,-34,1.17,4837,8,86,33,44,921,287.0,380,443,60,122.0,148,1,297,207,38,0,0,275,41,250,247,45.702015,4.911045,27.68,200.8,2,1.8767,0,0.0,0.435,3,0.34,4.259
255563,1560687887560,6,1.95,2.16,3.12,1.47,3.09,1.08,0.67,0.24,-27,-1,-34,1.27,4826,8,86,33,44,895,281.0,378,446,60,123.0,148,1,297,207,38,0,0,274,24064,-25600,245,,,,,,,,,,,,
255583,1560687887580,8,1.97,2.16,3.16,1.47,3.09,1.05,0.65,0.2,-26,-2,-34,1.24,4820,8,86,33,45,857,279.0,370,455,60,123.0,156,1,299,209,38,0,0,270,630,-25600,243,,,,,,,,,,,,
255603,1560687887599,10,2.01,2.15,3.18,1.49,3.06,0.96,0.63,0.18,-25,1,-35,1.14,4772,8,86,33,45,835,276.0,371,457,60,121.0,156,1,297,208,38,0,0,270,-1527,13602,242,,,,,,,,,,,,
255623,1560687887619,5,2.07,2.14,3.19,1.52,3.02,0.89,0.59,0.18,-25,4,-36,1.07,4681,8,86,33,46,814,272.0,363,449,60,121.0,156,1,298,208,38,0,0,266,250,250,241,,,,,,,,,,,,
255643,1560687887639,4,2.11,2.12,3.2,1.53,2.96,0.87,0.5,0.23,-24,4,-35,1.01,4594,8,86,33,45,800,269.0,360,446,60,122.0,156,1,294,203,38,0,0,262,-1,-1483,240,45.702015,4.911054,26.42,200.8,2,1.8767,0,0.0,0.4367,3,0.34,4.2607
255663,1560687887659,3,2.17,2.1,3.21,1.59,2.87,0.83,0.39,0.26,-23,5,-35,0.92,4545,8,86,33,45,787,263.0,353,448,60,122.0,156,1,292,202,38,0,0,257,-1,250,239,,,,,,,,,,,,
255683,1560687887679,-1,2.23,2.05,3.24,1.66,2.81,0.83,0.23,0.29,-22,5,-34,0.86,4507,8,86,33,45,789,258.0,345,452,60,121.0,141,1,292,205,34,0,0,249,-10440,13468,240,,,,,,,,,,,,
255703,1560687887699,1,2.28,1.99,3.29,1.75,2.78,0.84,0.12,0.35,-19,5,-31,0.85,4486,8,86,33,46,795,252.0,345,453,60,121.0,141,1,294,204,34,0,0,244,-1,-25600,242,,,,,,,,,,,,
255723,1560687887719,-1,2.34,1.91,3.34,1.82,2.75,0.83,0.02,0.42,-17,5,-28,0.83,4486,8,86,33,46,809,248.0,339,450,60,122.0,141,1,294,204,34,0,0,238,15360,250,244,,,,,,,,,,,,
255743,1560687887739,-0,2.38,1.87,3.39,1.84,2.74,0.78,-0.06,0.43,-15,5,-25,0.78,4467,8,86,33,46,836,244.0,340,455,60,121.0,141,1,294,204,34,0,0,239,-17920,23482,244,45.702011,4.911062,25.11,200.8,2,1.8767,0,0.0,0.4383,3,0.34,4.2624
255763,1560687887759,0,2.43,1.84,3.41,1.9,2.72,0.7,-0.14,0.42,-13,6,-22,0.72,4454,8,86,33,46,849,247.0,338,454,60,121.0,141,1,293,204,34,0,0,237,250,23482,247,,,,,,,,,,,,
255783,1560687887779,0,2.48,1.84,3.43,1.96,2.71,0.67,-0.21,0.4,-10,9,-18,0.7,4445,8,86,33,46,863,248.0,336,456,60,121.0,137,1,293,203,34,0,0,233,-1483,250,248,,,,,,,,,,,,
255803,1560687887799,-1,2.55,1.83,3.45,2.01,2.71,0.6,-0.27,0.4,-7,11,-15,0.66,4478,8,86,33,46,878,249.0,338,452,60,122.0,137,1,294,204,34,0,0,231,250,10812,249,,,,,,,,,,,,
255823,1560687887819,1,2.6,1.83,3.47,2.06,2.68,0.53,-0.37,0.38,-4,12,-12,0.65,4448,8,86,33,46,896,250.0,337,451,60,121.0,137,1,293,203,34,0,0,226,-1496,15360,250,,,,,,,,,,,,
255843,1560687887839,3,2.66,1.83,3.51,2.11,2.65,0.43,-0.45,0.32,-1,13,-9,0.62,4412,8,86,34,46,904,251.0,336,450,60,122.0,137,1,292,203,34,0,0,222,19968,16896,251,45.702011,4.91107,24.85,200.8,2,1.8767,0,0.0,0.44,3,0.34,4.264
255863,1560687887859,4,2.71,1.82,3.54,2.14,2.65,0.38,-0.53,0.27,2,16,-6,0.65,4380,8,86,34,46,905,252.0,333,459,60,123.0,137,1,292,202,34,0,0,218,15360,-1494,252,,,,,,,,,,,,
255883,1560687887879,4,2.76,1.81,3.56,2.17,2.64,0.38,-0.54,0.27,6,16,-2,0.66,4362,8,86,34,46,904,253.0,330,455,60,122.0,130,1,292,201,33,0,0,215,1210,10812,253,,,,,,,,,,,,
255903,1560687887899,1,2.81,1.77,3.6,2.18,2.63,0.48,-0.58,0.32,9,14,2,0.75,4314,8,86,34,46,903,255.0,327,456,60,123.0,130,1,291,200,33,0,0,212,-1532,10818,255,,,,,,,,,,,,
255923,1560687887919,-0,2.84,1.75,3.63,2.2,2.62,0.58,-0.64,0.39,12,9,7,0.86,4244,9,86,34,46,901,257.0,323,455,60,123.0,130,1,290,198,33,0,0,207,1088,16896,257,,,,,,,,,,,,
255943,1560687887939,-1,2.9,1.73,3.67,2.21,2.61,0.68,-0.67,0.43,15,4,12,0.96,4235,11,86,34,47,899,258.0,323,448,60,123.0,130,1,294,202,33,0,0,204,966,250,258,45.702007,4.911079,24.28,200.8,2,1.8767,0,0.0,0.4417,3,0.35,4.2657
255963,1560687887959,-1,0.33,1.72,3.7,2.2,2.61,0.65,-0.75,0.41,17,4,15,0.99,4173,12,86,34,48,898,258.0,320,456,60,120.0,130,1,293,205,33,0,0,199,-14848,250,258,,,,,,,,,,,,
255983,1560687887979,2,0.4,1.72,3.69,2.22,2.6,0.59,-0.85,0.36,20,6,18,1.03,4184,13,86,34,49,898,258.0,317,453,60,121.0,124,1,294,209,32,0,0,198,13964,250,258,,,,,,,,,,,,
256003,1560687887995,1,0.43,1.71,3.7,2.22,2.6,0.61,-0.85,0.36,23,6,22,1.05,4209,14,86,34,50,898,258.0,316,463,60,123.0,124,1,295,214,32,0,0,195,-29696,16896,258,,,,,,,,,,,,
256023,1560687888015,-1,0.44,1.7,3.7,2.21,2.59,0.71,-0.89,0.43,26,2,27,1.14,4205,15,86,34,51,901,259.0,314,462,60,123.0,124,1,295,218,32,0,0,193,12800,-214,259,,,,,,,,,,,,
256043,1560687888035,-0,0.43,1.71,3.7,2.2,2.59,0.78,-0.93,0.47,28,-1,32,1.21,4204,16,86,34,52,903,257.0,313,452,60,122.0,124,1,296,222,32,0,0,191,12800,16896,257,45.702004,4.911087,23.45,200.8,2,1.8767,0,0.0,0.4433,3,0.35,4.2674
256063,1560687888055,-0,0.44,1.7,3.7,2.21,2.58,0.78,-0.98,0.47,31,-2,36,1.25,4267,17,86,34,54,906,260.0,315,452,60,122.0,124,1,298,230,32,0,0,189,13874,15360,260,,,,,,,,,,,,
256083,1560687888075,3,0.44,1.71,3.71,2.2,2.59,0.7,-1.03,0.4,33,-1,39,1.25,4281,17,86,34,55,909,260.0,318,456,60,121.0,146,1,298,239,38,0,0,186,-1480,10812,260,,,,,,,,,,,,
256103,1560687888099,3,0.43,1.7,3.7,2.21,2.54,0.7,-1.06,0.37,35,2,41,1.27,4290,18,86,34,57,909,259.0,316,458,60,122.0,146,1,296,244,38,0,0,186,-1480,-1494,259,,,,,,,,,,,,
256123,1560687888119,3,0.43,1.71,3.7,2.2,2.53,0.67,-1.04,0.33,37,2,43,1.23,4328,18,86,34,58,909,260.0,317,461,60,123.0,146,1,295,249,38,0,0,184,19456,15360,260,,,,,,,,,,,,
256143,1560687888139,2,0.43,1.71,3.7,2.2,2.53,0.69,-1.06,0.32,39,3,45,1.26,4375,18,86,34,59,907,260.0,318,466,60,123.0,146,1,294,254,38,0,0,182,-1481,250,260,45.702004,4.911093,22.12,200.8,2,1.8767,0,0.0,0.445,3,0.35,4.2691
256163,1560687888159,-1,0.43,1.71,3.7,2.19,2.53,0.8,-1.07,0.35,40,1,47,1.33,4416,19,86,34,60,904,258.0,323,470,60,123.0,146,1,294,260,38,0,0,182,-1481,15360,258,,,,,,,,,,,,
256183,1560687888179,1,0.43,1.71,3.69,2.19,2.52,0.86,-1.0,0.33,41,-1,50,1.32,4429,22,86,34,61,901,258.0,324,464,60,123.0,170,1,293,265,44,0,0,181,-1481,23482,258,,,,,,,,,,,,
256203,1560687888199,1,0.42,1.7,3.7,2.19,2.53,0.89,-0.99,0.37,43,-3,53,1.34,4499,25,86,34,63,899,257.0,326,457,60,123.0,170,1,293,271,44,0,0,182,-1481,23482,257,,,,,,,,,,,,
256223,1560687888219,-0,0.42,1.71,3.7,2.18,2.52,0.95,-0.98,0.41,44,-4,54,1.36,4425,31,86,34,66,899,257.0,327,455,60,123.0,170,1,293,287,44,0,0,212,-1481,-1445,257,,,,,,,,,,,,
256243,1560687888239,-1,0.41,1.73,3.69,2.19,2.51,1.01,-0.89,0.43,45,-7,56,1.35,4416,34,86,34,69,899,257.0,323,451,60,123.0,170,1,293,308,44,0,0,257,-1481,23482,257,45.701996,4.911099,21.61,200.8,2,1.8767,0,0.0,0.4467,3,0.35,4.2707
256263,1560687888259,-2,0.4,1.73,3.67,2.19,2.49,0.99,-0.86,0.38,45,-8,57,1.31,4498,40,86,34,73,903,256.0,297,458,60,123.0,170,1,291,324,44,0,0,242,250,-1445,256,,,,,,,,,,,,
256283,1560687888279,-2,0.36,1.72,3.68,2.18,2.51,1.02,-0.86,0.36,46,-9,58,1.34,4515,48,86,34,77,904,255.0,265,459,60,123.0,223,1,290,349,57,0,0,225,250,-17920,255,,,,,,,,,,,,
256303,1560687888299,-2,2.93,1.72,3.67,2.19,2.5,1.06,-0.84,0.37,46,-10,60,1.35,4537,59,86,34,84,915,256.0,270,463,60,123.0,223,1,288,428,57,0,0,229,19456,250,256,,,,,,,,,,,,
256323,1560687888319,0,2.86,1.72,3.64,2.19,2.5,1.04,-0.79,0.41,46,-9,61,1.3,4534,70,86,34,90,924,255.0,282,470,60,123.0,223,1,288,458,57,0,0,259,14412,-1445,257,,,,,,,,,,,,
256343,1560687888339,-1,2.82,1.74,3.58,2.18,2.51,1.01,-0.76,0.44,45,-8,61,1.27,4444,80,86,34,95,929,256.0,264,452,60,123.0,223,1,290,590,57,0,0,241,14412,-1445,255,45.701996,4.911104,20.62,200.8,2,1.8767,0,0.0,0.4483,3,0.35,4.2724
256363,1560687888359,-1,2.76,1.83,3.5,2.18,2.51,1.02,-0.72,0.48,45,-8,62,1.25,4380,86,86,34,97,936,254.0,270,465,60,123.0,223,1,291,645,57,0,0,196,250,15360,251,,,,,,,,,,,,
256383,1560687888379,1,2.7,1.92,3.41,2.18,2.5,1.02,-0.67,0.53,43,-8,62,1.22,4175,88,86,34,97,943,253.0,275,447,60,121.0,411,1,295,644,104,0,0,201,250,23482,253,,,,,,,,,,,,
256403,1560687888399,5,2.63,2.0,3.31,2.17,2.51,0.98,-0.62,0.52,41,-7,60,1.15,4084,89,86,34,97,952,250.0,271,443,60,121.0,411,1,296,643,104,0,0,203,13964,-1445,250,,,,,,,,,,,,
256423,1560687888419,0,2.57,2.06,3.24,2.17,2.53,0.99,-0.52,0.5,39,-5,59,1.11,4111,89,86,34,98,958,248.0,276,455,60,122.0,411,1,295,643,104,0,0,204,250,-17920,248,,,,,,,,,,,,
256443,1560687888439,-1,2.51,2.12,3.16,2.16,2.59,0.93,-0.47,0.5,37,-4,57,1.04,4315,90,86,34,97,960,245.0,281,470,60,123.0,411,1,292,645,104,0,0,210,-14848,-1484,245,45.701992,4.911108,20.79,200.8,2,1.8767,0,0.0,0.45,3,0.35,4.274
256463,1560687888459,-0,2.43,2.17,3.13,2.15,2.66,0.82,-0.4,0.5,35,-3,55,0.92,4457,90,86,34,97,1003,241.0,287,458,60,123.0,411,1,290,646,104,0,0,218,16384,-1484,241,,,,,,,,,,,,
256483,1560687888479,2,2.36,2.21,3.09,2.13,2.68,0.77,-0.27,0.5,33,-1,51,0.81,4567,91,86,34,98,1078,239.0,296,462,60,123.0,481,1,287,647,116,0,0,222,-1532,-17920,239,,,,,,,,,,,,
256503,1560687888499,2,2.29,2.24,3.04,2.1,2.67,0.67,-0.15,0.52,30,1,48,0.69,4608,91,86,34,97,1122,238.0,307,461,60,123.0,481,1,287,647,116,0,0,232,250,250,238,,,,,,,,,,,,
256523,1560687888519,2,2.22,2.29,2.97,2.1,2.67,0.62,-0.09,0.54,27,2,44,0.63,4669,91,86,34,98,1192,237.0,315,465,60,123.0,481,1,285,674,116,0,0,243,8704,23482,237,,,,,,,,,,,,
256543,1560687888539,6,2.15,2.36,2.9,2.1,2.66,0.62,-0.04,0.6,23,2,39,0.63,4708,91,86,34,98,1260,241.0,326,456,60,122.0,481,1,285,674,116,0,0,249,-17920,250,237,45.701984,4.911112,20.16,200.9,2,1.8767,0,0.0,0.4517,3,0.35,4.2757
256563,1560687888559,0,2.1,2.43,2.82,2.11,2.66,0.67,0.01,0.69,18,2,34,0.67,4712,91,86,34,97,1332,247.0,332,445,60,120.0,481,1,285,674,116,0,0,254,-1494,250,237,,,,,,,,,,,,
256583,1560687888579,1,2.05,2.46,2.8,2.07,2.71,0.7,0.04,0.75,14,-1,30,0.7,4701,91,86,34,97,1360,253.0,332,447,60,121.0,483,1,285,648,115,0,0,258,-1,-1,238,,,,,,,,,,,,
256603,1560687888599,0,2.02,2.51,2.77,2.05,2.78,0.68,0.16,0.72,11,-3,25,0.7,4743,91,86,34,97,1379,258.0,335,453,60,122.0,483,1,284,648,115,0,0,263,-10440,-41,241,,,,,,,,,,,,
256623,1560687888619,1,2.0,2.55,2.78,2.03,2.83,0.65,0.22,0.67,8,-3,21,0.69,4812,92,86,34,97,1364,262.0,340,452,60,123.0,483,1,283,648,115,0,0,266,-1,-10440,242,,,,,,,,,,,,
256643,1560687888639,4,1.97,2.58,2.84,2.02,2.86,0.66,0.22,0.71,6,-2,16,0.69,4944,92,86,34,97,1329,266.0,346,462,60,123.0,483,1,281,649,115,0,0,270,-1,-1,243,45.701981,4.911115,21.47,200.9,2,1.8767,0,0.0,0.4533,3,0.35,4.2774
256663,1560687888659,1,1.96,2.59,2.88,2.02,2.88,0.65,0.24,0.74,3,-3,12,0.7,5161,92,86,34,97,1289,268.0,355,455,60,121.0,483,1,285,636,115,0,0,272,-1,-1,245,,,,,,,,,,,,
256683,1560687888679,3,1.96,2.6,2.87,2.02,2.88,0.68,0.28,0.7,1,-1,8,0.73,5338,92,86,34,96,1239,272.0,362,460,60,123.0,508,1,291,602,125,0,0,275,250,-1534,246,,,,,,,,,,,,
256703,1560687888700,2,1.95,2.61,2.87,2.04,2.86,0.59,0.25,0.59,-1,0,4,0.64,5553,92,86,34,96,1160,278.0,372,458,60,123.0,508,1,300,586,125,0,0,286,630,21760,249,,,,,,,,,,,,
256723,1560687888720,1,1.95,2.61,2.84,2.04,2.84,0.57,0.26,0.68,-3,1,0,0.63,5785,92,86,34,95,1085,283.0,388,450,60,121.0,508,1,308,570,125,0,0,291,41,26880,250,,,,,,,,,,,,
256743,1560687888740,1,1.95,2.61,2.85,2.06,2.78,0.46,0.3,0.8,-5,-1,-3,0.55,5963,92,86,34,95,1035,291.0,400,450,60,121.0,508,1,315,547,125,0,0,302,20480,0,255,45.701977,4.911119,21.52,200.9,2,1.8767,0,0.0,0.455,3,0.35,4.279
256763,1560687888760,2,1.96,2.62,2.83,2.1,2.72,0.39,0.34,0.89,-6,-3,-6,0.52,6023,92,86,34,96,1015,298.0,410,454,60,121.0,508,1,318,554,125,0,0,317,95,135,260,,,,,,,,,,,,
256783,1560687888780,1,1.96,2.64,2.79,2.13,2.68,0.36,0.44,1.0,-8,-6,-8,0.57,6032,92,86,34,96,991,303.0,418,456,60,120.0,475,1,318,554,126,0,0,321,28160,6668,265,,,,,,,,,,,,
256803,1560687888800,5,1.96,2.65,2.73,2.13,2.67,0.26,0.57,1.09,-9,-7,-10,0.62,6081,92,86,34,95,968,310.0,423,450,60,122.0,475,1,321,552,126,0,0,321,125,-25856,270,,,,,,,,,,,,
256823,1560687888820,3,1.98,2.65,2.72,2.11,2.69,0.19,0.65,1.1,-10,-7,-13,0.68,6081,92,86,34,95,949,315.0,427,453,60,122.0,475,1,321,552,126,0,0,331,-29696,-24576,279,,,,,,,,,,,,
256843,1560687888840,3,2.01,2.64,2.73,2.1,2.72,0.11,0.69,1.03,-11,-8,-16,0.7,6113,92,86,34,95,950,323.0,433,445,60,123.0,475,1,322,543,126,0,0,340,-24576,-29302,282,45.701973,4.911124,23.8,200.9,2,1.8767,0,0.0,0.4567,3,0.35,4.2807
256863,1560687888860,4,2.03,2.64,2.74,2.09,2.74,0.02,0.67,0.95,-12,-7,-18,0.67,6275,93,86,34,95,950,326.0,436,445,60,122.0,475,1,331,541,126,0,0,340,165,2560,287,,,,,,,,,,,,
256883,1560687888880,-1,2.05,2.64,2.77,2.1,2.75,0.05,0.53,0.98,-12,-3,-20,0.53,6379,96,86,34,96,945,329.0,447,448,60,122.0,448,1,335,539,131,0,0,349,-20736,-24576,292,,,,,,,,,,,,
256903,1560687888900,3,2.08,2.64,2.78,2.11,2.74,0.19,0.48,1.01,-15,-2,-21,0.51,6481,97,86,34,96,937,334.0,456,453,60,121.0,448,1,341,541,131,0,0,344,4838,3327,300,,,,,,,,,,,,
256923,1560687888920,6,2.09,2.63,2.78,2.13,2.74,0.14,0.57,1.02,-15,-2,-23,0.58,6572,98,86,34,95,933,337.0,463,448,60,122.0,448,1,346,539,131,0,0,352,2560,3082,305,,,,,,,,,,,,
256943,1560687888940,1,2.11,2.63,2.79,2.13,2.74,0.17,0.47,1.05,-15,-0,-23,0.5,6679,98,86,34,96,929,338.0,472,445,60,121.0,448,1,350,537,131,0,0,356,6668,-30438,311,45.701965,4.91113,27.68,200.9,2,1.8767,0,0.0,0.4583,3,0.35,4.2824
256963,1560687888960,5,2.13,2.63,2.81,2.13,2.74,0.21,0.54,1.06,-16,-1,-23,0.58,6742,98,86,34,95,932,343.0,477,449,60,121.0,448,1,355,534,131,0,0,358,-14714,-1246,319,,,,,,,,,,,,
256983,1560687888980,2,2.15,2.62,2.82,2.13,2.71,0.18,0.47,1.11,-15,-0,-23,0.51,6800,99,86,34,96,937,348.0,479,450,60,121.0,428,1,358,532,137,0,0,363,-1246,1,325,,,,,,,,,,,,
257003,1560687888992,-1,2.17,2.62,2.8,2.14,2.66,0.17,0.6,1.13,-16,-3,-23,0.62,6893,99,86,34,95,948,353.0,483,443,60,122.0,428,1,363,530,137,0,0,369,-6644,3302,331,,,,,,,,,,,,
257023,1560687889012,5,2.17,2.6,2.82,2.14,2.62,0.3,0.48,1.21,-15,-0,-22,0.57,6848,99,86,34,95,962,356.0,482,451,60,121.0,428,1,360,531,137,0,0,368,4104,-6458,336,,,,,,,,,,,,
257043,1560687889032,2,2.17,2.58,2.81,2.14,2.62,0.16,0.57,1.16,-14,1,-21,0.59,6820,99,86,34,95,966,359.0,485,442,60,122.0,428,1,359,531,137,0,0,373,-29302,2278,345,45.701958,4.911137,30.54,201.0,2,1.8767,0,0.0,0.46,3,0.35,4.284
257063,1560687889052,4,2.2,2.55,2.81,2.13,2.61,0.34,0.39,1.21,-14,-1,-21,0.52,6900,99,86,34,96,971,364.0,486,451,60,121.0,428,1,363,531,137,0,0,373,-1268,0,352,,,,,,,,,,,,
257083,1560687889072,0,2.2,2.54,2.82,2.13,2.63,0.17,0.36,1.13,-11,2,-20,0.4,6975,99,86,34,96,966,368.0,495,450,60,121.0,390,1,366,530,139,0,0,380,0,3,356,,,,,,,,,,,,
257103,1560687889096,-0,2.19,2.53,2.88,2.13,2.61,0.26,0.41,1.09,-12,0,-20,0.48,7075,100,86,34,95,954,371.0,500,451,60,122.0,390,1,374,533,139,0,0,379,1,-6656,361,,,,,,,,,,,,
257123,1560687889116,5,2.19,2.51,2.88,2.15,2.6,0.44,0.3,1.11,-12,0,-18,0.53,7256,100,86,34,95,927,376.0,505,452,60,121.0,390,1,388,542,139,0,0,384,-6656,-19126,365,,,,,,,,,,,,
257143,1560687889136,6,2.19,2.51,2.91,2.14,2.62,0.31,0.27,1.15,-10,2,-17,0.41,7387,100,86,34,94,883,380.0,511,449,60,122.0,390,1,399,549,139,0,0,394,-18948,-1818,370,45.701954,4.911145,32.7,201.0,2,1.8767,0,0.0,0.4617,3,0.35,4.2857
257163,1560687889156,5,2.16,2.52,2.91,2.15,2.62,0.27,0.26,1.13,-10,3,-16,0.38,7591,100,86,34,94,853,385.0,527,452,60,122.0,390,1,414,559,139,0,0,397,240,-4059,375,,,,,,,,,,,,
257183,1560687889176,1,2.17,2.54,2.9,2.15,2.63,0.39,0.14,1.18,-9,0,-16,0.41,7754,100,86,34,93,831,391.0,538,450,60,121.0,440,1,427,568,166,0,0,406,505,-26615,379,,,,,,,,,,,,
257203,1560687889198,2,2.17,2.56,2.86,2.16,2.61,0.48,0.16,1.18,-10,-1,-15,0.51,7958,100,86,34,92,805,396.0,549,450,60,122.0,440,1,444,575,166,0,0,412,-3968,-21944,383,,,,,,,,,,,,
257223,1560687889218,3,2.17,2.57,2.82,2.16,2.59,0.38,0.32,1.24,-10,-1,-15,0.5,8092,100,86,34,92,772,402.0,549,452,60,120.0,440,1,446,579,166,0,0,419,1504,31796,389,,,,,,,,,,,,
257243,1560687889238,2,2.17,2.58,2.82,2.17,2.58,0.42,0.25,1.25,-10,-1,-17,0.48,8155,100,86,34,91,774,409.0,564,452,60,121.0,440,1,445,594,166,0,0,444,11560,19477,396,45.70195,4.911154,35.88,201.0,2,1.8767,0,0.0,0.4633,3,0.35,4.2874
257263,1560687889258,3,2.18,2.59,2.82,2.18,2.57,0.34,0.4,1.26,-10,-1,-16,0.52,8300,100,86,34,90,779,417.0,570,452,60,121.0,440,1,443,610,166,0,0,446,-21944,21432,400,,,,,,,,,,,,
257283,1560687889278,3,2.16,2.59,2.82,2.17,2.57,0.42,0.2,1.17,-10,-0,-16,0.47,8438,100,86,34,90,786,422.0,575,451,60,121.0,483,1,438,626,196,0,0,452,-3414,-3267,406,,,,,,,,,,,,
257303,1560687889300,1,2.17,2.59,2.82,2.17,2.58,0.45,0.16,1.25,-10,-1,-16,0.48,8600,100,86,34,89,795,428.0,590,448,60,121.0,483,1,432,622,196,0,0,465,1779,10432,413,,,,,,,,,,,,
257323,1560687889320,2,2.17,2.59,2.82,2.16,2.59,0.27,0.34,1.23,-11,-2,-15,0.44,8741,100,86,34,88,802,438.0,590,456,60,121.0,483,1,426,611,196,0,0,460,21580,-17956,418,,,,,,,,,,,,
257343,1560687889340,5,2.17,2.6,2.81,2.16,2.6,0.14,0.51,1.12,-11,1,-16,0.53,8937,100,86,34,87,807,442.0,601,457,60,122.0,483,1,420,611,196,0,0,475,23400,8488,422,45.701942,4.911163,38.36,201.1,2,1.8767,0,0.0,0.465,3,0.36,4.2891
257363,1560687889360,1,2.19,2.6,2.81,2.15,2.6,0.06,0.66,1.03,-11,0,-15,0.66,9115,100,86,34,87,825,450.0,603,453,60,121.0,483,1,418,599,196,0,0,488,-3267,16648,429,,,,,,,,,,,,
257383,1560687889380,1,2.2,2.66,2.82,2.17,2.58,-0.07,0.74,1.09,-10,-1,-16,0.74,9263,100,86,34,87,845,456.0,611,450,60,120.0,483,1,418,599,209,0,0,497,14488,-899,433,,,,,,,,,,,,
257403,1560687889400,3,2.21,2.72,2.83,2.29,2.54,-0.16,0.82,1.11,-10,-1,-15,0.83,9356,100,86,34,87,857,457.0,612,455,60,122.0,483,1,418,599,209,0,0,500,17628,-6656,438,,,,,,,,,,,,
257423,1560687889420,5,2.21,2.73,2.81,2.35,2.53,0.01,0.63,1.17,-11,-2,-17,0.63,9445,100,86,34,87,875,463.0,623,446,60,121.0,483,1,418,599,209,0,0,502,6193,-3856,446,,,,,,,,,,,,
257443,1560687889440,3,2.21,2.75,2.78,2.35,2.53,0.09,0.5,1.1,-11,-0,-17,0.5,9541,100,86,34,87,894,468.0,623,454,60,121.0,483,1,418,589,209,0,0,493,-16384,-4054,452,45.701935,4.911174,40.94,201.1,2,1.8767,0,0.0,0.4667,3,0.36,4.2907
257463,1560687889460,4,2.22,2.74,2.76,2.33,2.56,0.0,0.65,1.05,-10,-0,-14,0.65,9595,100,86,34,86,925,475.0,621,451,60,121.0,483,1,414,591,209,0,0,515,-17956,2104,460,,,,,,,,,,,,
257483,1560687889480,4,2.24,2.72,2.76,2.31,2.56,0.1,0.57,1.14,-9,-3,-16,0.58,9704,100,86,34,86,954,480.0,627,455,60,121.0,469,1,410,593,218,0,0,528,8488,26178,468,,,,,,,,,,,,
257503,1560687889498,5,2.25,2.69,2.8,2.34,2.56,0.03,0.61,1.14,-8,-3,-15,0.61,9894,100,86,34,85,970,487.0,631,451,60,121.0,469,1,400,581,218,0,0,544,505,-3414,474,,,,,,,,,,,,
257523,1560687889518,0,2.25,2.66,2.98,2.37,2.58,0.15,0.49,1.15,-8,-6,-15,0.51,9989,100,86,34,85,977,489.0,628,455,60,121.0,469,1,397,582,218,0,0,581,-6656,-32248,484,,,,,,,,,,,,
257543,1560687889538,2,2.25,2.63,3.03,2.36,2.61,0.16,0.5,1.23,-9,-5,-13,0.53,10223,100,86,34,85,983,494.0,636,451,60,121.0,469,1,411,582,218,0,0,533,-9216,-28648,488,45.701927,4.911186,44.22,201.1,2,1.8767,0,0.0,0.4683,3,0.36,4.2924
257563,1560687889558,3,2.25,2.63,2.99,2.33,2.63,0.14,0.54,1.24,-9,-4,-12,0.56,10510,100,86,34,85,986,500.0,636,452,60,121.0,469,1,431,582,218,0,0,524,10408,-28648,492,,,,,,,,,,,,
257583,1560687889578,1,2.26,2.64,2.88,2.31,2.62,0.07,0.55,1.18,-8,-4,-11,0.56,10557,100,86,34,85,974,508.0,632,454,60,121.0,468,1,432,582,233,0,0,537,-3414,-32504,499,,,,,,,,,,,,
257603,1560687889600,3,2.25,2.62,2.83,2.29,2.54,0.0,0.56,1.25,-7,-3,-11,0.56,10623,100,86,34,85,968,511.0,636,453,60,121.0,468,1,434,582,233,0,0,601,-3856,-506,501,,,,,,,,,,,,
257623,1560687889620,5,2.26,2.63,2.85,2.36,2.45,0.06,0.53,1.32,-5,-0,-12,0.53,10623,100,86,34,85,963,518.0,635,455,60,121.0,468,1,434,582,233,0,0,597,1341,-32248,510,,,,,,,,,,,,
257643,1560687889640,4,2.25,2.62,2.87,2.37,2.41,0.11,0.44,1.31,-6,-1,-12,0.46,10605,100,86,34,85,962,523.0,631,456,60,120.0,468,1,433,582,233,0,0,560,-22519,-29984,521,45.70192,4.911199,47.86,201.1,2,1.8767,0,0.0,0.47,3,0.36,4.2941
257663,1560687889660,4,2.25,2.63,2.84,2.36,2.44,0.1,0.57,1.28,-6,-2,-8,0.58,10563,100,86,34,85,966,528.0,635,453,60,120.0,468,1,433,582,233,0,0,553,-28648,30227,525,,,,,,,,,,,,
257683,1560687889680,4,2.26,2.63,2.76,2.33,2.47,0.14,0.57,1.29,-6,-2,-7,0.59,10611,100,86,34,85,971,535.0,628,449,60,120.0,442,1,433,582,234,0,0,557,6274,23619,531,,,,,,,,,,,,
257703,1560687889699,5,2.26,2.63,2.81,2.33,2.49,0.25,0.42,1.31,-4,-2,-9,0.49,10744,100,86,34,85,974,538.0,637,456,60,120.0,442,1,437,582,234,0,0,586,-2336,-2934,535,,,,,,,,,,,,
257723,1560687889719,4,2.27,2.6,2.92,2.33,2.47,0.35,0.38,1.36,-3,-2,-9,0.52,10794,100,86,34,85,975,546.0,636,453,60,121.0,442,1,438,582,234,0,0,605,-22519,12552,543,,,,,,,,,,,,
257743,1560687889739,3,2.27,2.56,3.01,2.33,2.44,0.28,0.24,1.31,-3,-2,-8,0.37,10984,100,86,34,85,972,552.0,630,456,60,121.0,442,1,443,582,234,0,0,607,-28648,2211,551,45.701912,4.911212,50.6,201.1,2,1.8767,0,0.0,0.4717,3,0.36,4.2957
257763,1560687889759,6,2.28,2.54,3.03,2.32,2.46,0.26,0.28,1.26,-3,-3,-6,0.38,11042,100,86,34,84,968,556.0,636,453,60,120.0,442,1,442,582,234,0,0,576,-22359,6273,554,,,,,,,,,,,,
257783,1560687889779,5,2.28,2.55,2.97,2.31,2.49,0.35,0.12,1.33,-4,-1,-5,0.37,11174,100,86,34,84,958,562.0,639,453,60,121.0,425,1,442,582,238,0,0,582,-30159,-18357,559,,,,,,,,,,,,
257803,1560687889799,5,2.27,2.59,2.91,2.31,2.52,0.27,0.28,1.21,-3,1,-5,0.39,11329,100,86,34,84,951,570.0,646,451,60,121.0,425,1,441,564,238,0,0,591,-3190,-7939,567,,,,,,,,,,,,
257823,1560687889819,3,2.28,2.58,2.91,2.31,2.48,0.27,0.21,1.22,-1,3,-5,0.35,11425,100,86,34,84,945,570.0,638,454,60,120.0,425,1,441,564,238,0,0,609,774,243,569,,,,,,,,,,,,
257843,1560687889839,5,2.29,2.57,2.9,2.35,2.4,0.34,0.13,1.24,0,2,-7,0.37,11419,100,86,34,84,940,578.0,643,454,60,121.0,425,1,441,564,238,0,0,631,30208,30227,577,45.701904,4.911227,53.42,201.2,2,1.8767,0,0.0,0.4733,3,0.36,4.2974
257863,1560687889859,4,2.28,2.55,2.91,2.38,2.35,0.34,0.16,1.25,0,1,-7,0.38,11432,100,86,34,84,925,584.0,641,453,60,121.0,425,1,441,564,238,0,0,621,8488,-3820,584,,,,,,,,,,,,
257883,1560687889879,3,2.28,2.53,2.9,2.4,2.37,0.44,0.15,1.2,-1,0,-5,0.46,11467,100,86,34,84,909,589.0,643,459,60,121.0,417,1,441,564,245,0,0,618,208,26688,589,,,,,,,,,,,,
257903,1560687889897,6,2.27,2.53,2.9,2.4,2.43,0.39,0.14,1.12,-2,-2,-3,0.42,11581,100,86,34,84,903,595.0,641,454,60,121.0,417,1,440,565,245,0,0,616,-28648,-2836,595,,,,,,,,,,,,
257923,1560687889917,6,2.28,2.53,2.9,2.39,2.52,0.32,0.03,1.14,-2,-2,-4,0.32,11704,100,86,34,84,893,599.0,640,456,60,120.0,417,1,440,569,245,0,0,618,-13043,-2580,598,,,,,,,,,,,,
257943,1560687889937,4,2.28,2.52,2.92,2.37,2.55,0.3,-0.02,1.14,-0,-3,-3,0.3,11852,100,86,34,83,878,603.0,646,458,60,120.0,417,1,440,555,245,0,0,628,5344,24,603,45.701897,4.911243,55.77,201.2,2,1.8767,0,0.0,0.475,3,0.36,4.299
257963,1560687889957,3,2.28,2.5,2.98,2.34,2.52,0.27,-0.12,1.17,2,-3,-3,0.3,11973,100,86,34,83,863,613.0,642,457,60,120.0,417,1,440,559,245,0,0,650,17740,-2580,613,,,,,,,,,,,,
257983,1560687889977,5,2.28,2.43,3.06,2.34,2.45,0.29,-0.26,1.19,3,-2,-3,0.39,12096,100,86,34,83,854,616.0,648,456,60,121.0,415,1,440,560,256,0,0,664,28675,244,616,,,,,,,,,,,,
258003,1560687889995,6,2.27,2.42,3.08,2.33,2.44,0.27,-0.37,1.16,3,-1,-2,0.46,12207,100,86,34,83,849,619.0,646,455,60,121.0,415,1,440,560,256,0,0,653,-18357,244,619,,,,,,,,,,,,
258023,1560687890015,6,2.28,2.42,3.04,2.32,2.44,0.27,-0.35,1.19,2,0,0,0.44,12238,100,86,34,83,834,624.0,652,456,60,120.0,415,1,440,560,256,0,0,646,506,-10344,624,,,,,,,,,,,,
258043,1560687890035,4,2.28,2.52,2.9,2.31,2.42,0.21,-0.31,1.17,2,-5,1,0.37,12270,100,86,33,83,825,628.0,646,456,60,120.0,415,1,440,560,256,0,0,645,3,-3488,627,45.701885,4.91126,58.36,201.2,2,1.8767,0,0.0,0.4767,3,0.36,4.3007
258063,1560687890055,3,2.28,2.58,2.85,2.33,2.37,0.17,-0.26,1.02,3,-7,1,0.31,12230,100,86,33,83,816,633.0,650,455,60,120.0,415,1,440,560,256,0,0,661,966,-2830,631,,,,,,,,,,,,
258083,1560687890075,2,2.28,2.56,2.87,2.33,2.35,0.15,-0.21,1.04,2,-5,-0,0.26,12254,100,86,33,83,812,637.0,649,455,60,120.0,408,1,440,560,260,0,0,660,-4876,-10344,637,,,,,,,,,,,,
258103,1560687890099,3,2.28,2.55,2.9,2.36,2.37,0.19,-0.22,1.13,1,-4,-0,0.29,12295,100,86,33,83,798,642.0,650,459,60,121.0,408,1,440,560,260,0,0,672,16599,-10348,639,,,,,,,,,,,,
258123,1560687890119,5,2.28,2.55,3.01,2.4,2.44,0.21,-0.24,1.15,-0,-8,1,0.32,12384,100,86,33,83,788,643.0,645,455,60,120.0,408,1,440,560,260,0,0,670,24,-2830,645,,,,,,,,,,,,
258143,1560687890139,4,2.27,2.57,3.04,2.4,2.63,0.29,-0.33,1.01,-1,-11,1,0.44,12600,100,86,33,83,779,647.0,650,458,60,120.0,408,1,440,560,260,0,0,664,-8429,3543,649,45.701878,4.911277,60.82,201.2,2,1.8767,0,0.0,0.4783,3,0.37,4.3024
258163,1560687890159,3,2.29,2.54,3.12,2.39,2.68,0.32,-0.35,1.02,0,-10,0,0.47,12763,100,86,33,83,772,652.0,661,460,60,120.0,408,1,440,560,260,0,0,684,-6006,-26892,655,,,,,,,,,,,,
258183,1560687890179,2,2.28,2.52,3.16,2.39,2.68,0.26,-0.16,0.97,1,-8,0,0.3,12851,100,86,33,83,769,657.0,657,456,60,121.0,414,1,440,560,272,0,0,684,-2830,-3584,658,,,,,,,,,,,,
258203,1560687890199,5,2.28,2.49,3.24,2.38,2.69,0.35,-0.17,1.07,1,-4,0,0.39,12975,100,86,33,83,763,664.0,661,452,60,120.0,414,1,440,560,272,0,0,719,-26380,-10448,664,,,,,,,,,,,,
258223,1560687890219,3,2.28,2.49,3.23,2.38,2.66,0.34,-0.21,0.85,0,-5,1,0.4,13185,100,86,33,83,763,665.0,657,453,60,120.0,414,1,440,560,272,0,0,694,3543,14342,665,,,,,,,,,,,,
258243,1560687890239,5,2.28,2.51,3.16,2.39,2.6,0.25,-0.2,0.83,1,-4,2,0.32,13157,100,86,33,83,766,668.0,658,457,60,120.0,414,1,440,560,272,0,0,690,-2830,-10448,668,45.70187,4.911294,63.75,201.2,2,1.8767,0,0.0,0.48,3,0.37,4.304
258263,1560687890259,3,2.28,2.53,3.1,2.4,2.54,0.35,-0.27,0.91,1,-5,1,0.44,13194,100,86,33,83,766,673.0,658,461,60,120.0,414,1,440,560,272,0,0,699,-2830,8010,675,,,,,,,,,,,,
258283,1560687890279,9,2.27,2.52,3.04,2.38,2.47,0.35,-0.17,1.02,1,-5,2,0.39,13167,100,86,33,83,764,678.0,653,459,60,120.0,423,1,440,560,287,0,0,701,-2826,24,677,,,,,,,,,,,,
258303,1560687890299,7,2.27,2.52,3.02,2.38,2.39,0.37,-0.23,0.99,2,-4,2,0.43,13093,100,86,33,83,761,681.0,657,448,60,120.0,423,1,440,560,287,0,0,710,-26562,-30694,681,,,,,,,,,,,,
258323,1560687890319,3,2.27,2.5,3.04,2.36,2.39,0.39,-0.1,0.88,1,-4,2,0.41,13148,100,86,33,83,757,687.0,650,458,60,120.0,423,1,440,560,287,0,0,718,6208,-20693,686,,,,,,,,,,,,
258343,1560687890339,4,2.26,2.45,3.07,2.31,2.46,0.42,-0.13,0.99,1,-6,4,0.44,13176,100,86,33,83,753,691.0,664,457,60,121.0,423,1,440,560,287,0,0,709,12333,-13312,690,45.701855,4.911313,65.01,201.1,2,1.8767,0,0.0,0.4817,3,0.37,4.3057
258363,1560687890359,5,2.26,2.44,3.08,2.29,2.5,0.38,-0.1,1.09,0,-4,3,0.4,13345,100,86,33,83,748,696.0,654,457,60,120.0,423,1,440,560,287,0,0,714,16599,204,696,,,,,,,,,,,,
258383,1560687890379,3,2.26,2.45,3.05,2.27,2.57,0.39,0.01,1.1,1,-4,2,0.39,13460,100,86,33,83,746,698.0,664,458,60,120.0,407,1,440,560,285,0,0,718,24,204,697,,,,,,,,,,,,
258403,1560687890401,3,2.26,2.45,3.04,2.26,2.53,0.45,-0.0,1.13,0,-3,3,0.45,13577,100,86,33,83,745,703.0,660,447,60,120.0,407,1,440,575,285,0,0,724,11069,-2918,705,,,,,,,,,,,,
258423,1560687890421,4,2.24,2.44,2.98,2.25,2.47,0.46,-0.11,1.21,-0,-2,1,0.47,13518,100,86,33,83,747,705.0,662,455,60,120.0,407,1,440,560,285,0,0,724,-20693,-2560,705,,,,,,,,,,,,
258443,1560687890441,2,2.26,2.43,3.0,2.25,2.48,0.41,-0.15,1.14,-0,-0,-0,0.44,13577,100,86,33,83,750,713.0,657,452,60,120.0,407,1,440,560,285,0,0,737,6658,-3344,707,45.701847,4.911332,67.33,201.1,2,1.8767,0,0.0,0.4833,3,0.37,4.3074
258463,1560687890461,5,2.26,2.46,3.0,2.27,2.49,0.43,-0.04,1.12,-0,-2,0,0.44,13626,100,87,33,83,753,711.0,662,459,60,120.0,407,1,440,560,285,0,0,727,-13072,-2826,714,,,,,,,,,,,,
258483,1560687890481,3,2.25,2.53,2.99,2.29,2.5,0.44,-0.05,1.13,-0,-4,1,0.44,13686,100,87,33,83,757,710.0,664,451,60,120.0,409,1,440,560,290,0,0,733,-13072,-2826,712,,,,,,,,,,,,
258503,1560687890501,5,2.25,2.56,3.01,2.31,2.53,0.47,-0.06,1.22,-0,-4,1,0.47,13706,100,87,33,83,759,715.0,667,453,60,120.0,409,1,440,560,290,0,0,735,-2560,-2826,712,,,,,,,,,,,,
258523,1560687890521,7,2.26,2.56,3.11,2.28,2.58,0.58,-0.14,1.29,-0,-4,0,0.6,13786,100,87,33,83,759,720.0,656,453,60,120.0,409,1,440,560,290,0,0,742,-3450,136,718,,,,,,,,,,,,
258543,1560687890541,7,2.25,2.55,3.21,2.24,2.68,0.55,-0.08,1.24,0,-5,-2,0.56,13756,100,87,33,84,757,725.0,661,449,60,120.0,409,1,440,575,290,0,0,744,1524,-13068,721,45.701836,4.911351,69.23,201.2,2,1.8767,0,0.0,0.485,3,0.37,4.3091
258563,1560687890561,1,2.25,2.54,3.28,2.25,2.73,0.54,-0.14,1.11,-0,-7,-2,0.56,13868,100,87,33,83,754,728.0,667,465,60,121.0,409,1,440,560,290,0,0,748,-3344,3462,724,,,,,,,,,,,,
258583,1560687890581,3,2.25,2.52,3.28,2.22,2.75,0.56,-0.2,1.08,-1,-7,-2,0.59,13847,100,87,33,83,752,731.0,671,458,60,121.0,404,1,440,560,294,0,0,744,-2314,-2574,728,,,,,,,,,,,,
258603,1560687890599,4,2.26,2.4,3.23,2.13,2.75,0.5,-0.12,1.1,0,-5,-1,0.51,13899,100,87,33,84,750,737.0,675,447,60,121.0,404,1,440,575,294,0,0,742,-3580,-31066,729,,,,,,,,,,,,
258623,1560687890619,-2,2.26,2.37,3.11,2.09,2.71,0.55,-0.12,1.12,-0,-5,-2,0.57,13888,100,87,33,84,749,738.0,667,460,60,123.0,404,1,440,575,294,0,0,744,-2830,-4096,736,,,,,,,,,,,,
258643,1560687890639,-0,2.26,2.35,3.02,2.07,2.65,0.43,-0.11,1.01,0,-0,-3,0.45,13518,100,87,33,85,752,736.0,673,462,60,124.0,404,1,440,592,294,0,0,736,1037,-22796,734,45.701824,4.911371,71.28,201.2,2,1.8767,0,0.0,0.4867,3,0.38,4.3107
258663,1560687890659,2,2.25,2.34,2.94,2.04,2.56,0.59,-0.15,0.91,-0,2,-5,0.61,13241,100,87,33,84,757,740.0,670,462,60,123.0,404,1,440,575,294,0,0,737,-2356,-31066,738,,,,,,,,,,,,
258683,1560687890679,-0,2.25,2.29,2.88,2.03,2.47,0.64,-0.08,0.9,0,3,-5,0.65,12922,100,87,33,84,773,735.0,672,450,60,123.0,383,1,440,575,283,0,0,735,1037,-2356,733,,,,,,,,,,,,
258703,1560687890700,-2,2.26,2.28,2.93,2.02,2.54,0.68,-0.07,0.99,-1,1,-2,0.68,12729,100,87,33,83,786,731.0,664,455,60,123.0,383,1,440,575,283,0,0,735,-2826,1037,730,,,,,,,,,,,,
258723,1560687890720,1,2.26,2.29,3.01,2.02,2.59,0.81,-0.02,1.03,-2,-6,-3,0.81,12433,100,87,33,84,799,730.0,667,464,60,123.0,383,1,440,575,283,0,0,735,-2358,136,728,,,,,,,,,,,,
258743,1560687890740,7,2.26,2.37,3.04,2.09,2.61,0.54,0.04,1.08,-0,-9,-6,0.54,11281,100,87,33,85,806,737.0,647,460,60,121.0,383,1,442,1013,283,0,0,835,-3580,-1582,731,45.701817,4.911391,72.0,201.1,2,1.8767,0,0.0,0.4883,3,0.38,4.3124
258763,1560687890760,3,2.26,2.46,3.1,2.18,2.57,0.6,0.05,1.06,-1,-6,-6,0.61,10486,100,87,33,87,923,739.0,637,451,60,120.0,383,1,432,976,283,0,0,922,-13068,-11532,737,,,,,,,,,,,,
258783,1560687890780,3,2.26,2.53,3.14,2.23,2.68,0.67,0.1,0.95,-0,-7,-6,0.67,11075,100,87,33,86,1039,743.0,645,456,60,120.0,501,1,445,845,371,0,0,760,-13068,6790,737,,,,,,,,,,,,
258803,1560687890794,7,2.24,2.56,3.21,2.33,2.74,0.64,0.15,1.03,0,-9,-5,0.66,11301,100,87,33,85,1175,743.0,649,461,60,120.0,501,1,441,712,371,0,0,777,-22796,6389,739,,,,,,,,,,,,
258823,1560687890814,1,2.26,2.63,3.2,2.4,2.74,0.61,0.14,0.96,-1,-11,-6,0.63,11094,100,87,33,84,1255,750.0,650,457,60,121.0,501,1,443,597,371,0,0,847,-4096,-30469,745,,,,,,,,,,,,
258843,1560687890834,3,2.25,2.64,3.2,2.41,2.79,0.52,0.14,0.89,-1,-8,-8,0.54,11261,100,87,33,84,1389,752.0,640,459,60,120.0,501,1,441,564,371,0,0,842,-31068,-2570,746,45.701801,4.911412,72.89,201.1,2,1.8767,0,0.0,0.49,3,0.38,4.3141
258863,1560687890854,3,2.25,2.62,3.19,2.41,2.8,0.48,0.12,0.82,0,-5,-8,0.49,11602,100,87,33,84,1470,756.0,645,455,60,121.0,501,1,440,566,371,0,0,806,-31066,-22795,751,,,,,,,,,,,,
258883,1560687890874,4,2.25,2.62,3.21,2.42,2.78,0.48,0.28,0.83,0,-5,-5,0.55,11524,100,87,33,83,1498,759.0,639,460,60,120.0,328,1,440,545,247,0,0,873,5876,-10508,752,,,,,,,,,,,,
258903,1560687890900,4,2.26,2.65,3.21,2.4,2.72,0.52,0.22,0.86,-1,-5,-5,0.56,11481,100,87,33,83,1498,764.0,645,459,60,121.0,328,1,441,545,247,0,0,860,-10216,966,759,,,,,,,,,,,,
258923,1560687890920,4,2.25,2.65,3.1,2.36,2.66,0.62,0.15,0.94,-2,-7,-6,0.64,11574,100,87,33,83,1429,770.0,639,457,60,121.0,328,1,440,547,247,0,0,791,-10212,-2826,763,,,,,,,,,,,,
258943,1560687890940,5,2.26,2.63,3.0,2.29,2.56,0.65,-0.04,1.04,-3,-7,-5,0.65,11419,100,87,33,83,1312,776.0,642,450,60,120.0,328,1,441,545,247,0,0,834,-2574,-25858,769,45.701794,4.911432,74.23,201.1,2,1.8767,0,0.0,0.4917,3,0.38,4.3157
258963,1560687890960,5,2.27,2.63,2.89,2.3,2.49,0.62,-0.12,0.95,-3,-2,-5,0.63,11154,100,87,33,84,1243,780.0,635,454,60,120.0,328,1,442,564,247,0,0,836,5876,-11532,773,,,,,,,,,,,,
258983,1560687890980,7,2.28,2.64,2.84,2.35,2.46,0.64,-0.14,0.96,-2,-4,-4,0.65,10997,100,87,33,84,1127,782.0,638,456,60,120.0,304,1,442,564,236,0,0,815,-2344,-3450,781,,,,,,,,,,,,
259003,1560687890992,3,2.29,2.61,2.81,2.35,2.46,0.6,-0.17,1.03,-1,-7,-4,0.62,10850,100,87,33,84,1037,787.0,643,456,60,121.0,304,1,439,564,236,0,0,812,-2344,-25858,787,,,,,,,,,,,,
259023,1560687891012,3,2.29,2.49,2.84,2.29,2.48,0.58,-0.16,1.12,-0,-5,-5,0.61,10913,100,87,33,84,971,793.0,642,457,60,121.0,304,1,440,564,236,0,0,816,11277,-31068,792,,,,,,,,,,,,
259043,1560687891032,4,2.31,2.41,3.08,2.2,2.58,0.56,-0.06,1.06,1,-8,-5,0.56,11061,100,87,33,84,929,798.0,636,458,60,120.0,304,1,443,582,236,0,0,833,6905,3462,798,45.701778,4.911454,75.29,201.1,2,1.8767,0,0.0,0.4933,3,0.38,4.3174
259063,1560687891052,7,2.29,2.4,3.25,2.21,2.6,0.63,-0.15,0.99,1,-6,-4,0.65,11227,100,87,33,84,932,802.0,638,453,60,120.0,304,1,442,564,236,0,0,828,6905,-31068,802,,,,,,,,,,,,
259083,1560687891072,5,2.29,2.38,3.25,2.2,2.57,0.67,-0.14,0.99,1,-1,-3,0.69,11412,100,87,33,84,942,805.0,637,455,60,120.0,301,1,441,564,243,0,0,822,-30694,3462,807,,,,,,,,,,,,
259103,1560687891100,2,2.3,2.36,3.13,2.21,2.48,0.53,-0.2,0.99,2,-0,-2,0.57,11453,100,87,33,84,956,808.0,644,455,60,121.0,301,1,441,564,243,0,0,830,-23490,-13068,809,,,,,,,,,,,,
259123,1560687891120,5,2.3,2.37,3.03,2.22,2.4,0.54,-0.22,1.06,4,2,-2,0.58,11405,100,87,33,84,965,813.0,645,456,60,120.0,301,1,441,545,243,0,0,837,31988,-2830,813,,,,,,,,,,,,
259143,1560687891140,7,2.29,2.37,2.99,2.22,2.38,0.56,-0.16,1.09,4,1,-2,0.58,11308,100,87,33,84,970,817.0,646,456,60,121.0,301,1,441,564,243,0,0,841,-3450,-22796,817,45.701767,4.911476,77.87,201.0,2,1.8767,0,0.0,0.495,3,0.39,4.319
259163,1560687891160,9,2.29,2.36,2.99,2.22,2.34,0.67,-0.18,1.09,3,-2,-1,0.7,11295,96,87,33,84,970,815.0,647,455,60,120.0,301,1,441,564,243,0,0,844,-25858,-30694,819,,,,,,,,,,,,
259183,1560687891180,13,2.29,2.36,2.99,2.22,2.35,0.65,-0.16,1.04,2,-1,-2,0.67,11363,89,87,33,83,965,815.0,636,458,60,120.0,290,1,441,545,235,0,0,840,-2918,-22795,815,,,,,,,,,,,,
259203,1560687891200,14,2.28,2.35,3.1,2.2,2.42,0.6,-0.23,0.96,3,-3,-2,0.64,11405,84,87,33,81,952,818.0,642,455,60,121.0,290,1,441,529,235,0,0,846,1524,-22796,818,,,,,,,,,,,,
259223,1560687891220,15,2.28,2.31,3.18,2.18,2.52,0.64,-0.13,0.95,3,-5,-0,0.65,11481,82,87,33,79,938,820.0,640,458,60,120.0,290,1,441,513,235,0,0,833,-2358,-2356,820,,,,,,,,,,,,
259243,1560687891240,15,2.27,2.27,3.21,2.15,2.59,0.67,-0.12,0.97,3,-3,-0,0.68,11460,70,87,33,77,925,822.0,642,451,60,120.0,290,1,441,497,235,0,0,851,-2826,-1580,822,45.701756,4.911499,79.56,201.0,2,1.8767,0,0.0,0.4967,3,0.39,4.3207
259263,1560687891260,17,2.28,2.28,3.21,2.15,2.61,0.77,-0.25,1.0,2,0,-0,0.81,11460,65,87,33,71,906,824.0,639,455,60,120.0,290,1,441,466,235,0,0,840,-2358,8838,824,,,,,,,,,,,,
259283,1560687891280,19,2.27,2.28,3.19,2.15,2.64,0.77,-0.24,0.91,2,2,-0,0.81,11384,61,87,33,67,888,822.0,642,455,60,120.0,237,1,443,444,195,0,0,843,-2830,-22795,822,,,,,,,,,,,,
259303,1560687891300,17,2.27,2.28,3.16,2.15,2.57,0.65,-0.22,0.77,3,4,-1,0.69,11308,54,87,33,64,882,821.0,642,455,60,121.0,237,1,444,423,195,0,0,841,-4091,-2826,819,,,,,,,,,,,,
259323,1560687891320,17,2.27,2.27,3.14,2.14,2.58,0.65,-0.13,0.62,4,3,-1,0.66,11154,44,87,33,59,875,818.0,640,457,60,120.0,237,1,433,381,195,0,0,827,-2826,-31066,815,,,,,,,,,,,,
259343,1560687891340,19,2.28,2.25,3.16,2.11,2.59,0.75,-0.15,0.61,3,1,0,0.77,10856,34,87,33,53,856,819.0,644,457,60,121.0,237,1,397,321,195,0,0,826,-2830,-2356,818,45.701744,4.911521,81.44,201.0,2,1.8767,0,0.0,0.4983,3,0.39,4.3224
259363,1560687891360,21,2.29,2.19,3.21,2.08,2.64,0.77,-0.19,0.62,3,-3,1,0.79,10677,26,87,33,48,839,820.0,638,460,60,121.0,237,1,382,259,195,0,0,817,-388,-2918,818,,,,,,,,,,,,
259383,1560687891380,21,2.3,2.06,3.3,1.98,2.72,0.84,-0.23,0.68,3,-3,1,0.87,10434,24,87,33,44,826,818.0,637,456,60,122.0,116,1,357,240,95,0,0,808,-25858,-2560,818,,,,,,,,,,,,
259403,1560687891400,20,2.3,2.02,3.4,1.93,2.78,0.81,-0.26,0.63,3,-3,-0,0.85,10279,23,87,33,42,811,809.0,638,456,60,122.0,116,1,342,229,95,0,0,795,-23490,16118,809,,,,,,,,,,,,
259423,1560687891420,19,2.3,2.01,3.46,1.9,2.82,0.8,-0.27,0.56,4,-3,1,0.84,10037,22,87,33,40,790,809.0,634,459,60,121.0,116,1,327,221,95,0,0,792,-31068,-10218,811,,,,,,,,,,,,
259443,1560687891440,16,2.3,1.98,3.49,1.88,2.79,0.9,-0.29,0.59,4,-1,1,0.95,9894,21,87,33,39,769,806.0,625,461,60,121.0,116,1,320,217,95,0,0,770,16118,-10216,807,45.701733,4.911545,81.94,200.9,2,1.8767,0,0.0,0.5,3,0.39,4.324
259463,1560687891460,22,2.29,1.98,3.49,1.89,2.79,0.85,-0.13,0.53,4,-1,1,0.86,9931,20,87,33,37,761,797.0,629,455,60,121.0,116,1,314,213,95,0,0,738,-2826,-3368,797,,,,,,,,,,,,
259483,1560687891480,21,2.28,1.99,3.5,1.94,2.83,0.9,-0.16,0.43,3,-3,1,0.91,9978,19,87,33,36,759,786.0,633,458,60,122.0,101,1,311,212,80,0,0,726,-2830,-2826,785,,,,,,,,,,,,
259503,1560687891500,17,2.3,1.98,3.51,1.93,2.88,1.01,-0.15,0.4,3,-6,2,1.02,9920,19,87,33,34,780,781.0,633,458,60,122.0,101,1,305,210,80,0,0,730,-23308,-31068,781,,,,,,,,,,,,
259523,1560687891520,19,2.28,1.96,3.53,1.89,2.94,0.89,-0.09,0.36,4,-7,2,0.9,9858,18,87,33,33,803,780.0,640,460,60,123.0,101,1,302,206,80,0,0,710,-2830,11069,780,,,,,,,,,,,,
259543,1560687891540,19,2.28,1.96,3.61,1.89,3.06,0.99,-0.18,0.36,3,-9,3,1.01,9694,18,87,33,32,834,779.0,638,463,60,123.0,101,1,300,201,80,0,0,677,7413,19188,779,45.701717,4.911568,80.55,200.9,2,1.8767,0,0.0,0.5017,3,0.39,4.3257
259563,1560687891560,19,2.28,1.95,3.68,1.9,3.12,0.78,-0.05,0.2,3,-6,3,0.78,9431,18,87,33,31,865,774.0,636,458,60,123.0,101,1,295,194,80,0,0,621,-2570,8010,774,,,,,,,,,,,,
259583,1560687891580,19,2.28,1.94,3.67,1.89,3.09,0.9,-0.06,0.15,3,-4,3,0.91,9231,17,87,33,30,893,774.0,627,460,60,123.0,87,1,291,190,68,0,0,617,-2766,11069,774,,,,,,,,,,,,
259603,1560687891599,18,2.28,1.94,3.6,1.91,3.04,1.02,-0.22,0.18,3,-5,3,1.04,9018,17,87,33,29,922,769.0,621,460,60,122.0,87,1,287,188,68,0,0,608,-2574,16118,765,,,,,,,,,,,,
259623,1560687891619,21,2.27,1.92,3.54,1.89,3.02,1.1,-0.11,-0.04,4,-3,3,1.11,8831,17,87,33,28,922,762.0,618,463,60,123.0,87,1,282,294,68,0,0,598,-3450,-25858,761,,,,,,,,,,,,
259643,1560687891639,19,2.28,1.89,3.49,1.86,2.95,1.17,-0.26,0.02,3,-3,2,1.19,8769,16,87,33,28,918,757.0,612,458,60,121.0,87,1,282,273,68,0,0,540,-2830,1760,755,45.70171,4.911591,78.96,200.9,2,1.8767,0,0.0,0.5033,3,0.4,4.3274
259663,1560687891659,20,2.29,1.83,3.46,1.79,2.9,1.16,-0.22,0.05,5,-2,4,1.18,8992,15,87,33,27,913,755.0,610,458,60,122.0,87,1,278,251,68,0,0,560,-22796,-3210,751,,,,,,,,,,,,
259683,1560687891679,17,2.29,1.79,3.53,1.72,2.88,1.18,-0.17,0.1,5,-3,5,1.19,8928,15,87,33,27,908,744.0,615,455,60,121.0,105,1,278,231,79,0,0,475,-3580,-28648,744,,,,,,,,,,,,
259703,1560687891699,19,2.28,1.76,3.52,1.66,2.84,1.15,-0.13,0.0,5,2,5,1.15,8920,15,87,33,27,906,737.0,623,456,60,121.0,105,1,278,208,79,0,0,452,-2826,2524,737,,,,,,,,,,,,
259723,1560687891719,19,2.28,1.75,3.48,1.64,2.83,1.06,-0.1,-0.06,7,2,6,1.07,8831,15,87,33,26,905,732.0,617,459,60,121.0,105,1,274,188,79,0,0,438,-2358,10408,730,,,,,,,,,,,,
259743,1560687891739,22,2.28,1.75,3.48,1.65,2.8,1.06,-0.02,-0.14,8,1,5,1.06,8782,15,87,33,26,933,728.0,614,458,60,121.0,105,1,274,188,79,0,0,416,-3450,-8187,728,45.701698,4.911612,76.41,200.9,2,1.8767,0,0.0,0.505,3,0.4,4.3291
259763,1560687891759,23,2.25,1.75,3.49,1.66,2.79,1.02,0.0,-0.19,7,1,4,1.02,8737,15,87,33,26,965,720.0,615,457,60,122.0,105,1,274,188,79,0,0,395,-20693,2524,720,,,,,,,,,,,,
259783,1560687891779,18,2.25,1.75,3.5,1.67,2.81,1.12,0.04,-0.22,7,1,4,1.12,8636,14,87,33,26,998,713.0,609,459,60,121.0,85,1,274,188,61,0,0,361,15647,259,713,,,,,,,,,,,,
259803,1560687891799,10,2.25,1.75,3.5,1.67,2.88,1.09,0.0,-0.24,7,2,5,1.09,8549,14,87,33,27,1029,707.0,614,457,60,121.0,85,1,278,188,61,0,0,333,19188,1780,706,,,,,,,,,,,,
259823,1560687891819,10,2.24,1.74,3.51,1.68,2.95,1.06,0.07,-0.26,7,1,6,1.06,8389,14,87,32,27,1051,706.0,604,460,60,121.0,85,1,277,181,61,0,0,323,24,-32504,706,,,,,,,,,,,,
259843,1560687891839,2,2.22,1.75,3.5,1.69,2.97,1.14,0.09,-0.23,7,2,5,1.14,8209,14,87,32,27,1068,705.0,597,461,60,122.0,85,1,276,172,61,0,0,337,-3584,-3210,709,45.701683,4.911633,73.78,200.9,2,1.8767,0,0.0,0.5067,3,0.4,4.3307
259863,1560687891859,3,2.23,1.74,3.49,1.7,2.95,1.09,0.07,-0.26,6,2,6,1.09,8180,14,87,32,27,1063,705.0,589,459,60,122.0,85,1,276,171,61,0,0,344,6208,15649,705,,,,,,,,,,,,
259883,1560687891879,1,2.23,1.76,3.44,1.75,2.9,1.11,-0.04,-0.19,6,2,6,1.11,8162,14,87,32,27,1048,701.0,587,456,60,121.0,74,1,276,170,52,0,0,372,14342,2524,699,,,,,,,,,,,,
259903,1560687891899,3,2.23,1.75,3.4,1.75,2.84,1.07,-0.06,-0.16,6,2,6,1.07,8198,14,87,32,26,1033,696.0,594,457,60,122.0,74,1,273,170,52,0,0,452,-2830,-22519,696,,,,,,,,,,,,
259923,1560687891919,0,2.23,1.74,3.38,1.74,2.78,1.08,-0.08,-0.11,7,2,6,1.09,8177,13,87,32,26,1018,690.0,590,460,60,121.0,74,1,273,170,52,0,0,535,-10399,2088,690,,,,,,,,,,,,
259943,1560687891939,4,2.23,1.74,3.37,1.73,2.74,1.18,-0.09,-0.15,6,2,5,1.18,8216,13,87,32,26,1010,685.0,592,458,60,122.0,74,1,273,171,52,0,0,606,-2345,-29984,682,45.701672,4.911653,70.58,200.8,2,1.8767,0,0.0,0.5083,3,0.4,4.3324
259963,1560687891959,10,2.23,1.71,3.4,1.73,2.74,1.07,-0.18,-0.1,6,4,5,1.09,8278,13,87,32,25,1009,681.0,588,457,60,121.0,74,1,270,175,52,0,0,608,-10344,-2836,676,,,,,,,,,,,,
259983,1560687891979,8,2.22,1.7,3.43,1.72,2.73,1.16,-0.19,-0.06,5,3,3,1.17,8274,13,87,32,25,1016,673.0,594,460,60,122.0,81,1,270,175,55,0,0,614,-26380,506,669,,,,,,,,,,,,
260003,1560687891993,8,2.22,1.69,3.44,1.72,2.75,1.2,-0.21,-0.03,4,3,1,1.21,8389,13,87,32,24,1028,667.0,602,456,60,121.0,81,1,270,176,55,0,0,629,-3578,30721,665,,,,,,,,,,,,
260023,1560687892013,12,2.21,1.69,3.47,1.71,2.8,1.2,-0.18,-0.04,3,1,1,1.22,8453,13,87,32,24,1040,663.0,600,459,60,121.0,81,1,270,174,55,0,0,603,-27404,5344,658,,,,,,,,,,,,
260043,1560687892033,9,2.22,1.7,3.48,1.7,2.86,1.29,-0.19,-0.05,1,1,0,1.3,8577,13,87,32,23,1052,662.0,607,462,60,122.0,81,1,270,176,55,0,0,591,-2826,6273,654,45.70166,4.911672,68.35,200.8,2,1.8767,0,0.0,0.51,3,0.41,4.3341
260063,1560687892053,11,2.21,1.73,3.46,1.69,2.87,1.22,-0.14,-0.07,0,2,1,1.23,8608,13,87,33,23,1055,655.0,607,456,60,121.0,81,1,270,176,55,0,0,592,-388,774,644,,,,,,,,,,,,
260083,1560687892073,15,2.2,1.75,3.46,1.67,2.89,1.21,-0.08,-0.09,-1,1,-0,1.21,8648,12,87,33,23,1049,652.0,607,457,60,121.0,88,1,270,176,57,0,0,567,-6006,-18032,639,,,,,,,,,,,,
260103,1560687892099,14,2.21,1.74,3.46,1.62,2.91,1.19,-0.09,-0.14,-2,0,-4,1.19,8692,12,87,33,23,1040,650.0,608,461,60,122.0,88,1,270,176,57,0,0,530,479,2104,632,,,,,,,,,,,,
260123,1560687892119,15,2.21,1.74,3.45,1.53,2.91,1.21,-0.06,-0.06,-3,-1,-5,1.21,8700,12,87,33,23,1022,648.0,608,460,60,122.0,88,1,270,176,57,0,0,512,11566,-21872,625,,,,,,,,,,,,
260143,1560687892139,15,2.21,1.72,3.44,1.46,2.93,1.29,-0.11,0.01,-5,0,-7,1.3,8798,12,87,33,24,1000,641.0,627,459,60,122.0,88,1,270,181,57,0,0,501,-3584,-10483,622,45.701649,4.91169,65.68,200.8,2,1.8767,0,0.0,0.5117,3,0.41,4.3357
260163,1560687892159,12,2.22,1.72,3.38,1.42,2.92,1.37,-0.15,0.05,-7,-1,-7,1.37,8823,12,87,33,24,972,639.0,618,458,60,122.0,88,1,270,181,57,0,0,473,6208,30272,613,,,,,,,,,,,,
260183,1560687892179,12,2.23,1.74,3.32,1.43,2.93,1.41,-0.07,-0.01,-8,-1,-7,1.42,8798,12,87,33,24,947,631.0,622,458,60,121.0,98,1,270,181,60,0,0,494,771,-1923,605,,,,,,,,,,,,
260203,1560687892201,12,2.26,1.76,3.28,1.43,2.94,1.39,0.03,-0.09,-9,2,-8,1.39,8811,12,87,33,24,936,626.0,619,457,60,121.0,98,1,270,181,60,0,0,484,506,-9203,597,,,,,,,,,,,,
260223,1560687892221,14,2.28,1.78,3.26,1.44,2.93,1.33,0.16,-0.2,-9,1,-10,1.34,8840,12,87,33,24,929,618.0,618,458,60,121.0,98,1,270,181,60,0,0,469,16529,-6528,591,,,,,,,,,,,,
260243,1560687892241,14,2.31,1.8,3.27,1.45,2.93,1.2,0.2,-0.33,-9,2,-11,1.22,8882,12,87,33,24,933,609.0,621,458,60,121.0,98,1,270,181,60,0,0,477,-23055,3580,585,45.701637,4.911707,63.03,200.7,2,1.8767,0,0.0,0.5133,3,0.41,4.3374
260263,1560687892261,13,2.33,1.8,3.29,1.46,2.97,1.07,0.23,-0.4,-9,3,-12,1.1,8911,12,87,33,24,939,602.0,621,461,60,122.0,98,1,270,181,60,0,0,495,-768,-3267,582,,,,,,,,,,,,
260283,1560687892281,11,2.35,1.8,3.38,1.46,3.01,1.0,0.32,-0.37,-9,3,-11,1.05,8898,12,87,33,24,953,597.0,617,466,60,122.0,103,1,270,181,60,0,0,460,-16179,10305,578,,,,,,,,,,,,
260303,1560687892301,9,2.36,1.78,3.47,1.46,3.02,1.0,0.24,-0.24,-8,3,-12,1.03,8773,12,87,33,24,972,595.0,616,460,60,122.0,103,1,270,181,60,0,0,456,-16179,-899,581,,,,,,,,,,,,
