"Interval"|"ms"|0|0|1,"Utc"|"ms"|0|0|1,"FB_p"|"bar"|0|300|50,"Volant"|"F"|0.0|300.0|50,"xFR"|"mm"|0.0|5.0|50,"xRR"|"mm"|0.0|5.0|50,"xFL"|"mm"|0.0|5.0|50,"xRL"|"mm"|0.0|5.0|50,"AccelX"|"G"|-3.0|3.0|50,"AccelY"|"G"|-3.0|3.0|50,"AccelZ"|"G"|-3.0|3.0|50,"Yaw"|"Deg/Sec"|-120|120|50,"Pitch"|"Deg/Sec"|-120|120|50,"Roll"|"Deg/Sec"|-120|120|50,"Gsum"|"G"|0.0|3.0|50,"RPM"|""|0|14000|50,"TPS"|"%"|0|100|50,"WaterTemp"|"?C"|0|300|50,"AirTemp"|"?C"|-1000|1000|50,"MAP"|"KPa"|0|255|50,"Lambda"|""|0|1024|50,"WheelSpeed"|"MPH"|0.0|150.0|50,"OilPress"|"PSI"|0|150|50,"FuelPress"|"PSI"|0|150|50,"OilTemp"|"F"|0|300|50,"Battery"|"Volts"|0.0|20.0|50,"FuelCon"|"L/h"|-1000|1000|50,"Gear"|""|0|10|50,"Advance"|"Deg"|-360|360|50,"Injection"|"ms"|-1000|1000|50,"FuelCon"|"L/100km"|-1000|1000|50,"LC_But_Pres"|""|-1000|1000|50,"LC_Active"|""|-1000|1000|50,"RD_Speed"|""|-1000|1000|50,"RUD_Speed"|""|-1000|1000|50,"LD_Speed"|""|-1000|1000|50,"LUD_Speed"|""|-1000|1000|50,"Latitude"|"Degrees"|-180.0|180.0|10,"Longitude"|"Degrees"|-180.0|180.0|10,"Speed"|"kph"|0.0|150.0|10,"Altitude"|"m"|0.0|4000.0|10,"LapCount"|""|0|0|10,"LapTime"|"Min"|0.0|0.0|10,"Sector"|""|0|0|10,"SectorTime"|"Min"|0.0|0.0|10,"ElapsedTime"|"Min"|0.0|0.0|10,"CurrentLap"|""|0|0|10,"Distance"|"km"|0.0|0.0|10,"SessionTime"|"Min"|0.0|0.0|10
593263,1560688225268,44,2.25,1.7,3.56,1.48,3.0,1.28,-0.12,0.12,-7,-9,2,1.29,6032,9,86,31,28,836,563.0,433,452,60,118.0,63,1,278,161,37,0,0,190,-32504,240,547,,,,,,,,,,,,
593283,1560688225288,42,2.27,1.67,3.63,1.43,3.09,1.29,-0.16,0.15,-7,-8,1,1.3,5894,8,86,31,28,857,554.0,428,447,60,119.0,63,1,276,162,37,0,0,143,2524,-30976,541,,,,,,,,,,,,
593303,1560688225308,47,2.27,1.68,3.62,1.42,3.09,1.36,-0.17,0.23,-10,-11,1,1.37,5598,8,86,31,29,883,553.0,425,433,60,119.0,65,1,274,161,35,0,0,71,-9072,-1,536,,,,,,,,,,,,
593323,1560688225328,43,2.3,1.77,3.53,1.45,3.06,1.23,-0.12,0.08,-10,-5,1,1.24,4886,8,86,31,31,917,541.0,400,433,60,118.0,65,1,260,158,35,0,0,413,-2336,-1529,515,,,,,,,,,,,,
593343,1560688225348,41,2.3,1.83,3.46,1.45,3.06,1.31,-0.17,0.08,-10,-5,-1,1.32,4496,8,86,31,33,945,515.0,369,430,60,118.0,65,1,239,162,35,0,0,504,-14,2414,481,45.702053,4.910929,58.64,199.1,6,1.6483,0,0.0,0.405,7,0.33,9.889
593363,1560688225368,39,2.32,1.78,3.44,1.39,3.07,1.2,-0.07,-0.08,-8,-0,-1,1.2,4371,8,86,31,34,957,523.0,350,461,60,119.0,65,1,237,165,35,0,0,478,-22519,12800,481,,,,,,,,,,,,
593383,1560688225388,42,2.33,1.73,3.5,1.36,3.08,1.19,-0.13,-0.13,-8,0,-3,1.2,4419,8,86,31,36,968,515.0,330,459,60,119.0,65,1,252,169,35,0,0,338,-14,12800,506,,,,,,,,,,,,
593403,1560688225408,41,2.35,1.67,3.6,1.37,3.08,1.27,-0.13,-0.1,-8,-1,-3,1.28,4405,8,86,31,37,979,508.0,318,453,60,119.0,58,1,258,176,29,0,0,271,-3414,250,499,,,,,,,,,,,,
593423,1560688225428,40,2.36,1.66,3.61,1.39,3.07,1.29,-0.17,-0.17,-9,1,-4,1.3,4281,8,86,31,38,987,501.0,312,446,60,119.0,58,1,257,172,29,0,0,226,11560,250,495,,,,,,,,,,,,
593443,1560688225448,42,2.37,1.68,3.57,1.43,3.05,1.31,-0.1,-0.21,-9,3,-4,1.31,3587,8,86,31,38,986,493.0,307,441,60,117.0,58,1,229,167,29,0,0,178,-32768,-1,484,45.702042,4.910943,55.85,199.1,6,1.6483,0,0.0,0.4067,7,0.33,9.8907
593463,1560688225468,44,2.38,1.69,3.49,1.43,2.98,1.3,-0.1,-0.31,-8,7,-4,1.3,3172,8,86,31,40,985,474.0,287,448,60,118.0,58,1,180,170,29,0,0,242,30272,6384,462,,,,,,,,,,,,
593483,1560688225488,38,2.4,1.65,3.46,1.42,2.97,1.37,-0.04,-0.38,-6,6,-4,1.37,3094,8,86,31,42,985,459.0,277,451,60,118.0,58,1,166,172,29,0,0,235,17628,8841,459,,,,,,,,,,,,
593503,1560688225510,39,2.4,1.56,3.55,1.37,3.0,1.41,-0.13,-0.25,-6,4,-3,1.42,3132,8,86,31,44,985,467.0,265,446,60,119.0,42,1,173,174,20,0,0,196,16408,105,464,,,,,,,,,,,,
593523,1560688225530,39,2.41,1.5,3.62,1.37,3.03,1.41,-0.16,-0.25,-5,1,-2,1.42,3241,8,86,31,46,986,461.0,260,451,60,119.0,42,1,193,179,20,0,0,119,17628,-2560,461,,,,,,,,,,,,
593543,1560688225550,41,2.4,1.51,3.62,1.4,3.02,1.47,-0.29,-0.03,-5,-9,0,1.5,3108,8,86,31,48,987,456.0,253,455,60,118.0,42,1,169,180,20,0,0,119,-6387,250,454,45.702034,4.910957,52.32,199.0,6,1.6483,0,0.0,0.4083,7,0.33,9.8924
593563,1560688225570,40,2.4,1.55,3.59,1.43,3.0,1.53,-0.23,-0.08,-4,-8,1,1.54,2782,8,86,31,50,986,448.0,246,457,60,119.0,42,1,115,180,20,0,0,119,-18341,250,448,,,,,,,,,,,,
593583,1560688225590,40,2.38,1.62,3.51,1.44,2.97,1.54,-0.21,-0.14,-4,-9,1,1.56,2376,8,86,31,53,985,434.0,232,453,60,117.0,42,1,68,192,20,0,0,244,-3314,14412,429,,,,,,,,,,,,
593603,1560688225610,40,2.35,1.62,3.5,1.41,2.96,1.42,0.0,-0.2,-2,-9,2,1.42,1937,8,86,31,55,981,423.0,220,447,60,118.0,32,1,62,194,14,0,0,267,-4059,250,423,,,,,,,,,,,,
593623,1560688225630,33,2.32,1.58,3.52,1.37,3.01,1.38,-0.02,-0.17,-3,-11,3,1.38,1921,8,86,31,58,976,423.0,211,459,60,119.0,32,1,64,203,14,0,0,188,18584,-1,423,,,,,,,,,,,,
593643,1560688225650,29,2.31,1.57,3.52,1.3,3.07,1.37,-0.05,-0.09,-3,-7,3,1.37,1980,8,86,31,61,940,416.0,200,433,60,119.0,32,1,68,212,14,0,0,188,2524,-1,416,45.702023,4.91097,48.55,199.1,6,1.6483,0,0.0,0.41,7,0.34,9.894
593663,1560688225670,33,2.29,1.59,3.53,1.28,3.09,1.22,0.01,-0.12,-2,-0,1,1.22,1954,8,86,31,62,903,414.0,201,426,60,117.0,32,1,68,212,14,0,0,188,2524,-1,409,,,,,,,,,,,,
593683,1560688225690,31,2.3,1.68,3.48,1.29,3.06,1.3,0.08,-0.0,-3,-3,-1,1.3,1805,8,86,31,64,868,411.0,195,443,60,119.0,32,1,67,212,14,0,0,188,-4059,-1,400,,,,,,,,,,,,
593703,1560688225710,30,2.29,1.76,3.38,1.31,2.98,1.26,0.11,-0.07,-3,-1,-4,1.26,1410,8,86,31,67,834,406.0,186,448,60,118.0,35,1,58,206,14,0,0,35,-8151,-1,384,,,,,,,,,,,,
593723,1560688225730,30,2.29,1.76,3.34,1.29,2.92,1.33,-0.02,-0.04,-4,0,-8,1.33,1410,8,86,31,72,793,397.0,176,447,60,118.0,35,1,59,212,14,0,0,157,1,-1,377,,,,,,,,,,,,
593743,1560688225750,26,2.29,1.73,3.37,1.28,2.93,1.23,-0.04,-0.09,-4,3,-11,1.23,1010,8,86,31,76,752,390.0,162,451,60,118.0,35,1,56,218,14,0,0,181,-3866,-1494,374,45.702015,4.910981,45.05,199.0,6,1.6483,0,0.0,0.4117,7,0.34,9.8957
593763,1560688225770,18,2.28,1.71,3.44,1.27,2.97,1.25,-0.03,-0.1,-4,2,-13,1.25,1010,8,86,32,78,739,385.0,165,442,60,115.0,35,1,57,226,14,0,0,181,-3866,-1494,368,,,,,,,,,,,,
593783,1560688225790,14,2.28,1.72,3.47,1.28,2.97,1.22,0.03,-0.12,-6,3,-14,1.22,874,8,86,32,83,732,385.0,158,428,60,118.0,35,1,60,170,14,0,0,181,-6475,250,364,,,,,,,,,,,,
593803,1560688225810,13,2.26,1.79,3.42,1.32,2.93,1.22,0.06,-0.14,-7,6,-16,1.22,913,9,86,32,83,724,382.0,157,432,60,118.0,22,1,60,170,8,0,0,181,19125,250,359,,,,,,,,,,,,
593823,1560688225830,10,2.25,1.87,3.33,1.34,2.89,1.2,0.09,-0.15,-8,4,-17,1.21,913,9,86,32,88,717,380.0,155,446,60,118.0,22,1,95,276,8,0,0,181,-992,-1,352,,,,,,,,,,,,
593843,1560688225850,7,2.23,1.92,3.25,1.34,2.86,1.23,0.11,-0.09,-10,4,-19,1.23,828,8,86,32,88,715,375.0,152,435,60,117.0,22,1,95,276,8,0,0,28,770,-1,346,45.702007,4.910992,41.19,199.0,6,1.6483,0,0.0,0.4133,7,0.34,9.8974
593863,1560688225870,5,2.2,1.93,3.2,1.33,2.85,1.3,0.11,0.06,-12,2,-21,1.31,828,8,86,32,91,715,374.0,151,416,60,118.0,22,1,118,293,8,0,0,28,742,13832,338,,,,,,,,,,,,
593883,1560688225890,2,2.19,1.93,3.17,1.31,2.87,1.32,0.14,0.05,-14,3,-23,1.33,828,9,86,32,92,718,368.0,148,405,60,118.0,22,1,127,222,8,0,0,59,0,3072,335,,,,,,,,,,,,
593903,1560688225910,-0,2.18,1.92,3.17,1.28,2.94,1.32,0.21,0.03,-17,1,-26,1.34,919,8,86,32,91,723,366.0,148,441,60,116.0,27,1,118,293,9,0,0,135,230,-1,326,,,,,,,,,,,,
593923,1560688225930,1,2.16,1.95,3.16,1.27,2.98,1.26,0.27,0.03,-19,2,-29,1.29,919,8,86,32,93,728,367.0,148,426,60,119.0,27,1,136,305,9,0,0,173,0,250,321,,,,,,,,,,,,
593943,1560688225950,6,2.16,1.98,3.17,1.26,2.99,1.27,0.32,-0.02,-21,4,-33,1.31,1059,8,86,32,93,732,368.0,148,412,60,119.0,27,1,142,307,9,0,0,135,0,250,313,45.702,4.911002,37.91,198.9,6,1.6483,0,0.0,0.415,7,0.34,9.899
593963,1560688225970,6,2.16,2.01,3.15,1.27,3.0,1.29,0.34,-0.05,-24,4,-35,1.33,1209,8,86,32,92,741,365.0,148,435,60,119.0,27,1,151,303,9,0,0,144,-6405,14242,308,,,,,,,,,,,,
593983,1560688225990,4,2.15,2.08,3.12,1.29,3.0,1.26,0.36,-0.01,-28,-1,-37,1.31,1297,8,86,32,91,751,362.0,151,417,60,116.0,27,1,156,296,9,0,0,120,2790,14242,299,,,,,,,,,,,,
594003,1560688226001,3,2.17,2.15,3.11,1.32,3.01,1.24,0.4,-0.0,-30,1,-38,1.3,1367,8,86,32,91,760,356.0,152,408,60,116.0,51,1,165,296,15,0,0,143,4104,250,291,,,,,,,,,,,,
594023,1560688226021,5,2.18,2.16,3.11,1.33,3.04,1.25,0.4,0.1,-33,0,-41,1.31,1500,8,86,32,90,765,354.0,152,436,60,116.0,51,1,180,287,15,0,0,141,3302,250,286,,,,,,,,,,,,
594043,1560688226041,9,2.21,2.16,3.12,1.35,3.07,1.28,0.44,0.16,-36,0,-45,1.35,1589,8,86,32,89,775,351.0,154,412,60,116.0,51,1,170,281,15,0,0,141,28553,250,276,45.701996,4.91101,34.86,198.9,6,1.6483,0,0.0,0.4167,7,0.34,9.9007
594063,1560688226061,9,2.23,2.16,3.13,1.37,3.06,1.23,0.48,0.16,-39,-1,-48,1.32,1631,8,86,32,89,786,348.0,154,416,60,118.0,51,1,172,281,15,0,0,88,-1246,250,269,,,,,,,,,,,,
594083,1560688226081,11,2.29,2.15,3.11,1.37,3.06,1.2,0.49,0.17,-42,0,-52,1.29,1557,8,86,32,89,794,347.0,152,425,60,119.0,51,1,170,281,15,0,0,110,8841,-1,264,,,,,,,,,,,,
594103,1560688226107,10,2.34,2.15,3.11,1.37,3.04,1.21,0.5,0.13,-44,1,-56,1.31,1519,8,86,32,89,799,343.0,153,417,60,119.0,61,1,168,281,16,0,0,154,-14714,-1,257,,,,,,,,,,,,
594123,1560688226127,3,2.4,2.11,3.11,1.36,3.02,1.19,0.45,0.12,-46,0,-59,1.27,1619,8,86,32,89,802,334.0,156,412,60,120.0,61,1,171,281,16,0,0,140,4838,-1,252,,,,,,,,,,,,
594143,1560688226147,1,2.47,2.07,3.11,1.36,2.98,1.18,0.44,0.19,-47,2,-61,1.26,1803,8,86,33,89,803,331.0,159,423,60,119.0,61,1,178,282,16,0,0,119,-12032,-1,247,45.701992,4.91102,33.41,198.9,6,1.6483,0,0.0,0.4183,7,0.34,9.9024
594163,1560688226167,4,2.55,2.06,3.11,1.4,2.95,1.22,0.42,0.24,-49,3,-61,1.29,1945,8,86,33,87,802,325.0,164,412,60,117.0,61,1,169,278,16,0,0,131,-23296,-1,244,,,,,,,,,,,,
594183,1560688226187,0,2.6,2.06,3.08,1.42,2.95,1.17,0.41,0.25,-50,1,-61,1.24,2030,8,86,33,88,796,321.0,165,410,60,119.0,61,1,179,275,16,0,0,198,-25856,-1,243,,,,,,,,,,,,
594203,1560688226207,4,2.66,2.06,3.08,1.42,2.96,1.15,0.45,0.28,-50,4,-62,1.23,2157,8,86,33,87,791,309.0,166,416,60,117.0,90,1,187,276,22,0,0,182,32000,250,242,,,,,,,,,,,,
594223,1560688226227,-2,2.73,2.06,3.11,1.42,2.97,1.24,0.47,0.29,-49,3,-62,1.32,2412,8,86,33,86,783,305.0,171,411,60,118.0,90,1,194,272,22,0,0,170,29440,250,243,,,,,,,,,,,,
594243,1560688226247,-0,2.76,2.05,3.11,1.42,2.97,1.1,0.48,0.33,-49,-3,-60,1.2,2626,8,86,33,84,775,301.0,177,408,60,119.0,90,1,205,273,22,0,0,183,26880,14256,243,45.701988,4.911028,31.0,198.9,6,1.6483,0,0.0,0.42,7,0.34,9.904
594263,1560688226267,0,2.79,2.06,3.1,1.42,2.95,0.97,0.47,0.37,-48,-1,-59,1.08,2885,8,86,33,82,772,292.0,183,404,60,117.0,90,1,208,273,22,0,0,196,80,250,244,,,,,,,,,,,,
594283,1560688226287,-0,2.81,2.07,3.09,1.42,2.94,0.96,0.46,0.4,-46,5,-60,1.07,3008,8,86,33,80,772,289.0,193,412,60,118.0,90,1,207,278,22,0,0,205,0,8192,244,,,,,,,,,,,,
594303,1560688226309,-2,2.83,2.09,3.08,1.41,2.94,0.99,0.47,0.42,-44,6,-58,1.1,3140,8,86,33,79,783,284.0,199,405,60,118.0,130,1,213,285,32,0,0,199,250,-1,244,,,,,,,,,,,,
594323,1560688226329,3,2.85,2.11,3.08,1.41,2.94,1.03,0.46,0.53,-42,1,-55,1.12,3380,8,86,33,77,795,277.0,207,405,60,119.0,130,1,229,289,32,0,0,198,30208,5120,245,,,,,,,,,,,,
594343,1560688226349,0,2.87,2.14,3.08,1.4,2.94,0.99,0.47,0.6,-40,2,-52,1.1,3511,7,86,33,74,809,274.0,217,406,60,119.0,130,1,241,282,32,0,0,209,2414,-1,246,45.701981,4.911037,28.94,198.9,6,1.6483,0,0.0,0.4217,7,0.34,9.9057
594363,1560688226369,3,2.87,2.16,3.08,1.4,2.94,1.0,0.47,0.64,-37,0,-49,1.1,3708,7,86,33,71,823,271.0,226,397,60,119.0,130,1,264,286,32,0,0,214,-1281,-1,249,,,,,,,,,,,,
594383,1560688226389,0,2.85,2.19,3.07,1.41,2.94,0.94,0.5,0.58,-34,3,-46,1.07,3856,7,86,33,68,835,266.0,237,410,60,119.0,130,1,285,288,32,0,0,214,-1,-1,251,,,,,,,,,,,,
594403,1560688226407,0,2.83,2.21,3.05,1.41,2.93,0.96,0.55,0.54,-31,1,-42,1.11,3989,7,86,33,66,845,264.0,246,401,60,119.0,171,1,294,286,43,0,0,215,-1,-29696,251,,,,,,,,,,,,
594423,1560688226427,-2,2.82,2.27,3.01,1.4,2.93,0.9,0.57,0.63,-29,-3,-37,1.07,4159,7,86,33,63,842,259.0,256,393,60,118.0,171,1,292,278,43,0,0,220,-10440,16384,253,,,,,,,,,,,,
594443,1560688226447,-0,2.82,2.32,2.96,1.38,2.93,0.88,0.55,0.68,-26,-1,-34,1.04,4255,6,86,33,62,845,256.0,270,410,60,117.0,171,1,292,269,43,0,0,222,506,19968,254,45.701977,4.911045,27.57,198.9,6,1.6483,0,0.0,0.4233,7,0.34,9.9074
594463,1560688226467,4,2.85,2.36,2.93,1.39,2.94,0.87,0.53,0.67,-23,-0,-31,1.02,4349,6,86,33,60,875,253.0,276,405,60,118.0,171,1,293,264,43,0,0,226,-1,250,255,,,,,,,,,,,,
594483,1560688226487,5,2.9,2.35,2.94,1.43,2.93,0.78,0.5,0.67,-18,1,-28,0.93,4454,6,86,33,59,906,255.0,286,388,60,118.0,171,1,295,255,43,0,0,229,250,8704,258,,,,,,,,,,,,
594503,1560688226507,4,0.34,2.33,2.99,1.47,2.89,0.7,0.44,0.64,-13,5,-22,0.83,4444,6,86,33,58,939,260.0,291,392,60,118.0,162,1,296,250,42,0,0,229,250,-17920,261,,,,,,,,,,,,
594523,1560688226527,4,0.38,2.28,3.09,1.55,2.84,0.71,0.37,0.55,-7,6,-14,0.8,4429,6,86,33,57,972,264.0,299,388,60,118.0,162,1,296,246,42,0,0,225,-25600,-1494,269,,,,,,,,,,,,
594543,1560688226547,4,0.39,2.23,3.15,1.64,2.82,0.58,0.3,0.54,-1,7,-6,0.65,4486,6,86,33,56,1027,275.0,302,401,60,118.0,162,1,297,241,42,0,0,216,18432,-1,275,45.701977,4.911053,27.01,198.8,6,1.6483,0,0.0,0.425,7,0.34,9.909
594563,1560688226567,4,0.39,2.17,3.22,1.68,2.8,0.51,0.24,0.47,5,12,0,0.57,4443,6,86,33,55,1082,280.0,306,396,60,118.0,162,1,298,236,42,0,0,212,250,-1,280,,,,,,,,,,,,
594583,1560688226587,3,0.39,2.09,3.33,1.73,2.74,0.46,0.15,0.49,13,14,4,0.48,4432,6,86,33,54,1107,286.0,305,407,60,119.0,162,1,298,236,42,0,0,203,15360,-1,286,,,,,,,,,,,,
594603,1560688226607,3,0.39,1.95,3.45,1.82,2.65,0.55,0.02,0.43,21,12,8,0.55,4457,6,86,33,54,1129,288.0,305,421,60,119.0,132,1,298,232,38,0,0,200,-17920,-1281,288,,,,,,,,,,,,
594623,1560688226627,-0,0.41,1.81,3.57,2.0,2.53,0.65,-0.14,0.45,27,9,14,0.66,4406,5,86,33,53,1144,290.0,306,447,60,118.0,132,1,297,228,38,0,0,198,1088,250,287,,,,,,,,,,,,
594643,1560688226647,0,0.42,1.72,3.66,2.16,2.42,0.75,-0.26,0.43,31,6,20,0.79,4401,5,86,33,52,1159,286.0,306,456,60,119.0,132,1,297,224,38,0,0,197,16384,-1281,286,45.701973,4.911062,26.06,198.8,6,1.6483,0,0.0,0.4267,7,0.34,9.9107
594663,1560688226667,-2,0.44,1.67,3.69,2.24,2.41,0.88,-0.29,0.47,34,2,27,0.92,4350,5,86,33,52,1158,282.0,306,450,60,119.0,132,1,297,223,38,0,0,196,-1533,-1,282,,,,,,,,,,,,
594683,1560688226687,-1,0.44,1.64,3.7,2.3,2.41,0.95,-0.38,0.55,37,-3,33,1.02,4305,5,86,33,51,1152,279.0,306,450,60,120.0,132,1,296,219,38,0,0,196,-14848,-1,279,,,,,,,,,,,,
594703,1560688226707,-1,0.43,1.62,3.7,2.32,2.44,0.99,-0.42,0.5,39,-4,38,1.07,4301,5,86,33,50,1123,277.0,305,442,60,118.0,125,1,296,215,35,0,0,195,250,-1,277,,,,,,,,,,,,
594723,1560688226727,5,0.43,1.62,3.7,2.33,2.45,0.93,-0.49,0.41,40,-2,42,1.05,4224,5,86,33,50,1089,275.0,303,447,60,118.0,125,1,295,214,35,0,0,196,966,-1,275,,,,,,,,,,,,
594743,1560688226747,2,0.44,1.62,3.7,2.36,2.45,0.9,-0.61,0.36,42,1,45,1.09,4156,5,86,33,49,1059,276.0,298,452,60,118.0,125,1,294,209,35,0,0,197,-14848,-41,276,45.701973,4.91107,24.9,198.9,6,1.6483,0,0.0,0.4283,7,0.35,9.9124
594763,1560688226767,-0,0.43,1.62,3.7,2.37,2.45,0.93,-0.65,0.39,43,-1,49,1.14,4174,5,86,33,49,1031,274.0,294,443,60,119.0,125,1,294,209,35,0,0,195,250,-10440,271,,,,,,,,,,,,
594783,1560688226787,-1,0.44,1.63,3.7,2.37,2.46,0.98,-0.67,0.4,45,-4,52,1.19,4115,5,86,33,48,995,271.0,293,437,60,119.0,125,1,292,204,35,0,0,195,-29696,14337,271,,,,,,,,,,,,
594803,1560688226807,2,0.44,1.62,3.7,2.37,2.46,0.85,-0.72,0.37,46,-3,54,1.11,4044,5,86,33,48,955,269.0,294,453,60,117.0,115,1,292,202,31,0,0,194,250,-1,269,,,,,,,,,,,,
594823,1560688226827,1,0.44,1.62,3.7,2.36,2.46,0.79,-0.77,0.38,47,-0,55,1.11,4040,5,86,33,48,932,268.0,289,448,60,118.0,115,1,292,202,31,0,0,193,13874,-214,268,,,,,,,,,,,,
594843,1560688226847,0,0.44,1.62,3.7,2.33,2.45,0.91,-0.8,0.39,48,-2,57,1.21,4037,5,86,33,47,919,267.0,288,456,60,119.0,115,1,291,198,31,0,0,183,12800,-214,267,45.701969,4.911078,24.38,198.8,6,1.6483,0,0.0,0.43,7,0.35,9.9141
594863,1560688226867,-1,0.44,1.61,3.7,2.32,2.41,0.91,-0.9,0.35,49,-3,58,1.28,4068,14,86,33,48,909,266.0,290,455,60,119.0,115,1,292,203,31,0,0,171,250,-1,266,,,,,,,,,,,,
594883,1560688226887,2,0.43,1.6,3.7,2.31,2.39,0.88,-0.9,0.3,50,-2,59,1.26,4042,25,86,33,52,899,265.0,287,447,60,118.0,115,1,296,215,31,0,0,156,250,250,265,,,,,,,,,,,,
594903,1560688226907,-2,0.44,1.58,3.64,2.29,2.38,0.9,-0.93,0.3,51,-1,61,1.29,4017,33,86,33,57,895,265.0,286,456,60,119.0,128,1,295,243,34,0,0,143,-1480,-1494,265,,,,,,,,,,,,
594923,1560688226927,-1,0.43,1.57,3.5,2.3,2.38,0.98,-0.94,0.34,52,-5,61,1.36,4162,37,86,33,63,897,263.0,287,452,60,119.0,128,1,292,268,34,0,0,136,14412,16896,263,,,,,,,,,,,,
594943,1560688226947,-1,0.43,1.55,3.49,2.32,2.41,0.94,-0.94,0.36,53,-7,61,1.33,4303,40,86,33,69,898,261.0,290,452,60,118.0,128,1,294,303,34,0,0,173,250,-17920,261,45.701969,4.911086,23.36,198.8,6,1.6483,0,0.0,0.4317,7,0.35,9.9157
594963,1560688226967,-1,0.42,1.53,3.54,2.33,2.48,0.88,-0.99,0.29,53,-6,62,1.33,4331,44,86,33,74,900,260.0,293,448,60,117.0,128,1,294,323,34,0,0,172,-1481,10812,260,,,,,,,,,,,,
594983,1560688226987,5,0.39,1.54,3.65,2.37,2.59,0.81,-0.99,0.26,53,-4,63,1.28,4439,53,86,33,80,902,261.0,297,447,60,117.0,128,1,291,383,34,0,0,168,250,15360,261,,,,,,,,,,,,
595003,1560688227002,5,0.38,1.58,3.71,2.38,2.65,0.77,-0.97,0.23,52,-4,65,1.24,4455,64,86,33,86,902,261.0,303,449,60,117.0,272,1,290,435,71,0,0,184,-2560,250,261,,,,,,,,,,,,
595023,1560688227022,4,0.36,1.69,3.7,2.39,2.66,0.73,-0.98,0.19,51,-2,66,1.22,4389,73,86,33,93,901,261.0,294,459,60,118.0,272,1,291,531,71,0,0,215,250,-1494,261,,,,,,,,,,,,
595043,1560688227042,2,0.35,1.78,3.71,2.37,2.65,0.75,-0.98,0.18,50,0,68,1.23,4287,79,86,33,96,898,261.0,268,464,60,118.0,272,1,293,615,71,0,0,263,250,250,261,45.701965,4.911093,22.23,198.7,6,1.6483,0,0.0,0.4333,7,0.35,9.9174
595063,1560688227062,1,0.33,1.81,3.71,2.35,2.57,0.8,-0.93,0.26,51,0,69,1.23,4223,81,86,33,96,895,259.0,275,468,60,119.0,272,1,294,614,71,0,0,264,250,250,259,,,,,,,,,,,,
595083,1560688227082,-0,2.92,1.82,3.68,2.33,2.45,0.88,-0.96,0.3,51,1,68,1.3,4206,81,86,33,96,891,258.0,260,457,60,118.0,272,1,294,614,71,0,0,261,14326,250,258,,,,,,,,,,,,
595103,1560688227106,1,2.89,1.81,3.53,2.32,2.29,0.91,-0.9,0.31,51,-3,68,1.29,4378,82,86,33,97,893,256.0,272,440,60,118.0,399,1,291,645,103,0,0,203,250,-1445,256,,,,,,,,,,,,
595123,1560688227126,0,2.83,1.79,3.49,2.29,2.2,1.03,-0.94,0.37,49,-3,68,1.39,4667,83,86,33,97,903,252.0,267,452,60,119.0,399,1,286,647,103,0,0,180,19456,250,252,,,,,,,,,,,,
595143,1560688227146,4,2.75,1.77,3.47,2.26,2.19,1.12,-0.97,0.33,47,-4,68,1.48,4882,84,86,33,97,913,249.0,254,456,60,119.0,399,1,282,649,103,0,0,184,-1481,-25600,249,45.701958,4.911098,20.9,198.7,6,1.6483,0,0.0,0.435,7,0.35,9.9191
595163,1560688227166,0,2.67,1.79,3.4,2.24,2.22,1.03,-0.93,0.46,45,-4,67,1.39,5028,86,86,33,97,926,247.0,267,449,60,118.0,399,1,280,648,103,0,0,199,250,23482,247,,,,,,,,,,,,
595183,1560688227186,2,2.56,1.9,3.3,2.23,2.27,0.96,-0.85,0.52,43,-0,67,1.28,5090,87,86,33,97,960,247.0,286,449,60,118.0,399,1,282,642,103,0,0,303,13874,10818,247,,,,,,,,,,,,
595203,1560688227208,0,2.45,2.09,3.16,2.25,2.27,0.98,-0.73,0.67,40,2,64,1.22,5142,87,86,33,97,1058,247.0,281,453,60,119.0,497,1,284,638,124,0,0,293,13964,-10440,247,,,,,,,,,,,,
595223,1560688227228,2,2.32,2.3,2.99,2.25,2.31,0.9,-0.64,0.68,36,2,61,1.11,5215,87,86,33,96,1155,250.0,290,453,60,117.0,497,1,287,632,124,0,0,223,1088,250,249,,,,,,,,,,,,
595243,1560688227248,5,2.19,2.5,2.81,2.26,2.37,0.89,-0.56,0.75,34,1,56,1.05,5145,88,86,33,97,1241,249.0,290,456,60,118.0,497,1,284,616,124,0,0,242,-1530,85,249,45.701954,4.911102,19.34,198.7,6,1.6483,0,0.0,0.4367,7,0.35,9.9207
595263,1560688227268,-1,2.06,2.58,2.74,2.27,2.36,0.78,-0.48,0.76,31,2,50,0.91,5018,88,86,33,97,1313,250.0,287,448,60,117.0,497,1,279,646,124,0,0,273,8704,24320,250,,,,,,,,,,,,
595283,1560688227288,0,1.94,2.58,2.75,2.32,2.37,0.77,-0.4,0.71,29,1,46,0.87,4943,88,86,33,97,1336,248.0,293,452,60,119.0,497,1,281,649,124,0,0,304,13468,-41,248,,,,,,,,,,,,
595303,1560688227308,5,1.81,2.57,2.75,2.32,2.38,0.82,-0.31,0.8,25,-0,42,0.87,4947,88,86,33,97,1359,246.0,297,451,60,119.0,487,1,281,649,121,0,0,287,-1484,-1,246,,,,,,,,,,,,
595323,1560688227328,1,1.7,2.57,2.76,2.27,2.51,0.8,-0.29,0.8,21,-0,38,0.85,4951,89,86,33,97,1297,242.0,307,448,60,119.0,487,1,280,650,121,0,0,261,23482,-1,242,,,,,,,,,,,,
595343,1560688227348,1,1.63,2.58,2.75,2.16,2.71,0.78,-0.22,0.76,16,-4,34,0.81,5000,90,86,33,97,1233,243.0,312,438,60,117.0,487,1,279,650,121,0,0,267,-1445,21760,241,45.701954,4.911106,15.67,198.7,6,1.6483,0,0.0,0.4383,7,0.35,9.9224
595363,1560688227368,3,1.57,2.61,2.76,2.08,2.82,0.76,-0.12,0.81,14,-2,29,0.77,5097,95,86,33,97,1152,250.0,321,454,60,119.0,487,1,282,642,121,0,0,271,10818,0,239,,,,,,,,,,,,
595383,1560688227388,1,1.52,2.61,2.84,2.06,2.84,0.67,-0.09,0.84,12,-2,22,0.68,5308,99,86,33,97,1070,252.0,326,451,60,117.0,487,1,290,624,121,0,0,278,-1,-1281,237,,,,,,,,,,,,
595403,1560688227408,0,1.51,2.61,2.94,2.06,2.83,0.79,0.05,0.86,9,-3,17,0.79,5460,100,86,33,97,1050,256.0,332,451,60,118.0,527,1,296,593,125,0,0,301,506,250,237,,,,,,,,,,,,
595423,1560688227428,1,1.52,2.6,2.92,2.06,2.79,0.82,0.06,0.9,5,-2,11,0.82,5680,100,86,33,96,1030,261.0,345,451,60,119.0,527,1,304,577,125,0,0,298,-1,28160,237,,,,,,,,,,,,
595443,1560688227448,1,1.54,2.61,2.84,2.05,2.76,0.83,0.04,0.86,1,-0,6,0.83,5916,100,86,33,96,1004,269.0,356,448,60,119.0,527,1,313,561,125,0,0,296,-1,32000,241,45.70195,4.91111,17.87,198.8,6,1.6483,0,0.0,0.44,7,0.35,9.9241
595463,1560688227468,1,1.57,2.64,2.74,2.04,2.76,0.87,0.0,0.82,-2,2,0,0.87,6117,100,86,33,96,978,276.0,371,446,60,119.0,527,1,322,543,125,0,0,311,250,-24576,245,,,,,,,,,,,,
595483,1560688227488,-1,1.61,2.65,2.73,2.07,2.74,0.87,0.04,0.9,-5,3,-4,0.88,6204,100,86,33,96,965,285.0,385,452,60,119.0,527,1,327,549,125,0,0,318,-16896,-1246,246,,,,,,,,,,,,
595503,1560688227508,2,1.63,2.66,2.75,2.08,2.67,0.84,0.12,0.99,-7,-0,-8,0.84,6275,100,86,33,96,956,289.0,394,458,60,118.0,520,1,330,548,130,0,0,359,80,150,251,,,,,,,,,,,,
595523,1560688227528,3,1.66,2.66,2.78,2.12,2.65,0.75,0.26,0.96,-11,-1,-11,0.8,6321,100,86,33,96,951,296.0,402,458,60,117.0,520,1,333,546,130,0,0,347,90,-27136,256,,,,,,,,,,,,
595543,1560688227548,1,1.69,2.66,2.75,2.1,2.67,0.7,0.38,0.84,-14,-1,-12,0.8,6304,100,86,33,96,948,301.0,407,454,60,117.0,520,1,332,546,130,0,0,334,26880,257,262,45.701946,4.911115,19.96,198.8,6,1.6483,0,0.0,0.4417,7,0.35,9.9257
595563,1560688227568,-1,1.74,2.68,2.7,2.05,2.74,0.71,0.39,0.91,-16,3,-14,0.82,6388,100,86,33,95,950,308.0,409,448,60,118.0,520,1,337,544,130,0,0,332,125,0,267,,,,,,,,,,,,
595583,1560688227588,3,1.81,2.68,2.69,2.02,2.82,0.83,0.4,0.99,-20,-2,-18,0.92,6510,100,86,33,96,954,318.0,415,446,60,119.0,520,1,342,536,130,0,0,336,145,-14714,270,,,,,,,,,,,,
595603,1560688227608,-0,1.89,2.67,2.72,1.99,2.83,0.61,0.52,0.88,-20,-0,-22,0.8,6569,100,86,33,96,962,326.0,425,451,60,117.0,492,1,345,539,134,0,0,364,-22016,-1246,274,,,,,,,,,,,,
595623,1560688227628,3,1.99,2.66,2.76,2.0,2.82,0.68,0.52,0.99,-23,2,-26,0.85,6698,100,86,33,95,972,336.0,430,455,60,119.0,492,1,352,533,134,0,0,376,13,-6640,280,,,,,,,,,,,,
595643,1560688227648,2,2.07,2.66,2.75,2.01,2.77,0.48,0.58,0.91,-24,-0,-28,0.75,6885,100,86,33,95,979,342.0,434,434,60,118.0,492,1,362,530,134,0,0,366,-31206,-29978,287,45.701939,4.91112,25.55,198.8,6,1.6483,0,0.0,0.4433,7,0.35,9.9274
595663,1560688227668,4,2.12,2.65,2.75,2.03,2.72,0.61,0.55,1.02,-26,-3,-30,0.82,7014,100,86,33,95,983,343.0,446,431,60,119.0,492,1,370,529,134,0,0,365,-14714,486,293,,,,,,,,,,,,
595683,1560688227688,2,2.16,2.65,2.76,2.07,2.69,0.55,0.44,1.05,-25,1,-31,0.71,7072,100,86,33,95,993,343.0,455,448,60,119.0,492,1,374,532,134,0,0,380,-14714,-19019,297,,,,,,,,,,,,
595703,1560688227710,3,2.18,2.66,2.78,2.09,2.66,0.32,0.51,1.01,-24,2,-31,0.61,7192,100,86,33,95,1006,344.0,463,455,60,117.0,480,1,383,539,144,0,0,397,-10554,1,303,,,,,,,,,,,,
595723,1560688227730,-0,2.2,2.65,2.8,2.1,2.63,0.3,0.56,1.05,-24,1,-31,0.63,7264,100,86,33,95,1017,346.0,481,442,60,118.0,480,1,388,543,144,0,0,389,-30438,-19019,315,,,,,,,,,,,,
595743,1560688227750,1,2.22,2.66,2.79,2.12,2.6,0.47,0.61,1.12,-26,0,-31,0.77,7315,100,86,33,95,1025,349.0,480,440,60,118.0,480,1,392,546,144,0,0,378,2811,17144,321,45.701935,4.911127,27.3,198.8,6,1.6483,0,0.0,0.445,7,0.35,9.9291
595763,1560688227770,2,2.22,2.66,2.76,2.13,2.58,0.6,0.59,1.16,-26,-1,-31,0.84,7396,100,86,33,94,1011,352.0,483,430,60,118.0,480,1,399,550,144,0,0,385,3183,-32702,328,,,,,,,,,,,,
595783,1560688227790,1,2.24,2.64,2.76,2.12,2.55,0.58,0.62,1.04,-24,1,-30,0.85,7402,100,86,33,94,982,355.0,486,424,60,118.0,480,1,400,550,144,0,0,401,4104,17144,333,,,,,,,,,,,,
595803,1560688227810,1,2.24,2.61,2.76,2.12,2.5,0.71,0.64,0.99,-22,4,-27,0.96,7464,100,86,33,94,948,360.0,492,411,60,117.0,458,1,404,553,156,0,0,407,-14707,-18948,343,,,,,,,,,,,,
595823,1560688227830,-1,2.25,2.58,2.77,2.12,2.48,0.81,0.52,1.09,-21,4,-27,0.96,7458,100,86,33,94,910,365.0,495,406,60,118.0,458,1,404,553,156,0,0,398,-6405,1,353,,,,,,,,,,,,
595843,1560688227850,1,2.24,2.58,2.77,2.14,2.47,0.85,0.47,1.12,-20,-1,-25,0.97,7509,100,86,33,94,867,371.0,495,402,60,119.0,458,1,408,555,156,0,0,398,257,-8165,362,45.701931,4.911134,30.95,198.8,6,1.6483,0,0.0,0.4467,7,0.35,9.9307
595863,1560688227870,0,2.25,2.58,2.75,2.14,2.44,0.82,0.43,0.99,-18,-0,-23,0.93,7536,100,86,33,94,819,376.0,491,422,60,118.0,458,1,410,557,156,0,0,391,3,10541,368,,,,,,,,,,,,
595883,1560688227890,1,2.25,2.59,2.77,2.16,2.44,0.89,0.43,0.96,-17,2,-19,0.99,7588,100,86,33,94,784,382.0,500,434,60,118.0,458,1,412,559,156,0,0,412,19125,-8151,374,,,,,,,,,,,,
595903,1560688227910,1,2.25,2.58,2.83,2.21,2.45,0.95,0.37,1.06,-15,3,-19,1.02,7597,100,86,33,94,774,383.0,494,447,60,118.0,426,1,414,559,160,0,0,424,240,11560,380,,,,,,,,,,,,
595923,1560688227930,1,2.25,2.58,2.89,2.26,2.43,0.88,0.45,1.1,-15,-1,-20,0.99,7744,100,86,33,94,768,392.0,492,444,60,117.0,426,1,426,567,160,0,0,423,1,7154,386,,,,,,,,,,,,
595943,1560688227950,6,2.24,2.58,2.89,2.28,2.42,0.74,0.34,1.14,-14,-2,-18,0.82,7948,100,86,33,93,766,397.0,497,443,60,117.0,426,1,442,575,160,0,0,422,-3968,-21944,393,45.701923,4.911143,34.22,198.8,6,1.6483,0,0.0,0.4483,7,0.35,9.9324
595963,1560688227970,2,2.24,2.6,2.86,2.28,2.42,0.72,0.15,1.15,-12,0,-15,0.73,8067,100,86,33,91,767,403.0,512,441,60,118.0,426,1,448,584,160,0,0,421,-8151,5600,397,,,,,,,,,,,,
595983,1560688227990,5,2.24,2.61,2.85,2.29,2.43,0.65,0.24,1.15,-11,3,-15,0.69,8223,100,86,33,91,775,408.0,512,453,60,117.0,426,1,443,603,160,0,0,427,10392,10305,403,,,,,,,,,,,,
596003,1560688228001,4,2.25,2.61,2.86,2.29,2.44,0.68,0.13,1.05,-10,-1,-16,0.7,8408,100,86,33,90,784,413.0,521,444,60,118.0,467,1,439,622,190,0,0,453,-9166,8488,409,,,,,,,,,,,,
596023,1560688228021,1,2.26,2.6,2.86,2.31,2.43,0.64,0.06,1.14,-8,-2,-14,0.65,8585,100,86,33,89,799,418.0,527,445,60,117.0,467,1,432,622,190,0,0,471,-3414,3571,416,,,,,,,,,,,,
596043,1560688228041,2,2.25,2.58,2.89,2.29,2.39,0.52,0.2,1.15,-8,1,-14,0.56,8757,100,87,33,88,812,425.0,537,447,60,117.0,467,1,425,611,190,0,0,478,-3856,2211,423,45.701916,4.911152,36.66,198.8,6,1.6483,0,0.0,0.45,7,0.35,9.934
596063,1560688228061,3,2.25,2.57,2.9,2.28,2.38,0.45,0.38,1.12,-7,2,-12,0.59,8861,100,87,33,87,818,432.0,555,456,60,117.0,467,1,420,611,190,0,0,481,-3322,3580,429,,,,,,,,,,,,
596083,1560688228081,1,2.26,2.58,2.89,2.29,2.38,0.27,0.55,1.11,-7,-1,-10,0.61,9062,100,87,33,87,828,437.0,558,458,60,117.0,467,1,418,599,190,0,0,464,19477,248,437,,,,,,,,,,,,
596103,1560688228107,-0,2.25,2.58,2.88,2.28,2.37,0.13,0.69,1.07,-6,3,-8,0.71,9159,100,87,33,87,851,446.0,574,455,60,117.0,472,1,418,599,207,0,0,474,16648,-32768,442,,,,,,,,,,,,
596123,1560688228127,3,2.25,2.61,2.88,2.28,2.37,0.18,0.78,1.08,-5,4,-8,0.8,9236,100,87,33,87,875,452.0,576,447,60,117.0,472,1,418,599,207,0,0,499,-6387,505,449,,,,,,,,,,,,
596143,1560688228147,4,2.25,2.65,2.89,2.37,2.34,0.15,0.65,1.17,-4,4,-8,0.67,9323,100,87,33,87,892,457.0,581,445,60,118.0,472,1,418,599,207,0,0,522,-9160,-1818,450,45.701912,4.911163,39.63,198.8,6,1.6483,0,0.0,0.4517,7,0.36,9.9357
596163,1560688228167,5,2.25,2.68,2.89,2.43,2.31,0.31,0.39,1.25,-4,2,-9,0.5,9407,100,87,33,87,912,460.0,573,446,60,118.0,472,1,418,599,207,0,0,519,-23623,-9216,456,,,,,,,,,,,,
596183,1560688228187,3,2.25,2.69,2.88,2.42,2.32,0.3,0.46,1.14,-4,2,-8,0.55,9512,100,87,33,86,943,469.0,583,449,60,117.0,472,1,418,600,207,0,0,493,10432,2088,465,,,,,,,,,,,,
596203,1560688228207,5,2.24,2.69,2.87,2.4,2.35,0.27,0.31,1.22,-4,0,-7,0.41,9590,100,87,33,86,974,473.0,589,447,60,118.0,456,1,415,590,214,0,0,507,-17956,-9072,473,,,,,,,,,,,,
596223,1560688228227,1,2.26,2.67,2.86,2.38,2.37,0.27,0.3,1.18,-3,4,-8,0.4,9720,100,87,33,86,987,481.0,590,457,60,117.0,456,1,409,593,214,0,0,515,32033,6274,477,,,,,,,,,,,,
596243,1560688228247,6,2.25,2.65,2.87,2.39,2.38,0.33,0.17,1.23,-2,1,-8,0.37,9873,100,87,33,85,1001,488.0,591,455,60,117.0,456,1,401,581,214,0,0,524,1,16383,484,45.701904,4.911175,42.52,198.8,6,1.6483,0,0.0,0.4533,7,0.36,9.9374
596263,1560688228267,5,2.24,2.63,2.98,2.39,2.4,0.24,0.31,1.14,-2,-1,-6,0.39,9941,100,87,33,85,1008,493.0,613,455,60,117.0,456,1,398,581,214,0,0,573,-6528,14504,491,,,,,,,,,,,,
596283,1560688228287,2,2.26,2.61,3.0,2.4,2.42,0.21,0.14,1.18,-3,-1,-5,0.25,10140,100,87,33,85,1015,496.0,613,450,60,117.0,456,1,405,582,214,0,0,557,2524,2104,494,,,,,,,,,,,,
596303,1560688228307,2,2.27,2.61,2.97,2.38,2.43,0.26,0.13,1.11,-3,2,-5,0.29,10405,100,87,33,85,1011,501.0,620,450,60,117.0,457,1,424,582,227,0,0,524,6274,-22263,501,,,,,,,,,,,,
596323,1560688228327,3,2.25,2.62,2.93,2.38,2.41,0.32,0.2,1.11,-2,-0,-4,0.38,10469,100,87,33,85,1004,508.0,627,452,60,117.0,457,1,428,582,227,0,0,543,-4054,-3190,507,,,,,,,,,,,,
596343,1560688228347,3,2.26,2.61,2.91,2.38,2.35,0.25,0.18,1.03,-2,-0,-3,0.3,10551,100,87,33,85,999,515.0,623,447,60,117.0,457,1,432,582,227,0,0,564,-14,6273,513,45.701897,4.911188,46.03,198.7,6,1.6483,0,0.0,0.455,7,0.36,9.939
596363,1560688228367,3,2.26,2.62,2.9,2.38,2.33,0.31,0.14,1.07,-1,1,-4,0.34,10533,100,87,33,85,993,522.0,617,450,60,117.0,457,1,431,582,227,0,0,581,2524,2104,518,,,,,,,,,,,,
596383,1560688228387,3,2.26,2.61,2.9,2.38,2.32,0.38,0.15,1.02,-3,-3,-3,0.41,10593,100,87,33,85,993,528.0,620,450,60,117.0,457,1,433,582,227,0,0,566,-28648,2211,527,,,,,,,,,,,,
596403,1560688228407,2,2.27,2.61,2.88,2.38,2.32,0.29,0.32,0.84,-3,-6,-1,0.43,10593,100,87,33,85,994,533.0,617,448,60,117.0,443,1,433,582,234,0,0,564,6274,-16384,530,,,,,,,,,,,,
596423,1560688228427,3,2.27,2.62,2.86,2.37,2.35,0.33,0.3,0.86,-3,-1,-2,0.45,10695,100,87,33,85,993,540.0,621,450,60,117.0,443,1,436,582,234,0,0,564,-2934,-4035,538,,,,,,,,,,,,
596443,1560688228447,5,2.26,2.61,2.88,2.36,2.36,0.41,0.29,0.97,-2,-1,-3,0.5,10720,100,87,33,85,990,543.0,623,452,60,117.0,443,1,436,582,234,0,0,579,1779,8488,545,45.701889,4.911202,49.0,198.6,6,1.6483,0,0.0,0.4567,7,0.36,9.9407
596463,1560688228467,3,2.26,2.6,2.93,2.36,2.37,0.43,0.22,0.96,-2,1,-3,0.48,10825,100,87,33,85,987,551.0,626,449,60,117.0,443,1,439,582,234,0,0,595,6274,774,549,,,,,,,,,,,,
596483,1560688228487,4,2.27,2.57,2.95,2.35,2.35,0.37,0.2,1.06,-2,1,-3,0.42,10984,100,87,33,85,984,558.0,632,452,60,117.0,443,1,443,582,234,0,0,590,6273,259,554,,,,,,,,,,,,
596503,1560688228509,5,2.26,2.58,2.94,2.34,2.34,0.36,0.27,1.01,-1,-0,-2,0.45,11068,100,87,33,85,977,563.0,636,454,60,117.0,423,1,444,582,237,0,0,594,2211,17344,560,,,,,,,,,,,,
596523,1560688228529,3,2.27,2.59,2.94,2.34,2.35,0.35,0.17,1.1,-2,1,-3,0.39,11180,100,87,33,85,969,567.0,636,451,60,117.0,423,1,443,564,237,0,0,592,1780,-16179,565,,,,,,,,,,,,
596543,1560688228549,5,2.26,2.59,2.94,2.34,2.35,0.32,0.19,1.0,-1,3,-3,0.38,11322,100,87,33,84,963,574.0,637,452,60,117.0,423,1,441,564,237,0,0,598,774,-7939,570,45.701881,4.911216,51.76,198.6,6,1.6483,0,0.0,0.4583,7,0.36,9.9424
596563,1560688228569,4,2.26,2.59,2.92,2.34,2.34,0.3,0.27,1.06,-1,7,-2,0.41,11391,100,87,33,84,959,577.0,638,452,60,117.0,423,1,441,564,237,0,0,608,30208,17740,577,,,,,,,,,,,,
596583,1560688228589,1,2.26,2.58,2.88,2.33,2.32,0.38,0.24,1.07,-0,7,-3,0.45,11453,100,87,33,84,950,583.0,626,453,60,117.0,423,1,441,564,237,0,0,607,-25872,5344,582,,,,,,,,,,,,
596603,1560688228607,3,2.27,2.57,2.86,2.34,2.32,0.36,0.21,1.03,-0,5,-3,0.42,11460,100,87,33,84,940,589.0,633,448,60,116.0,417,1,441,564,244,0,0,618,2048,269,588,,,,,,,,,,,,
596623,1560688228627,4,2.26,2.56,2.88,2.35,2.35,0.39,0.19,1.1,-1,2,-3,0.43,11538,100,87,33,84,931,595.0,639,447,60,117.0,417,1,440,564,244,0,0,620,6273,506,595,,,,,,,,,,,,
596643,1560688228647,4,2.26,2.56,2.91,2.36,2.4,0.39,0.17,1.09,-1,-1,-2,0.43,11682,100,87,32,84,925,599.0,640,447,60,117.0,417,1,440,568,244,0,0,626,4956,-4876,599,45.701874,4.911232,54.13,198.6,6,1.6483,0,0.0,0.46,7,0.36,9.944
596663,1560688228667,1,2.26,2.55,2.91,2.36,2.4,0.36,0.2,1.06,-2,-0,-2,0.41,11822,100,87,32,84,915,603.0,641,450,60,117.0,417,1,440,571,244,0,0,632,243,-5120,603,,,,,,,,,,,,
596683,1560688228687,3,2.27,2.52,2.91,2.34,2.43,0.36,0.29,0.99,-2,2,-3,0.46,11950,100,87,32,83,901,610.0,643,451,60,117.0,417,1,440,558,244,0,0,642,-30139,-3584,610,,,,,,,,,,,,
596703,1560688228709,3,2.27,2.5,2.91,2.32,2.4,0.27,0.3,0.93,-2,3,-3,0.4,12073,100,87,32,83,890,615.0,649,451,60,117.0,417,1,440,560,255,0,0,644,26688,-3584,614,,,,,,,,,,,,
596723,1560688228729,4,2.26,2.49,2.94,2.31,2.36,0.19,0.25,1.03,-1,4,-2,0.31,12167,100,87,32,83,881,620.0,642,450,60,117.0,417,1,440,560,255,0,0,656,3403,479,620,,,,,,,,,,,,
596743,1560688228749,3,2.28,2.48,2.96,2.3,2.34,0.2,0.25,1.13,-1,5,-3,0.32,12238,100,87,32,83,870,626.0,636,451,60,116.0,417,1,440,560,255,0,0,662,20993,-2830,625,45.701862,4.911248,57.2,198.6,6,1.6483,0,0.0,0.4617,7,0.36,9.9457
596763,1560688228769,4,2.28,2.49,2.92,2.29,2.32,0.25,0.2,1.1,-2,5,-1,0.32,12254,100,87,32,83,853,631.0,641,446,60,116.0,417,1,440,560,255,0,0,659,3,2024,631,,,,,,,,,,,,
596783,1560688228789,4,2.28,2.55,2.85,2.29,2.3,0.4,0.11,1.06,-2,1,-1,0.42,12295,100,87,32,83,838,634.0,641,448,60,117.0,417,1,440,560,255,0,0,656,-2836,-27404,631,,,,,,,,,,,,
596803,1560688228809,1,2.29,2.59,2.84,2.31,2.29,0.5,0.02,1.07,-2,-1,-2,0.5,12319,100,87,32,83,829,637.0,640,447,60,117.0,412,1,440,560,261,0,0,660,-10251,3543,633,,,,,,,,,,,,
596823,1560688228829,5,2.28,2.58,2.85,2.31,2.29,0.52,-0.05,1.16,-1,1,-3,0.53,12351,100,87,32,83,818,641.0,637,442,60,117.0,412,1,440,560,261,0,0,664,24,3543,641,,,,,,,,,,,,
596843,1560688228849,5,2.28,2.58,2.91,2.35,2.31,0.42,-0.01,1.11,0,0,-3,0.42,12458,100,87,32,83,805,645.0,640,451,60,116.0,412,1,440,560,261,0,0,670,-2830,31988,645,45.701855,4.911264,59.46,198.6,6,1.6483,0,0.0,0.4633,7,0.37,9.9474
596863,1560688228869,2,2.28,2.57,3.02,2.38,2.42,0.34,0.07,0.95,0,-2,-2,0.34,12541,100,87,32,83,795,648.0,651,451,60,117.0,412,1,440,560,261,0,0,684,4909,-10346,650,,,,,,,,,,,,
596883,1560688228889,4,2.27,2.54,3.07,2.37,2.55,0.41,-0.04,0.95,0,-2,-2,0.41,12686,100,87,32,83,790,654.0,648,453,60,117.0,412,1,440,560,261,0,0,681,-6006,-3584,654,,,,,,,,,,,,
596903,1560688228909,1,2.28,2.54,3.11,2.37,2.57,0.41,0.08,0.99,-0,-2,-0,0.42,12729,100,87,32,84,786,657.0,651,455,60,117.0,413,1,440,560,271,0,0,686,-388,3543,659,,,,,,,,,,,,
596923,1560688228929,4,2.28,2.54,3.15,2.36,2.59,0.34,0.02,1.03,1,0,-3,0.34,12939,100,87,32,83,780,661.0,646,455,60,117.0,413,1,440,575,271,0,0,685,-10344,8010,661,,,,,,,,,,,,
596943,1560688228949,4,2.27,2.52,3.2,2.36,2.59,0.31,0.07,0.72,1,1,-2,0.32,13084,100,87,32,83,774,668.0,649,460,60,117.0,413,1,440,560,271,0,0,709,-2826,-10448,668,45.701843,4.911282,62.25,198.6,6,1.6483,0,0.0,0.465,7,0.37,9.949
596963,1560688228969,-1,2.28,2.5,3.19,2.38,2.53,0.38,-0.01,0.83,1,0,-1,0.38,13093,100,87,32,83,772,672.0,653,464,60,120.0,413,1,440,560,271,0,0,710,-388,16599,672,,,,,,,,,,,,
596983,1560688228989,-1,2.28,2.51,3.15,2.37,2.5,0.44,0.02,0.74,1,1,-1,0.44,12558,100,87,32,84,772,673.0,656,451,60,120.0,413,1,440,592,271,0,0,690,-2830,11576,673,,,,,,,,,,,,
597003,1560688229002,1,2.29,2.51,3.11,2.36,2.5,0.43,-0.04,0.86,2,1,-1,0.43,12128,100,87,32,85,772,674.0,650,453,60,119.0,398,1,440,592,269,0,0,677,-26380,-10344,674,,,,,,,,,,,,
597023,1560688229022,-1,2.28,2.49,3.12,2.31,2.5,0.47,-0.1,0.97,3,-1,-3,0.48,11867,100,87,32,85,771,674.0,646,458,60,119.0,398,1,440,588,269,0,0,686,8958,-26892,674,,,,,,,,,,,,
597043,1560688229042,-2,2.28,2.4,3.21,2.23,2.52,0.62,-0.05,0.96,3,-4,-4,0.62,11617,100,87,32,86,773,674.0,647,450,60,119.0,398,1,440,602,269,0,0,669,-26380,-388,674,45.701836,4.911301,64.91,198.5,6,1.6483,0,0.0,0.4667,7,0.37,9.9507
597063,1560688229062,3,2.27,2.25,3.31,2.15,2.57,0.66,-0.19,1.06,0,-8,-3,0.69,11405,100,87,32,86,778,674.0,643,453,60,119.0,398,1,441,601,269,0,0,667,-26380,-26380,674,,,,,,,,,,,,
597083,1560688229082,6,2.26,2.27,3.32,2.12,2.61,0.64,-0.04,1.02,1,3,-5,0.64,11003,100,87,32,86,896,676.0,636,456,60,117.0,398,1,445,1028,269,0,0,710,-26892,1524,675,,,,,,,,,,,,
597103,1560688229108,5,2.26,2.29,3.19,2.13,2.53,0.69,-0.03,1.07,1,-2,-3,0.69,10069,100,87,32,88,1011,684.0,622,455,60,116.0,592,1,401,991,402,0,0,808,3543,31988,682,,,,,,,,,,,,
597123,1560688229128,2,2.26,2.32,3.06,2.14,2.46,0.66,-0.08,1.13,1,4,-3,0.67,10285,100,87,32,87,1127,688.0,622,453,60,117.0,592,1,417,846,402,0,0,734,24,-22796,687,,,,,,,,,,,,
597143,1560688229148,3,2.26,2.36,2.93,2.15,2.3,0.67,-0.05,1.21,0,4,-5,0.67,10405,100,87,32,86,1242,692.0,616,451,60,117.0,592,1,425,715,402,0,0,721,12333,-3450,690,45.701824,4.911319,66.15,198.4,6,1.6483,0,0.0,0.4683,7,0.37,9.9524
597163,1560688229168,5,2.26,2.38,2.79,2.17,2.21,0.63,-0.0,1.14,0,4,-6,0.63,10135,100,87,32,86,1358,698.0,613,456,60,116.0,592,1,405,611,402,0,0,736,24,-22796,696,,,,,,,,,,,,
597183,1560688229188,1,2.28,2.44,2.78,2.22,2.21,0.56,0.15,0.92,0,4,-2,0.58,9780,100,87,32,86,1473,702.0,612,457,60,117.0,592,1,406,597,402,0,0,753,8010,-2358,702,,,,,,,,,,,,
597203,1560688229208,6,2.27,2.51,2.78,2.29,2.23,0.56,0.04,1.02,0,3,-2,0.56,9715,100,87,32,85,1498,707.0,607,450,60,117.0,313,1,409,579,220,0,0,733,-30694,-2356,707,,,,,,,,,,,,
597223,1560688229228,1,2.27,2.55,2.85,2.33,2.3,0.55,0.21,0.98,-1,1,-1,0.59,9842,100,87,32,85,1498,710.0,617,462,60,117.0,313,1,403,580,220,0,0,729,6658,1037,710,,,,,,,,,,,,
597243,1560688229248,2,2.26,2.57,2.97,2.33,2.38,0.63,0.07,1.03,-1,-1,-1,0.63,10005,100,87,32,85,1407,713.0,616,453,60,117.0,313,1,395,582,220,0,0,729,-13312,-2356,713,45.701817,4.911338,66.93,198.4,6,1.6483,0,0.0,0.47,7,0.37,9.9541
597263,1560688229268,6,2.26,2.62,3.1,2.3,2.5,0.63,0.12,0.98,-1,-4,-0,0.64,10124,100,87,32,85,1304,717.0,613,455,60,117.0,313,1,404,582,220,0,0,746,-23490,-31066,714,,,,,,,,,,,,
597283,1560688229288,6,2.26,2.6,3.25,2.28,2.62,0.5,0.09,0.9,-0,-2,-2,0.51,10307,100,87,32,85,1202,720.0,616,457,60,117.0,313,1,416,582,220,0,0,761,-25858,-2830,720,,,,,,,,,,,,
597303,1560688229306,3,2.26,2.58,3.32,2.29,2.64,0.54,0.13,0.85,0,-2,-2,0.55,10474,100,87,32,85,1101,728.0,620,458,60,117.0,318,1,429,582,229,0,0,787,-2830,-22795,721,,,,,,,,,,,,
597323,1560688229326,1,2.25,2.52,3.32,2.27,2.64,0.44,0.09,0.89,-0,0,-1,0.45,10683,100,87,32,85,1013,729.0,618,462,60,117.0,318,1,435,582,229,0,0,777,-22796,6389,731,,,,,,,,,,,,
597343,1560688229346,3,2.28,2.47,3.19,2.21,2.61,0.45,0.08,0.92,1,3,-1,0.46,10732,100,87,32,85,931,736.0,626,451,60,117.0,318,1,437,582,229,0,0,769,-2830,-7436,736,45.701801,4.911358,69.73,198.4,6,1.6483,0,0.0,0.4717,7,0.37,9.9557
597363,1560688229366,2,2.27,2.45,3.02,2.2,2.49,0.39,0.07,1.03,1,5,-1,0.39,10825,100,87,32,85,915,742.0,626,457,60,117.0,318,1,439,582,229,0,0,763,-13068,-31066,741,,,,,,,,,,,,
597383,1560688229386,5,2.27,2.44,2.91,2.22,2.35,0.36,0.1,1.05,1,3,0,0.38,10702,100,87,32,85,935,746.0,629,454,60,117.0,318,1,436,582,229,0,0,788,-30694,-31066,745,,,,,,,,,,,,
597403,1560688229408,6,2.26,2.43,2.75,2.22,2.15,0.44,0.14,0.96,0,5,1,0.46,10575,100,87,32,85,960,753.0,616,451,60,117.0,313,1,432,582,234,0,0,781,-3450,-31066,750,,,,,,,,,,,,
597423,1560688229428,3,2.26,2.43,2.65,2.23,2.06,0.5,0.09,1.05,1,5,0,0.51,10382,100,87,32,85,986,757.0,618,455,60,117.0,313,1,422,582,234,0,0,788,-22795,-23308,757,,,,,,,,,,,,
597443,1560688229448,3,2.26,2.5,2.68,2.26,2.11,0.49,0.03,0.98,1,1,-1,0.49,10382,100,87,32,85,1003,755.0,627,445,60,117.0,313,1,422,582,234,0,0,778,-2574,-22795,755,45.701794,4.911377,71.67,198.3,6,1.6483,0,0.0,0.4733,7,0.38,9.9574
597463,1560688229468,1,2.25,2.48,2.8,2.25,2.23,0.52,-0.01,1.03,1,-0,-1,0.52,10474,100,87,32,85,1009,760.0,623,453,60,117.0,313,1,429,582,234,0,0,777,-31066,-10212,760,,,,,,,,,,,,
597483,1560688229488,-0,2.26,2.49,2.99,2.26,2.37,0.54,-0.11,0.96,-1,-0,-0,0.55,10689,100,87,32,85,1009,761.0,622,451,60,117.0,313,1,435,582,234,0,0,779,13016,-31066,758,,,,,,,,,,,,
597503,1560688229508,5,2.24,2.56,3.18,2.27,2.53,0.57,-0.11,0.86,-0,-0,-1,0.58,10788,100,87,32,85,1005,763.0,620,458,60,117.0,314,1,440,582,238,0,0,813,6389,5344,761,,,,,,,,,,,,
597523,1560688229528,3,2.24,2.6,3.31,2.31,2.77,0.56,-0.24,0.78,-1,-2,-2,0.61,11003,100,87,32,85,998,765.0,625,455,60,117.0,314,1,444,582,238,0,0,818,6900,-9995,765,,,,,,,,,,,,
597543,1560688229548,5,2.24,2.6,3.4,2.4,2.81,0.47,-0.18,0.7,-2,-1,-3,0.51,11343,100,87,32,85,988,766.0,637,457,60,117.0,314,1,441,582,238,0,0,842,-2570,-13312,768,45.701778,4.911397,73.52,198.2,6,1.6483,0,0.0,0.475,7,0.38,9.9591
597563,1560688229568,5,2.23,2.64,3.4,2.44,2.89,0.4,-0.14,0.71,-2,-3,-2,0.42,11559,100,87,32,84,975,772.0,636,459,60,117.0,314,1,440,564,238,0,0,856,-2570,-2826,768,,,,,,,,,,,,
597583,1560688229588,5,2.23,2.68,3.33,2.42,2.91,0.38,-0.01,0.69,-2,-2,-4,0.38,11770,100,87,32,83,959,778.0,640,460,60,117.0,314,1,440,568,238,0,0,855,-2574,-3348,768,,,,,,,,,,,,
597603,1560688229608,4,2.23,2.67,3.32,2.4,2.87,0.39,0.03,0.68,-2,-3,-5,0.39,12034,100,87,32,83,948,781.0,642,456,60,117.0,326,1,440,558,252,0,0,856,-2826,-5114,773,,,,,,,,,,,,
597623,1560688229628,3,2.24,2.67,3.29,2.4,2.78,0.32,0.05,0.66,-2,-5,-4,0.32,12112,100,87,32,83,942,787.0,641,457,60,116.0,326,1,440,560,252,0,0,913,3544,-31068,778,,,,,,,,,,,,
597643,1560688229648,2,2.24,2.68,3.13,2.36,2.66,0.25,0.08,0.79,-3,-4,-5,0.27,12112,100,87,32,83,933,791.0,646,457,60,117.0,326,1,440,560,252,0,0,889,-2826,-2426,777,45.701771,4.911419,76.11,198.2,6,1.6483,0,0.0,0.4767,7,0.38,9.9607
597663,1560688229668,4,2.25,2.7,2.94,2.3,2.51,0.26,0.02,0.85,-3,-2,-5,0.26,12019,100,87,32,83,916,801.0,645,458,60,117.0,326,1,440,560,252,0,0,840,-13072,-5120,784,,,,,,,,,,,,
597683,1560688229688,4,2.26,2.71,2.78,2.3,2.42,0.24,0.08,0.86,-3,-3,-5,0.25,11762,100,87,32,83,902,805.0,641,456,60,116.0,326,1,440,552,252,0,0,853,-2560,-10508,790,,,,,,,,,,,,
597703,1560688229708,6,2.27,2.71,2.68,2.32,2.41,0.19,0.21,0.94,-4,-8,-4,0.29,11446,100,87,32,83,891,809.0,637,458,60,117.0,303,1,441,545,241,0,0,855,-3450,6790,793,,,,,,,,,,,,
597723,1560688229728,3,2.27,2.72,2.62,2.31,2.42,0.3,0.04,0.95,-3,-9,-4,0.3,11200,100,87,32,84,877,813.0,633,456,60,117.0,303,1,442,564,241,0,0,834,-2830,-30694,793,,,,,,,,,,,,
597743,1560688229748,3,2.28,2.64,2.68,2.27,2.44,0.31,0.22,0.85,-3,-9,-3,0.38,11180,100,87,32,84,853,813.0,624,450,60,117.0,303,1,442,564,241,0,0,842,31988,-22795,812,45.701756,4.91144,77.22,198.1,6,1.6483,0,0.0,0.4783,7,0.38,9.9624
597763,1560688229768,6,2.27,2.5,2.94,2.15,2.55,0.26,0.22,0.89,-2,-4,-4,0.34,11281,100,87,32,84,832,820.0,638,457,60,117.0,303,1,441,564,241,0,0,846,-13580,-23308,818,,,,,,,,,,,,
597783,1560688229788,-0,2.28,2.45,3.15,2.12,2.64,0.24,0.14,0.97,-0,-3,-5,0.28,11439,100,87,32,84,820,825.0,626,457,60,117.0,303,1,440,564,241,0,0,851,3462,-23308,825,,,,,,,,,,,,
597803,1560688229808,7,2.28,2.46,3.16,2.14,2.6,0.3,0.11,1.03,0,-4,-6,0.32,11674,100,87,32,83,811,823.0,635,448,60,116.0,301,1,440,568,247,0,0,854,1037,-31068,825,,,,,,,,,,,,
597823,1560688229828,4,2.28,2.45,3.07,2.12,2.5,0.38,0.08,0.93,1,-5,-6,0.39,11777,100,87,32,83,817,831.0,627,449,60,117.0,301,1,440,553,247,0,0,849,-2314,8838,831,,,,,,,,,,,,
597843,1560688229848,7,2.27,2.44,2.96,2.13,2.38,0.47,0.09,1.02,0,-5,-5,0.48,11755,100,87,32,83,822,837.0,638,450,60,116.0,301,1,440,553,247,0,0,865,-30694,-10508,837,45.701744,4.911463,79.66,198.0,6,1.6483,0,0.0,0.48,7,0.38,9.9641
597863,1560688229868,5,2.28,2.44,2.88,2.13,2.33,0.5,0.11,1.07,-0,-5,-5,0.51,11674,83,87,32,82,841,839.0,630,447,60,116.0,301,1,440,541,247,0,0,866,136,-2311,840,,,,,,,,,,,,
597883,1560688229888,6,2.29,2.44,2.87,2.14,2.28,0.55,0.09,1.01,-0,-5,-5,0.56,11653,61,87,32,75,858,841.0,635,450,60,117.0,301,1,440,485,247,0,0,860,-2830,-10508,841,,,,,,,,,,,,
597903,1560688229908,13,2.28,2.41,2.89,2.13,2.28,0.62,0.14,0.95,0,-2,-6,0.64,11474,43,87,32,66,868,840.0,634,457,60,117.0,241,1,441,437,203,0,0,860,-2830,-1582,839,,,,,,,,,,,,
597923,1560688229928,13,2.27,2.38,3.02,2.12,2.36,0.63,0.02,1.0,1,-5,-7,0.63,11241,29,87,32,55,877,841.0,635,457,60,117.0,241,1,406,355,203,0,0,854,-4096,-2766,841,,,,,,,,,,,,
597943,1560688229948,15,2.29,2.27,3.16,2.08,2.52,0.65,0.13,0.95,1,-7,-7,0.67,10894,18,87,32,47,870,836.0,636,457,60,118.0,241,1,380,260,203,0,0,847,-30694,-10508,840,45.701733,4.911486,81.06,198.0,6,1.6483,0,0.0,0.4817,7,0.39,9.9657
597963,1560688229968,18,2.27,2.17,3.33,2.01,2.67,0.76,0.13,0.82,2,-5,-8,0.77,10738,13,87,32,42,861,835.0,637,460,60,117.0,241,1,342,231,203,0,0,829,-2314,-30694,835,,,,,,,,,,,,
597983,1560688229988,17,2.27,2.1,3.43,1.99,2.76,0.78,0.12,0.71,2,-6,-8,0.79,10492,12,87,32,38,836,834.0,630,457,60,118.0,241,1,317,217,203,0,0,825,-31066,-2358,834,,,,,,,,,,,,
598003,1560688229999,17,2.27,2.08,3.46,1.95,2.84,0.8,0.17,0.54,1,-4,-7,0.82,10341,12,87,32,35,811,830.0,630,455,60,118.0,101,1,308,215,85,0,0,814,-13068,-13068,830,,,,,,,,,,,,
598023,1560688230019,20,2.27,2.08,3.45,1.94,2.81,0.84,0.14,0.67,1,-1,-5,0.85,10168,12,87,32,33,793,827.0,618,459,60,117.0,101,1,302,212,85,0,0,803,3462,-388,826,,,,,,,,,,,,
598043,1560688230039,20,2.28,2.05,3.44,1.92,2.81,0.87,0.13,0.59,1,-1,-5,0.88,10229,12,87,32,32,776,822.0,618,461,60,117.0,101,1,300,212,85,0,0,788,-13580,-23308,822,45.701721,4.91151,83.23,197.9,6,1.6483,0,0.0,0.4833,7,0.39,9.9674
598063,1560688230059,22,2.28,2.03,3.41,1.89,2.78,0.93,0.1,0.59,1,-3,-6,0.93,10245,12,87,32,31,778,818.0,623,457,60,117.0,101,1,295,211,85,0,0,772,-2830,-2540,819,,,,,,,,,,,,
598083,1560688230079,20,2.28,1.99,3.4,1.83,2.79,0.9,-0.02,0.37,1,-1,-4,0.9,10302,12,87,32,30,780,813.0,630,455,60,118.0,101,1,291,210,85,0,0,770,-2830,-23308,811,,,,,,,,,,,,
598103,1560688230105,17,2.29,1.94,3.4,1.78,2.8,0.98,-0.13,0.31,1,1,-2,0.99,10376,12,87,32,29,795,809.0,630,458,60,118.0,101,1,287,209,82,0,0,781,-31068,6790,807,,,,,,,,,,,,
598123,1560688230125,18,2.29,1.91,3.43,1.75,2.78,1.03,-0.17,0.27,2,-3,-3,1.04,10359,12,87,32,29,814,803.0,631,458,60,118.0,101,1,287,209,82,0,0,760,-13312,-2826,804,,,,,,,,,,,,
598143,1560688230145,18,2.3,1.91,3.44,1.72,2.78,1.04,-0.09,0.23,1,-2,-2,1.04,10399,12,87,32,28,829,799.0,628,457,60,117.0,101,1,282,208,82,0,0,752,6905,-2830,799,45.70171,4.911534,82.64,197.8,6,1.6483,0,0.0,0.485,7,0.39,9.9691
598163,1560688230165,18,2.29,1.91,3.44,1.74,2.72,1.09,0.05,0.22,2,0,-1,1.09,10307,12,87,32,28,842,791.0,634,455,60,118.0,101,1,282,206,82,0,0,757,-2540,-2830,791,,,,,,,,,,,,
598183,1560688230185,24,2.3,1.92,3.43,1.78,2.7,1.04,0.09,0.23,2,1,-1,1.04,10324,12,87,31,27,842,785.0,626,456,60,117.0,101,1,278,206,82,0,0,770,-22795,6900,785,,,,,,,,,,,,
598203,1560688230205,19,2.3,1.94,3.45,1.85,2.75,1.14,0.05,0.28,2,-2,-2,1.14,10296,12,87,31,27,836,772.0,628,453,60,117.0,101,1,278,203,79,0,0,749,7413,-31068,772,,,,,,,,,,,,
598223,1560688230225,20,2.3,1.94,3.46,1.83,2.8,1.06,-0.07,0.35,2,-2,-2,1.07,10285,12,87,31,27,823,768.0,624,459,60,118.0,101,1,278,203,79,0,0,756,-10214,-23308,765,,,,,,,,,,,,
598243,1560688230245,19,2.3,1.93,3.5,1.82,2.85,1.0,-0.04,0.2,3,-1,0,1.0,10129,12,87,31,27,806,765.0,624,460,60,117.0,101,1,278,199,79,0,0,739,-2344,-13068,766,45.701698,4.911558,80.82,197.8,6,1.6483,0,0.0,0.4867,7,0.39,9.9707
598263,1560688230265,18,2.3,1.93,3.61,1.83,2.95,0.99,-0.01,0.12,3,-3,0,0.99,9994,12,87,31,27,793,765.0,619,462,60,118.0,101,1,278,193,79,0,0,730,-10218,-3344,766,,,,,,,,,,,,
598283,1560688230285,17,2.3,1.92,3.68,1.83,3.0,1.01,-0.09,0.25,3,-3,0,1.02,9842,12,87,31,26,781,763.0,627,461,60,117.0,101,1,274,190,79,0,0,709,-10218,-13580,765,,,,,,,,,,,,
598303,1560688230307,22,2.29,1.91,3.66,1.83,2.97,1.03,-0.12,0.16,3,1,-0,1.04,9659,12,87,31,26,774,761.0,618,462,60,118.0,90,1,274,189,69,0,0,703,-22795,-31066,763,,,,,,,,,,,,
598323,1560688230327,16,2.31,1.9,3.59,1.85,2.94,0.93,-0.0,0.05,4,-0,-1,0.93,9422,12,87,31,25,767,760.0,619,457,60,117.0,90,1,270,188,69,0,0,701,-23308,-25858,757,,,,,,,,,,,,
598343,1560688230347,17,2.31,1.88,3.55,1.85,2.88,1.02,-0.08,0.02,5,3,1,1.03,9333,12,87,31,24,766,755.0,612,457,60,118.0,90,1,270,181,69,0,0,706,-22796,-2830,755,45.701683,4.911581,78.62,197.7,6,1.6483,0,0.0,0.4883,7,0.4,9.9724
598363,1560688230367,16,2.29,1.84,3.49,1.81,2.82,1.12,-0.27,0.14,4,-4,2,1.16,9342,12,87,31,24,771,751.0,614,455,60,118.0,90,1,270,181,69,0,0,701,-2314,11576,751,,,,,,,,,,,,
598383,1560688230387,17,2.29,1.78,3.47,1.79,2.73,0.97,-0.23,0.12,5,-2,3,1.0,9356,12,87,31,23,781,743.0,612,453,60,119.0,90,1,270,176,69,0,0,708,-2826,6658,746,,,,,,,,,,,,
598403,1560688230407,17,2.29,1.75,3.53,1.76,2.72,0.88,-0.1,0.0,6,-0,4,0.88,9431,12,87,31,23,796,740.0,607,457,60,119.0,83,1,270,176,62,0,0,685,-2314,6208,737,,,,,,,,,,,,
598423,1560688230427,15,2.29,1.72,3.56,1.73,2.68,0.98,-0.21,0.15,6,-1,4,1.0,9398,12,87,31,22,809,735.0,604,454,60,119.0,83,1,270,170,62,0,0,670,-2918,-12152,735,,,,,,,,,,,,
598443,1560688230447,16,2.28,1.7,3.54,1.71,2.68,1.08,-0.34,0.24,5,2,5,1.13,9356,12,87,31,22,819,728.0,603,454,60,118.0,83,1,270,170,62,0,0,677,-25858,-10448,725,45.701672,4.911602,76.36,197.6,6,1.6483,0,0.0,0.49,7,0.4,9.974
598463,1560688230467,16,2.27,1.71,3.55,1.71,2.68,0.99,-0.32,0.17,5,0,3,1.04,9333,12,87,31,22,835,717.0,607,462,60,118.0,83,1,270,170,62,0,0,679,-23490,12333,717,,,,,,,,,,,,
598483,1560688230487,17,2.28,1.73,3.54,1.72,2.69,0.85,-0.13,0.02,5,2,3,0.86,9309,12,87,31,21,858,711.0,610,457,60,118.0,83,1,270,247,62,0,0,678,6658,-26892,707,,,,,,,,,,,,
598503,1560688230507,18,2.27,1.72,3.54,1.72,2.71,0.95,-0.08,-0.08,5,2,3,0.96,9309,12,87,31,22,876,703.0,614,462,60,116.0,124,1,270,242,88,0,0,679,19188,24,703,,,,,,,,,,,,
598523,1560688230527,18,2.26,1.72,3.53,1.72,2.74,1.06,-0.16,0.0,4,2,4,1.07,9209,12,87,31,21,887,700.0,614,453,60,117.0,124,1,270,213,88,0,0,679,-2830,-10346,698,,,,,,,,,,,,
598543,1560688230547,17,2.26,1.72,3.52,1.72,2.82,1.15,-0.32,0.08,2,-0,5,1.2,9101,12,87,31,20,901,698.0,612,460,60,116.0,124,1,270,187,88,0,0,673,16599,-2826,694,45.70166,4.911624,73.77,197.5,6,1.6483,0,0.0,0.4917,7,0.4,9.9757
598563,1560688230567,13,2.26,1.73,3.48,1.71,2.9,1.14,-0.38,0.2,1,-3,7,1.2,8984,12,87,31,20,922,693.0,608,459,60,117.0,124,1,270,171,88,0,0,675,11576,2024,689,,,,,,,,,,,,
598583,1560688230587,13,2.25,1.73,3.47,1.69,2.93,1.23,-0.48,0.23,1,-3,7,1.32,8877,12,87,31,21,940,691.0,599,461,60,117.0,124,1,270,164,88,0,0,667,1780,2024,687,,,,,,,,,,,,
598603,1560688230607,11,2.26,1.73,3.45,1.69,2.9,1.25,-0.48,0.33,1,-3,7,1.34,8790,12,87,31,21,948,686.0,595,453,60,117.0,79,1,270,164,55,0,0,658,6208,-3488,684,,,,,,,,,,,,
598623,1560688230627,4,2.28,1.73,3.44,1.69,2.84,1.33,-0.38,0.23,1,-0,7,1.38,8757,11,87,31,22,949,684.0,587,457,60,116.0,79,1,270,170,55,0,0,645,24845,8958,683,,,,,,,,,,,,
598643,1560688230647,7,2.28,1.74,3.41,1.68,2.81,1.14,-0.19,0.1,0,-0,8,1.16,8765,11,87,31,22,925,682.0,580,457,60,117.0,79,1,270,170,55,0,0,653,-10344,-388,681,45.701649,4.911644,71.31,197.5,6,1.6483,0,0.0,0.4933,7,0.4,9.9774
598663,1560688230667,4,2.3,1.78,3.34,1.7,2.73,1.09,-0.13,0.03,1,1,7,1.1,8782,11,87,31,22,900,681.0,583,458,60,116.0,79,1,270,170,55,0,0,662,-2345,-2830,678,,,,,,,,,,,,
598683,1560688230687,4,2.3,1.78,3.33,1.69,2.69,0.96,-0.03,0.09,1,2,6,0.96,8848,11,87,31,23,866,675.0,596,460,60,117.0,79,1,270,176,55,0,0,662,-10344,8958,675,,,,,,,,,,,,
598703,1560688230707,-1,2.31,1.78,3.32,1.7,2.68,1.06,-0.13,0.12,1,2,5,1.07,8877,11,87,31,23,836,673.0,595,458,60,117.0,86,1,270,176,58,0,0,655,-26380,-3488,672,,,,,,,,,,,,
598723,1560688230727,3,2.3,1.78,3.3,1.7,2.64,1.06,-0.19,0.2,1,2,5,1.07,8907,11,87,31,23,816,668.0,604,462,60,117.0,86,1,270,176,58,0,0,652,-2830,-388,668,,,,,,,,,,,,
598743,1560688230747,3,2.3,1.79,3.32,1.69,2.67,1.13,-0.31,0.24,2,2,6,1.17,8932,11,87,32,23,795,669.0,608,460,60,117.0,86,1,270,176,58,0,0,655,-10348,24583,669,45.701637,4.911663,68.83,197.4,6,1.6483,0,0.0,0.495,7,0.4,9.979
598763,1560688230767,3,2.29,1.79,3.34,1.71,2.67,1.19,-0.3,0.28,2,1,5,1.22,8928,11,87,32,23,808,667.0,608,461,60,117.0,86,1,270,176,58,0,0,654,-2826,8958,666,,,,,,,,,,,,
598783,1560688230787,5,2.3,1.79,3.33,1.74,2.64,1.27,-0.46,0.35,2,-1,5,1.35,8894,11,87,32,23,822,667.0,603,455,60,117.0,86,1,270,176,58,0,0,658,-2826,-6006,664,,,,,,,,,,,,
598803,1560688230809,3,2.31,1.78,3.36,1.74,2.62,1.27,-0.45,0.3,2,3,6,1.35,8844,11,87,32,23,861,664.0,595,462,60,117.0,88,1,270,176,59,0,0,645,-26380,-2830,660,,,,,,,,,,,,
598823,1560688230829,6,2.3,1.79,3.39,1.72,2.64,1.22,-0.39,0.33,3,1,6,1.28,8782,11,87,32,23,900,659.0,590,455,60,116.0,88,1,270,176,59,0,0,641,-388,-30207,659,,,,,,,,,,,,
598843,1560688230849,9,2.3,1.77,3.41,1.71,2.65,1.08,-0.3,0.32,4,4,5,1.12,8684,11,87,32,23,927,655.0,579,457,60,116.0,88,1,270,176,59,0,0,639,24583,6208,657,45.70163,4.911683,67.11,197.3,6,1.6483,0,0.0,0.4967,7,0.41,9.9807
598863,1560688230869,9,2.29,1.74,3.43,1.69,2.64,1.09,-0.31,0.37,4,2,4,1.13,8624,11,87,32,23,953,655.0,577,459,60,117.0,88,1,270,176,59,0,0,630,-6006,4909,655,,,,,,,,,,,,
598883,1560688230889,8,2.29,1.72,3.43,1.68,2.65,1.18,-0.4,0.42,3,3,4,1.25,8557,11,87,32,23,995,650.0,574,459,60,117.0,88,1,270,176,59,0,0,630,-6006,-10251,649,,,,,,,,,,,,
598903,1560688230909,14,2.28,1.74,3.38,1.69,2.64,1.09,-0.32,0.36,2,2,5,1.14,8518,11,87,32,23,1037,646.0,575,458,60,116.0,87,1,270,176,57,0,0,634,4909,-2580,642,,,,,,,,,,,,
598923,1560688230929,15,2.28,1.8,3.35,1.71,2.67,1.09,-0.31,0.32,3,3,4,1.13,8549,11,87,32,23,1060,640.0,578,456,60,116.0,87,1,270,176,57,0,0,633,6208,-1346,639,,,,,,,,,,,,
598943,1560688230949,13,2.27,1.82,3.32,1.72,2.67,1.14,-0.28,0.38,2,2,2,1.17,8522,11,87,32,23,1077,636.0,585,457,60,117.0,87,1,270,176,57,0,0,623,3,-18357,630,45.701618,4.911701,65.63,197.3,6,1.6483,0,0.0,0.4983,7,0.41,9.9824
598963,1560688230969,18,2.26,1.83,3.32,1.73,2.68,1.17,-0.2,0.26,2,-1,1,1.18,8472,11,87,32,23,1096,629.0,588,454,60,116.0,87,1,270,175,57,0,0,615,506,506,628,,,,,,,,,,,,
598983,1560688230989,17,2.27,1.81,3.34,1.71,2.71,1.2,-0.24,0.3,2,-1,1,1.23,8359,11,87,32,23,1116,626.0,580,455,60,117.0,87,1,270,169,57,0,0,615,3395,19621,621,,,,,,,,,,,,
599003,1560688231002,19,2.28,1.82,3.42,1.7,2.77,1.16,-0.18,0.28,2,-4,2,1.17,8245,11,87,32,23,1123,621.0,581,460,60,117.0,85,1,270,164,53,0,0,608,30721,-7939,621,,,,,,,,,,,,
599023,1560688231022,15,2.3,1.81,3.5,1.67,2.82,1.21,-0.3,0.23,2,-4,2,1.25,8177,11,87,32,23,1125,619.0,566,458,60,117.0,85,1,270,161,53,0,0,599,19320,243,619,,,,,,,,,,,,
599043,1560688231042,12,2.32,1.81,3.53,1.71,2.83,1.09,-0.29,0.26,2,-5,1,1.13,7992,11,87,32,23,1125,616.0,552,458,60,116.0,85,1,269,154,53,0,0,592,19304,243,615,45.701611,4.911719,64.19,197.3,6,1.6483,0,0.0,0.5,7,0.41,9.984
599063,1560688231062,11,2.33,1.8,3.56,1.73,2.8,1.04,-0.13,0.11,3,-1,2,1.05,7832,11,87,32,22,1124,613.0,548,457,60,118.0,85,1,268,151,53,0,0,592,-28304,-30139,618,,,,,,,,,,,,
599083,1560688231082,3,2.35,1.77,3.55,1.76,2.79,0.93,-0.12,-0.05,5,0,4,0.94,7760,11,87,32,22,1122,615.0,532,450,60,118.0,85,1,267,151,53,0,0,523,-30139,-3082,615,,,,,,,,,,,,
599103,1560688231108,3,2.34,1.76,3.55,1.79,2.76,1.04,-0.18,0.04,3,3,2,1.05,7918,11,87,32,22,1119,615.0,530,459,60,119.0,71,1,269,151,44,0,0,508,-3820,-3190,615,,,,,,,,,,,,
599123,1560688231128,3,2.35,1.77,3.5,1.84,2.69,1.04,-0.19,-0.01,4,4,3,1.05,7848,11,87,32,22,1103,611.0,542,457,60,117.0,71,1,268,151,44,0,0,497,4956,10408,607,,,,,,,,,,,,
599143,1560688231148,3,2.35,1.75,3.53,1.86,2.71,1.06,-0.26,0.08,6,1,3,1.09,8095,11,87,32,22,1081,608.0,546,456,60,119.0,71,1,270,154,44,0,0,553,-32504,1780,608,45.701599,4.911737,62.27,197.3,6,1.6483,0,0.0,0.5017,7,0.41,9.9857
599163,1560688231168,2,2.34,1.74,3.52,1.85,2.68,1.14,-0.3,0.11,6,1,4,1.18,8023,11,86,32,21,1061,602.0,551,457,60,118.0,71,1,270,149,44,0,0,531,-12040,14504,602,,,,,,,,,,,,
599183,1560688231188,4,2.34,1.72,3.5,1.87,2.63,1.17,-0.28,0.03,7,-0,5,1.2,8173,11,86,32,21,1042,600.0,556,453,60,117.0,71,1,270,154,44,0,0,567,15649,-8186,601,,,,,,,,,,,,
599203,1560688231208,-1,2.35,1.7,3.51,1.88,2.63,1.14,-0.41,0.01,8,-1,5,1.21,8230,11,86,32,21,1001,598.0,563,456,60,118.0,78,1,270,155,47,0,0,568,-16384,-8188,598,,,,,,,,,,,,
599223,1560688231228,4,2.34,1.69,3.56,1.9,2.65,1.05,-0.4,0.02,9,2,6,1.12,8314,11,86,33,21,943,594.0,568,455,60,118.0,78,1,270,158,47,0,0,557,-3210,2524,594,,,,,,,,,,,,
599243,1560688231248,3,2.35,1.66,3.58,1.91,2.64,1.1,-0.42,0.01,9,-2,6,1.18,8396,11,86,33,21,893,592.0,577,453,60,118.0,78,1,270,160,47,0,0,556,1760,2211,595,45.701592,4.911754,60.75,197.2,6,1.6483,0,0.0,0.5033,7,0.41,9.9874
599263,1560688231268,1,2.34,1.68,3.55,1.94,2.64,1.07,-0.51,0.01,9,-2,7,1.19,8419,11,86,33,21,854,589.0,578,461,60,118.0,78,1,270,161,47,0,0,548,1760,-22519,589,,,,,,,,,,,,
599283,1560688231288,5,2.34,1.67,3.54,1.94,2.63,1.0,-0.44,-0.06,10,-2,8,1.09,8518,11,86,33,21,823,587.0,577,455,60,118.0,78,1,270,164,47,0,0,558,-8186,-30159,582,,,,,,,,,,,,
599303,1560688231308,4,2.34,1.67,3.54,1.96,2.62,1.01,-0.42,-0.07,10,-2,8,1.1,8581,11,86,33,21,800,580.0,580,455,60,118.0,91,1,270,164,53,0,0,548,-30159,-28648,580,,,,,,,,,,,,
599323,1560688231328,1,2.35,1.68,3.56,1.96,2.61,1.03,-0.49,0.03,10,-3,9,1.14,8644,11,86,33,21,789,578.0,581,461,60,118.0,91,1,270,164,53,0,0,542,-23623,-32248,578,,,,,,,,,,,,
599343,1560688231348,0,2.35,1.67,3.56,1.97,2.61,1.03,-0.55,-0.01,10,-4,11,1.17,8708,13,86,33,21,805,575.0,580,457,60,118.0,91,1,270,164,53,0,0,547,-32504,-32248,575,45.701576,4.91177,59.36,197.2,6,1.6483,0,0.0,0.505,7,0.41,9.989
599363,1560688231368,-0,2.34,1.67,3.56,1.98,2.63,0.91,-0.48,-0.03,10,1,12,1.03,8741,16,86,33,21,824,569.0,581,457,60,117.0,91,1,270,164,53,0,0,539,-22359,1779,569,,,,,,,,,,,,
599383,1560688231388,3,2.34,1.67,3.57,1.98,2.64,0.78,-0.32,-0.07,10,-2,11,0.85,8861,22,86,33,23,845,569.0,582,455,60,117.0,91,1,270,170,53,0,0,529,-28648,-28648,568,,,,,,,,,,,,
599403,1560688231408,3,2.35,1.68,3.56,1.96,2.64,0.7,-0.29,-0.07,11,1,11,0.75,8903,27,86,33,25,862,565.0,594,459,60,118.0,107,1,270,188,61,0,0,533,2104,6274,565,,,,,,,,,,,,
599423,1560688231428,-1,2.36,1.69,3.56,1.98,2.63,0.63,-0.16,-0.15,11,-1,10,0.65,9141,31,86,33,28,867,562.0,603,453,60,117.0,107,1,282,188,61,0,0,528,-22519,2524,562,,,,,,,,,,,,
599443,1560688231448,-0,2.37,1.68,3.58,1.99,2.62,0.49,-0.06,-0.19,12,3,11,0.49,9337,34,86,33,32,872,558.0,618,455,60,117.0,107,1,300,192,61,0,0,526,1779,-2934,559,45.701569,4.911786,57.19,197.3,6,1.6483,0,0.0,0.5067,7,0.42,9.9907
599463,1560688231468,4,2.37,1.68,3.63,1.99,2.61,0.53,-0.2,-0.11,12,1,10,0.57,9532,35,86,33,34,875,556.0,623,453,60,118.0,107,1,305,203,61,0,0,512,-2934,6274,556,,,,,,,,,,,,
599483,1560688231488,0,2.37,1.67,3.63,1.98,2.61,0.68,-0.26,-0.14,12,1,10,0.73,9725,36,86,33,36,877,555.0,623,460,60,118.0,107,1,311,210,61,0,0,505,-30064,14504,555,,,,,,,,,,,,
599503,1560688231510,5,2.37,1.65,3.61,1.96,2.61,0.68,-0.41,-0.06,12,1,11,0.8,9904,38,86,33,38,875,551.0,626,452,60,118.0,142,1,317,215,79,0,0,512,-28648,10408,549,,,,,,,,,,,,
599523,1560688231530,2,2.38,1.67,3.55,1.97,2.59,0.7,-0.42,0.03,13,-0,10,0.81,10091,39,86,33,40,876,550.0,631,455,60,117.0,142,1,327,221,79,0,0,527,2524,1779,551,,,,,,,,,,,,
599543,1560688231550,3,2.37,1.67,3.6,2.0,2.55,0.77,-0.43,-0.01,13,3,10,0.88,10201,40,86,33,41,888,548.0,640,452,60,118.0,142,1,335,225,79,0,0,520,2524,1779,548,45.701557,4.9118,55.71,197.3,6,1.6483,0,0.0,0.5083,7,0.42,9.9924
599563,1560688231570,0,2.39,1.69,3.6,2.05,2.5,0.74,-0.42,-0.06,14,2,11,0.85,10234,40,86,33,43,901,546.0,630,457,60,118.0,142,1,350,229,79,0,0,523,-28648,-3082,546,,,,,,,,,,,,
599583,1560688231590,1,2.39,1.71,3.57,2.12,2.46,0.64,-0.43,0.05,14,1,12,0.77,10353,40,86,33,44,915,546.0,631,457,60,118.0,142,1,357,236,79,0,0,530,-32248,-506,546,,,,,,,,,,,,
599603,1560688231604,2,2.39,1.73,3.55,2.2,2.42,0.69,-0.46,0.17,14,1,13,0.82,10359,40,86,33,44,934,545.0,635,452,60,118.0,170,1,357,236,93,0,0,521,-32248,1780,545,,,,,,,,,,,,
599623,1560688231624,0,2.39,1.73,3.52,2.19,2.42,0.64,-0.44,0.23,14,3,14,0.78,10474,40,86,33,45,984,545.0,633,455,60,118.0,170,1,365,240,93,0,0,526,2088,6274,543,,,,,,,,,,,,
